Timestamp (ms),Triggering Sensor,Latitude,Longitude,Altitude,Heading (degrees),Heading accuracy (degrees),Relative Altitude (m),Pressure (kPa),Speed (m/s),Speed Accuracy (m/s),Floor,Acceleration - X axis,Acceleration - Y axis,Acceleration - Z axis,Gyrometer - X axis,Gyrometer - Y axis,Gyrometer - Z axis,Magnetometer - X axis,Magnetometer - Y axis,Magnetometer - Z axis,User acceleration - X axis,User acceleration - Y axis,User acceleration - Z axis,Attitude Pitch,Attitude Roll,Attitude Yaw,Gravity - X axis,Gravity - Y axis,Gravity - Z axis,Rotation Rate - X axis,Rotation Rate - Y axis,Rotation Rate - Z axis,Activity Type,Number of Steps,Distance,Floors Ascended,Floors Descended,Current Pace,Current Cadence,Average Active Pace
12,Gyrometer,,,,,,,,,,,,,,-0.06705226749181747,-0.011438542976975441,-0.09218425303697586,,,,,,,,,,,,,,,,,,,,,,,
35,GPS,40.44393689633309,-79.94448820116904,289.7412300109863,,,,,-1.0,-1.0,N/A,,,,-0.06705226749181747,-0.011438542976975441,-0.09218425303697586,,,,,,,,,,,,,,,,,,,,,,,
60,COMPASS,40.44393689633309,-79.94448820116904,289.7412300109863,253.15492248535156,15.642135620117188,,,-1.0,-1.0,N/A,,,,-0.06705226749181747,-0.011438542976975441,-0.09218425303697586,,,,,,,,,,,,,,,,,,,,,,,
85,GPS,40.44393772569474,-79.94448753931451,289.7412300109863,253.15492248535156,15.642135620117188,,,-1.0,-1.0,N/A,,,,-0.06705226749181747,-0.011438542976975441,-0.09218425303697586,,,,,,,,,,,,,,,,,,,,,,,
109,GPS,40.443938701966054,-79.94448793436604,289.7412300109863,253.15492248535156,15.642135620117188,,,-1.0,-1.0,N/A,,,,-0.06705226749181747,-0.011438542976975441,-0.09218425303697586,,,,,,,,,,,,,,,,,,,,,,,
133,Magnetometer,40.443938701966054,-79.94448793436604,289.7412300109863,253.15492248535156,15.642135620117188,,,-1.0,-1.0,N/A,,,,-0.06705226749181747,-0.011438542976975441,-0.09218425303697586,-25.200515747070312,-114.65826416015625,-333.0657043457031,,,,,,,,,,,,,,,,,,,,
157,Accelerometer,40.443938701966054,-79.94448793436604,289.7412300109863,253.15492248535156,15.642135620117188,,,-1.0,-1.0,N/A,0.001495361328125,-0.972991943359375,-0.210845947265625,-0.06705226749181747,-0.011438542976975441,-0.09218425303697586,-25.200515747070312,-114.65826416015625,-333.0657043457031,,,,,,,,,,,,,,,,,,,,
185,Activity Manager,40.443938701966054,-79.94448793436604,289.7412300109863,253.15492248535156,15.642135620117188,,,-1.0,-1.0,N/A,0.001495361328125,-0.972991943359375,-0.210845947265625,-0.06705226749181747,-0.011438542976975441,-0.09218425303697586,-25.200515747070312,-114.65826416015625,-333.0657043457031,,,,,,,,,,,,,Walking,,,,,,,
213,Device Motion,40.443938701966054,-79.94448793436604,289.7412300109863,253.15492248535156,15.642135620117188,,,-1.0,-1.0,N/A,0.001495361328125,-0.972991943359375,-0.210845947265625,-0.06705226749181747,-0.011438542976975441,-0.09218425303697586,-25.200515747070312,-114.65826416015625,-333.0657043457031,-0.032361894845962524,-0.01187831163406372,0.018410101532936096,1.3222120902081864,0.08064281267621073,-0.06274378197597404,0.01981918141245842,-0.9692617058753967,-0.24523203074932098,0.22255076467990875,0.20804467797279358,-0.17077688872814178,Walking,,,,,,,
244,COMPASS,40.443938701966054,-79.94448793436604,289.7412300109863,254.36036682128906,15.636907577514648,,,-1.0,-1.0,N/A,0.001495361328125,-0.972991943359375,-0.210845947265625,-0.06705226749181747,-0.011438542976975441,-0.09218425303697586,-25.200515747070312,-114.65826416015625,-333.0657043457031,-0.032361894845962524,-0.01187831163406372,0.018410101532936096,1.3222120902081864,0.08064281267621073,-0.06274378197597404,0.01981918141245842,-0.9692617058753967,-0.24523203074932098,0.22255076467990875,0.20804467797279358,-0.17077688872814178,Walking,,,,,,,
305,Gyrometer,40.443938701966054,-79.94448793436604,289.7412300109863,254.36036682128906,15.636907577514648,,,-1.0,-1.0,N/A,0.001495361328125,-0.972991943359375,-0.210845947265625,-0.04536481946706772,-0.26166224479675293,-0.15883438289165497,-25.200515747070312,-114.65826416015625,-333.0657043457031,-0.032361894845962524,-0.01187831163406372,0.018410101532936096,1.3222120902081864,0.08064281267621073,-0.06274378197597404,0.01981918141245842,-0.9692617058753967,-0.24523203074932098,0.22255076467990875,0.20804467797279358,-0.17077688872814178,Walking,,,,,,,
338,COMPASS,40.443938701966054,-79.94448793436604,289.7412300109863,255.40760803222656,15.636507987976074,,,-1.0,-1.0,N/A,0.001495361328125,-0.972991943359375,-0.210845947265625,-0.04536481946706772,-0.26166224479675293,-0.15883438289165497,-25.200515747070312,-114.65826416015625,-333.0657043457031,-0.032361894845962524,-0.01187831163406372,0.018410101532936096,1.3222120902081864,0.08064281267621073,-0.06274378197597404,0.01981918141245842,-0.9692617058753967,-0.24523203074932098,0.22255076467990875,0.20804467797279358,-0.17077688872814178,Walking,,,,,,,
368,Magnetometer,40.443938701966054,-79.94448793436604,289.7412300109863,255.40760803222656,15.636507987976074,,,-1.0,-1.0,N/A,0.001495361328125,-0.972991943359375,-0.210845947265625,-0.04536481946706772,-0.26166224479675293,-0.15883438289165497,-24.94622802734375,-114.45797729492188,-333.1021423339844,-0.032361894845962524,-0.01187831163406372,0.018410101532936096,1.3222120902081864,0.08064281267621073,-0.06274378197597404,0.01981918141245842,-0.9692617058753967,-0.24523203074932098,0.22255076467990875,0.20804467797279358,-0.17077688872814178,Walking,,,,,,,
394,Accelerometer,40.443938701966054,-79.94448793436604,289.7412300109863,255.40760803222656,15.636507987976074,,,-1.0,-1.0,N/A,-0.042083740234375,-0.92889404296875,-0.24615478515625,-0.04536481946706772,-0.26166224479675293,-0.15883438289165497,-24.94622802734375,-114.45797729492188,-333.1021423339844,-0.032361894845962524,-0.01187831163406372,0.018410101532936096,1.3222120902081864,0.08064281267621073,-0.06274378197597404,0.01981918141245842,-0.9692617058753967,-0.24523203074932098,0.22255076467990875,0.20804467797279358,-0.17077688872814178,Walking,,,,,,,
421,Device Motion,40.443938701966054,-79.94448793436604,289.7412300109863,255.40760803222656,15.636507987976074,,,-1.0,-1.0,N/A,-0.042083740234375,-0.92889404296875,-0.24615478515625,-0.04536481946706772,-0.26166224479675293,-0.15883438289165497,-24.94622802734375,-114.45797729492188,-333.1021423339844,0.011307982727885246,-0.018143296241760254,0.02733732759952545,1.3273760918864281,0.07559386417258711,-0.09316334768368108,0.0182025209069252,-0.9705193042755127,-0.24033477902412415,-0.0077596018090844154,-0.05881747603416443,0.011211758479475975,Walking,,,,,,,
511,COMPASS,40.443938701966054,-79.94448793436604,289.7412300109863,256.4786682128906,15.6328706741333,,,-1.0,-1.0,N/A,-0.042083740234375,-0.92889404296875,-0.24615478515625,-0.04536481946706772,-0.26166224479675293,-0.15883438289165497,-24.94622802734375,-114.45797729492188,-333.1021423339844,0.011307982727885246,-0.018143296241760254,0.02733732759952545,1.3273760918864281,0.07559386417258711,-0.09316334768368108,0.0182025209069252,-0.9705193042755127,-0.24033477902412415,-0.0077596018090844154,-0.05881747603416443,0.011211758479475975,Walking,,,,,,,
605,Gyrometer,40.443938701966054,-79.94448793436604,289.7412300109863,256.4786682128906,15.6328706741333,,,-1.0,-1.0,N/A,-0.042083740234375,-0.92889404296875,-0.24615478515625,0.009095493704080582,0.30143389105796814,0.03809598460793495,-24.94622802734375,-114.45797729492188,-333.1021423339844,0.011307982727885246,-0.018143296241760254,0.02733732759952545,1.3273760918864281,0.07559386417258711,-0.09316334768368108,0.0182025209069252,-0.9705193042755127,-0.24033477902412415,-0.0077596018090844154,-0.05881747603416443,0.011211758479475975,Walking,,,,,,,
634,COMPASS,40.443938701966054,-79.94448793436604,289.7412300109863,255.4175567626953,15.631304740905762,,,-1.0,-1.0,N/A,-0.042083740234375,-0.92889404296875,-0.24615478515625,0.009095493704080582,0.30143389105796814,0.03809598460793495,-24.94622802734375,-114.45797729492188,-333.1021423339844,0.011307982727885246,-0.018143296241760254,0.02733732759952545,1.3273760918864281,0.07559386417258711,-0.09316334768368108,0.0182025209069252,-0.9705193042755127,-0.24033477902412415,-0.0077596018090844154,-0.05881747603416443,0.011211758479475975,Walking,,,,,,,
661,Magnetometer,40.443938701966054,-79.94448793436604,289.7412300109863,255.4175567626953,15.631304740905762,,,-1.0,-1.0,N/A,-0.042083740234375,-0.92889404296875,-0.24615478515625,0.009095493704080582,0.30143389105796814,0.03809598460793495,-24.906707763671875,-114.31459045410156,-332.8414001464844,0.011307982727885246,-0.018143296241760254,0.02733732759952545,1.3273760918864281,0.07559386417258711,-0.09316334768368108,0.0182025209069252,-0.9705193042755127,-0.24033477902412415,-0.0077596018090844154,-0.05881747603416443,0.011211758479475975,Walking,,,,,,,
687,Accelerometer,40.443938701966054,-79.94448793436604,289.7412300109863,255.4175567626953,15.631304740905762,,,-1.0,-1.0,N/A,6.103515625e-05,-0.9534759521484375,-0.2100982666015625,0.009095493704080582,0.30143389105796814,0.03809598460793495,-24.906707763671875,-114.31459045410156,-332.8414001464844,0.011307982727885246,-0.018143296241760254,0.02733732759952545,1.3273760918864281,0.07559386417258711,-0.09316334768368108,0.0182025209069252,-0.9705193042755127,-0.24033477902412415,-0.0077596018090844154,-0.05881747603416443,0.011211758479475975,Walking,,,,,,,
720,Device Motion,40.443938701966054,-79.94448793436604,289.7412300109863,255.4175567626953,15.631304740905762,,,-1.0,-1.0,N/A,6.103515625e-05,-0.9534759521484375,-0.2100982666015625,0.009095493704080582,0.30143389105796814,0.03809598460793495,-24.906707763671875,-114.31459045410156,-332.8414001464844,0.03971986472606659,0.008529424667358398,-0.0077059268951416016,1.2817321871225134,0.14806262532067627,-0.1478964902156644,0.042051997035741806,-0.9585110545158386,-0.2819364368915558,-0.3848475515842438,-0.43002331256866455,0.0103612607344985,Walking,,,,,,,
751,COMPASS,40.443938701966054,-79.94448793436604,289.7412300109863,256.4719543457031,15.632851600646973,,,-1.0,-1.0,N/A,6.103515625e-05,-0.9534759521484375,-0.2100982666015625,0.009095493704080582,0.30143389105796814,0.03809598460793495,-24.906707763671875,-114.31459045410156,-332.8414001464844,0.03971986472606659,0.008529424667358398,-0.0077059268951416016,1.2817321871225134,0.14806262532067627,-0.1478964902156644,0.042051997035741806,-0.9585110545158386,-0.2819364368915558,-0.3848475515842438,-0.43002331256866455,0.0103612607344985,Walking,,,,,,,
905,Gyrometer,40.443938701966054,-79.94448793436604,289.7412300109863,256.4719543457031,15.632851600646973,,,-1.0,-1.0,N/A,6.103515625e-05,-0.9534759521484375,-0.2100982666015625,-0.08611943572759628,0.27367281913757324,0.006189985200762749,-24.906707763671875,-114.31459045410156,-332.8414001464844,0.03971986472606659,0.008529424667358398,-0.0077059268951416016,1.2817321871225134,0.14806262532067627,-0.1478964902156644,0.042051997035741806,-0.9585110545158386,-0.2819364368915558,-0.3848475515842438,-0.43002331256866455,0.0103612607344985,Walking,,,,,,,
932,Magnetometer,40.443938701966054,-79.94448793436604,289.7412300109863,256.4719543457031,15.632851600646973,,,-1.0,-1.0,N/A,6.103515625e-05,-0.9534759521484375,-0.2100982666015625,-0.08611943572759628,0.27367281913757324,0.006189985200762749,-25.114761352539062,-113.76847839355469,-334.0850830078125,0.03971986472606659,0.008529424667358398,-0.0077059268951416016,1.2817321871225134,0.14806262532067627,-0.1478964902156644,0.042051997035741806,-0.9585110545158386,-0.2819364368915558,-0.3848475515842438,-0.43002331256866455,0.0103612607344985,Walking,,,,,,,
958,COMPASS,40.443938701966054,-79.94448793436604,289.7412300109863,255.24034118652344,15.63500690460205,,,-1.0,-1.0,N/A,6.103515625e-05,-0.9534759521484375,-0.2100982666015625,-0.08611943572759628,0.27367281913757324,0.006189985200762749,-25.114761352539062,-113.76847839355469,-334.0850830078125,0.03971986472606659,0.008529424667358398,-0.0077059268951416016,1.2817321871225134,0.14806262532067627,-0.1478964902156644,0.042051997035741806,-0.9585110545158386,-0.2819364368915558,-0.3848475515842438,-0.43002331256866455,0.0103612607344985,Walking,,,,,,,
984,Accelerometer,40.443938701966054,-79.94448793436604,289.7412300109863,255.24034118652344,15.63500690460205,,,-1.0,-1.0,N/A,-0.0113983154296875,-0.9456787109375,-0.2972259521484375,-0.08611943572759628,0.27367281913757324,0.006189985200762749,-25.114761352539062,-113.76847839355469,-334.0850830078125,0.03971986472606659,0.008529424667358398,-0.0077059268951416016,1.2817321871225134,0.14806262532067627,-0.1478964902156644,0.042051997035741806,-0.9585110545158386,-0.2819364368915558,-0.3848475515842438,-0.43002331256866455,0.0103612607344985,Walking,,,,,,,
1019,Device Motion,40.443938701966054,-79.94448793436604,289.7412300109863,255.24034118652344,15.63500690460205,,,-1.0,-1.0,N/A,-0.0113983154296875,-0.9456787109375,-0.2972259521484375,-0.08611943572759628,0.27367281913757324,0.006189985200762749,-25.114761352539062,-113.76847839355469,-334.0850830078125,-0.01530463993549347,-0.0010520219802856445,-0.04998558759689331,1.2789651413898213,0.12913017886342162,-0.10276477490790498,0.037048425525426865,-0.9577186107635498,-0.28531110286712646,0.05165913328528404,0.3847433924674988,-0.1896217316389084,Walking,,,,,,,
1047,COMPASS,40.443938701966054,-79.94448793436604,289.7412300109863,254.2241973876953,15.635865211486816,,,-1.0,-1.0,N/A,-0.0113983154296875,-0.9456787109375,-0.2972259521484375,-0.08611943572759628,0.27367281913757324,0.006189985200762749,-25.114761352539062,-113.76847839355469,-334.0850830078125,-0.01530463993549347,-0.0010520219802856445,-0.04998558759689331,1.2789651413898213,0.12913017886342162,-0.10276477490790498,0.037048425525426865,-0.9577186107635498,-0.28531110286712646,0.05165913328528404,0.3847433924674988,-0.1896217316389084,Walking,,,,,,,
1074,Altimeter,40.443938701966054,-79.94448793436604,289.7412300109863,254.2241973876953,15.635865211486816,0,98.08160400390625,-1.0,-1.0,N/A,-0.0113983154296875,-0.9456787109375,-0.2972259521484375,-0.08611943572759628,0.27367281913757324,0.006189985200762749,-25.114761352539062,-113.76847839355469,-334.0850830078125,-0.01530463993549347,-0.0010520219802856445,-0.04998558759689331,1.2789651413898213,0.12913017886342162,-0.10276477490790498,0.037048425525426865,-0.9577186107635498,-0.28531110286712646,0.05165913328528404,0.3847433924674988,-0.1896217316389084,Walking,,,,,,,
1190,COMPASS,40.443938701966054,-79.94448793436604,289.7412300109863,255.40162658691406,15.637554168701172,0,98.08160400390625,-1.0,-1.0,N/A,-0.0113983154296875,-0.9456787109375,-0.2972259521484375,-0.08611943572759628,0.27367281913757324,0.006189985200762749,-25.114761352539062,-113.76847839355469,-334.0850830078125,-0.01530463993549347,-0.0010520219802856445,-0.04998558759689331,1.2789651413898213,0.12913017886342162,-0.10276477490790498,0.037048425525426865,-0.9577186107635498,-0.28531110286712646,0.05165913328528404,0.3847433924674988,-0.1896217316389084,Walking,,,,,,,
1217,Magnetometer,40.443938701966054,-79.94448793436604,289.7412300109863,255.40162658691406,15.637554168701172,0,98.08160400390625,-1.0,-1.0,N/A,-0.0113983154296875,-0.9456787109375,-0.2972259521484375,-0.08611943572759628,0.27367281913757324,0.006189985200762749,-25.641525268554688,-114.77949523925781,-333.72021484375,-0.01530463993549347,-0.0010520219802856445,-0.04998558759689331,1.2789651413898213,0.12913017886342162,-0.10276477490790498,0.037048425525426865,-0.9577186107635498,-0.28531110286712646,0.05165913328528404,0.3847433924674988,-0.1896217316389084,Walking,,,,,,,
1244,Gyrometer,40.443938701966054,-79.94448793436604,289.7412300109863,255.40162658691406,15.637554168701172,0,98.08160400390625,-1.0,-1.0,N/A,-0.0113983154296875,-0.9456787109375,-0.2972259521484375,-0.259309321641922,-0.3171776831150055,0.0073599121533334255,-25.641525268554688,-114.77949523925781,-333.72021484375,-0.01530463993549347,-0.0010520219802856445,-0.04998558759689331,1.2789651413898213,0.12913017886342162,-0.10276477490790498,0.037048425525426865,-0.9577186107635498,-0.28531110286712646,0.05165913328528404,0.3847433924674988,-0.1896217316389084,Walking,,,,,,,
1270,Accelerometer,40.443938701966054,-79.94448793436604,289.7412300109863,255.40162658691406,15.637554168701172,0,98.08160400390625,-1.0,-1.0,N/A,0.029876708984375,-0.959320068359375,-0.263214111328125,-0.259309321641922,-0.3171776831150055,0.0073599121533334255,-25.641525268554688,-114.77949523925781,-333.72021484375,-0.01530463993549347,-0.0010520219802856445,-0.04998558759689331,1.2789651413898213,0.12913017886342162,-0.10276477490790498,0.037048425525426865,-0.9577186107635498,-0.28531110286712646,0.05165913328528404,0.3847433924674988,-0.1896217316389084,Walking,,,,,,,
1318,Device Motion,40.443938701966054,-79.94448793436604,289.7412300109863,255.40162658691406,15.637554168701172,0,98.08160400390625,-1.0,-1.0,N/A,0.029876708984375,-0.959320068359375,-0.263214111328125,-0.259309321641922,-0.3171776831150055,0.0073599121533334255,-25.641525268554688,-114.77949523925781,-333.72021484375,0.017784863710403442,-0.009824216365814209,-0.011018574237823486,1.2773312631992586,0.0321007736141494,-0.06700514195161535,0.00928422436118126,-0.957247257232666,-0.2891218662261963,-0.16112865507602692,-0.11201861500740051,-0.014136124402284622,Walking,,,,,,,
1349,COMPASS,40.443938701966054,-79.94448793436604,289.7412300109863,256.44390869140625,15.639022827148438,0,98.08160400390625,-1.0,-1.0,N/A,0.029876708984375,-0.959320068359375,-0.263214111328125,-0.259309321641922,-0.3171776831150055,0.0073599121533334255,-25.641525268554688,-114.77949523925781,-333.72021484375,0.017784863710403442,-0.009824216365814209,-0.011018574237823486,1.2773312631992586,0.0321007736141494,-0.06700514195161535,0.00928422436118126,-0.957247257232666,-0.2891218662261963,-0.16112865507602692,-0.11201861500740051,-0.014136124402284622,Walking,,,,,,,
1505,Magnetometer,40.443938701966054,-79.94448793436604,289.7412300109863,256.44390869140625,15.639022827148438,0,98.08160400390625,-1.0,-1.0,N/A,0.029876708984375,-0.959320068359375,-0.263214111328125,-0.259309321641922,-0.3171776831150055,0.0073599121533334255,-25.477584838867188,-114.22084045410156,-334.285888671875,0.017784863710403442,-0.009824216365814209,-0.011018574237823486,1.2773312631992586,0.0321007736141494,-0.06700514195161535,0.00928422436118126,-0.957247257232666,-0.2891218662261963,-0.16112865507602692,-0.11201861500740051,-0.014136124402284622,Walking,,,,,,,
1533,Gyrometer,40.443938701966054,-79.94448793436604,289.7412300109863,256.44390869140625,15.639022827148438,0,98.08160400390625,-1.0,-1.0,N/A,0.029876708984375,-0.959320068359375,-0.263214111328125,-0.0384371392428875,0.08156783133745193,-0.08269461244344711,-25.477584838867188,-114.22084045410156,-334.285888671875,0.017784863710403442,-0.009824216365814209,-0.011018574237823486,1.2773312631992586,0.0321007736141494,-0.06700514195161535,0.00928422436118126,-0.957247257232666,-0.2891218662261963,-0.16112865507602692,-0.11201861500740051,-0.014136124402284622,Walking,,,,,,,
1559,Accelerometer,40.443938701966054,-79.94448793436604,289.7412300109863,256.44390869140625,15.639022827148438,0,98.08160400390625,-1.0,-1.0,N/A,0.0260467529296875,-0.9619598388671875,-0.267822265625,-0.0384371392428875,0.08156783133745193,-0.08269461244344711,-25.477584838867188,-114.22084045410156,-334.285888671875,0.017784863710403442,-0.009824216365814209,-0.011018574237823486,1.2773312631992586,0.0321007736141494,-0.06700514195161535,0.00928422436118126,-0.957247257232666,-0.2891218662261963,-0.16112865507602692,-0.11201861500740051,-0.014136124402284622,Walking,,,,,,,
1617,Device Motion,40.443938701966054,-79.94448793436604,289.7412300109863,256.44390869140625,15.639022827148438,0,98.08160400390625,-1.0,-1.0,N/A,0.0260467529296875,-0.9619598388671875,-0.267822265625,-0.0384371392428875,0.08156783133745193,-0.08269461244344711,-25.477584838867188,-114.22084045410156,-334.285888671875,-0.0057317595928907394,0.009603619575500488,0.02911195158958435,1.2727883038574628,0.07670970172474707,-0.11862037541010455,0.022501174360513687,-0.9559232592582703,-0.29275333881378174,-0.0036801346577703953,-0.08693899214267731,-0.05022544786334038,Walking,,,,,,,
1645,COMPASS,40.443938701966054,-79.94448793436604,289.7412300109863,257.4918518066406,15.629900932312012,0,98.08160400390625,-1.0,-1.0,N/A,0.0260467529296875,-0.9619598388671875,-0.267822265625,-0.0384371392428875,0.08156783133745193,-0.08269461244344711,-25.477584838867188,-114.22084045410156,-334.285888671875,-0.0057317595928907394,0.009603619575500488,0.02911195158958435,1.2727883038574628,0.07670970172474707,-0.11862037541010455,0.022501174360513687,-0.9559232592582703,-0.29275333881378174,-0.0036801346577703953,-0.08693899214267731,-0.05022544786334038,Walking,,,,,,,
1804,Magnetometer,40.443938701966054,-79.94448793436604,289.7412300109863,257.4918518066406,15.629900932312012,0,98.08160400390625,-1.0,-1.0,N/A,0.0260467529296875,-0.9619598388671875,-0.267822265625,-0.0384371392428875,0.08156783133745193,-0.08269461244344711,-25.193328857421875,-114.21212768554688,-334.379150390625,-0.0057317595928907394,0.009603619575500488,0.02911195158958435,1.2727883038574628,0.07670970172474707,-0.11862037541010455,0.022501174360513687,-0.9559232592582703,-0.29275333881378174,-0.0036801346577703953,-0.08693899214267731,-0.05022544786334038,Walking,,,,,,,
1832,COMPASS,40.443938701966054,-79.94448793436604,289.7412300109863,258.5047912597656,15.623412132263184,0,98.08160400390625,-1.0,-1.0,N/A,0.0260467529296875,-0.9619598388671875,-0.267822265625,-0.0384371392428875,0.08156783133745193,-0.08269461244344711,-25.193328857421875,-114.21212768554688,-334.379150390625,-0.0057317595928907394,0.009603619575500488,0.02911195158958435,1.2727883038574628,0.07670970172474707,-0.11862037541010455,0.022501174360513687,-0.9559232592582703,-0.29275333881378174,-0.0036801346577703953,-0.08693899214267731,-0.05022544786334038,Walking,,,,,,,
1858,Gyrometer,40.443938701966054,-79.94448793436604,289.7412300109863,258.5047912597656,15.623412132263184,0,98.08160400390625,-1.0,-1.0,N/A,0.0260467529296875,-0.9619598388671875,-0.267822265625,0.013539510779082775,-0.11895861476659775,-0.08890803158283234,-25.193328857421875,-114.21212768554688,-334.379150390625,-0.0057317595928907394,0.009603619575500488,0.02911195158958435,1.2727883038574628,0.07670970172474707,-0.11862037541010455,0.022501174360513687,-0.9559232592582703,-0.29275333881378174,-0.0036801346577703953,-0.08693899214267731,-0.05022544786334038,Walking,,,,,,,
1885,Accelerometer,40.443938701966054,-79.94448793436604,289.7412300109863,258.5047912597656,15.623412132263184,0,98.08160400390625,-1.0,-1.0,N/A,-0.0226287841796875,-0.9812164306640625,-0.1882781982421875,0.013539510779082775,-0.11895861476659775,-0.08890803158283234,-25.193328857421875,-114.21212768554688,-334.379150390625,-0.0057317595928907394,0.009603619575500488,0.02911195158958435,1.2727883038574628,0.07670970172474707,-0.11862037541010455,0.022501174360513687,-0.9559232592582703,-0.29275333881378174,-0.0036801346577703953,-0.08693899214267731,-0.05022544786334038,Walking,,,,,,,
1917,Device Motion,40.443938701966054,-79.94448793436604,289.7412300109863,258.5047912597656,15.623412132263184,0,98.08160400390625,-1.0,-1.0,N/A,-0.0226287841796875,-0.9812164306640625,-0.1882781982421875,0.013539510779082775,-0.11895861476659775,-0.08890803158283234,-25.193328857421875,-114.21212768554688,-334.379150390625,-0.03724297881126404,0.0020394325256347656,0.10203084349632263,1.2789437505423833,0.08094965403599372,-0.14806650960704404,0.023265931755304337,-0.9577124714851379,-0.286784291267395,-0.00980417337268591,-0.11996719241142273,-0.01753774844110012,Walking,,,,,,,
2007,COMPASS,40.443938701966054,-79.94448793436604,289.7412300109863,259.61968994140625,15.621009826660156,0,98.08160400390625,-1.0,-1.0,N/A,-0.0226287841796875,-0.9812164306640625,-0.1882781982421875,0.013539510779082775,-0.11895861476659775,-0.08890803158283234,-25.193328857421875,-114.21212768554688,-334.379150390625,-0.03724297881126404,0.0020394325256347656,0.10203084349632263,1.2789437505423833,0.08094965403599372,-0.14806650960704404,0.023265931755304337,-0.9577124714851379,-0.286784291267395,-0.00980417337268591,-0.11996719241142273,-0.01753774844110012,Walking,,,,,,,
2047,Altimeter,40.443938701966054,-79.94448793436604,289.7412300109863,259.61968994140625,15.621009826660156,0.007904052734375,98.08150482177734,-1.0,-1.0,N/A,-0.0226287841796875,-0.9812164306640625,-0.1882781982421875,0.013539510779082775,-0.11895861476659775,-0.08890803158283234,-25.193328857421875,-114.21212768554688,-334.379150390625,-0.03724297881126404,0.0020394325256347656,0.10203084349632263,1.2789437505423833,0.08094965403599372,-0.14806650960704404,0.023265931755304337,-0.9577124714851379,-0.286784291267395,-0.00980417337268591,-0.11996719241142273,-0.01753774844110012,Walking,,,,,,,
2104,Magnetometer,40.443938701966054,-79.94448793436604,289.7412300109863,259.61968994140625,15.621009826660156,0.007904052734375,98.08150482177734,-1.0,-1.0,N/A,-0.0226287841796875,-0.9812164306640625,-0.1882781982421875,0.013539510779082775,-0.11895861476659775,-0.08890803158283234,-25.190673828125,-114.47799682617188,-334.19830322265625,-0.03724297881126404,0.0020394325256347656,0.10203084349632263,1.2789437505423833,0.08094965403599372,-0.14806650960704404,0.023265931755304337,-0.9577124714851379,-0.286784291267395,-0.00980417337268591,-0.11996719241142273,-0.01753774844110012,Walking,,,,,,,
2131,Gyrometer,40.443938701966054,-79.94448793436604,289.7412300109863,259.61968994140625,15.621009826660156,0.007904052734375,98.08150482177734,-1.0,-1.0,N/A,-0.0226287841796875,-0.9812164306640625,-0.1882781982421875,0.05549228563904762,-0.03476596996188164,-0.009907491505146027,-25.190673828125,-114.47799682617188,-334.19830322265625,-0.03724297881126404,0.0020394325256347656,0.10203084349632263,1.2789437505423833,0.08094965403599372,-0.14806650960704404,0.023265931755304337,-0.9577124714851379,-0.286784291267395,-0.00980417337268591,-0.11996719241142273,-0.01753774844110012,Walking,,,,,,,
2158,Accelerometer,40.443938701966054,-79.94448793436604,289.7412300109863,259.61968994140625,15.621009826660156,0.007904052734375,98.08150482177734,-1.0,-1.0,N/A,0.0027618408203125,-1.03936767578125,-0.2541656494140625,0.05549228563904762,-0.03476596996188164,-0.009907491505146027,-25.190673828125,-114.47799682617188,-334.19830322265625,-0.03724297881126404,0.0020394325256347656,0.10203084349632263,1.2789437505423833,0.08094965403599372,-0.14806650960704404,0.023265931755304337,-0.9577124714851379,-0.286784291267395,-0.00980417337268591,-0.11996719241142273,-0.01753774844110012,Walking,,,,,,,
2216,Device Motion,40.443938701966054,-79.94448793436604,289.7412300109863,259.61968994140625,15.621009826660156,0.007904052734375,98.08150482177734,-1.0,-1.0,N/A,0.0027618408203125,-1.03936767578125,-0.2541656494140625,0.05549228563904762,-0.03476596996188164,-0.009907491505146027,-25.190673828125,-114.47799682617188,-334.19830322265625,-0.030357524752616882,-0.09491574764251709,0.036551058292388916,1.2902374503213239,0.08787196639015919,-0.18013510331309074,0.02429978735744953,-0.9609008431434631,-0.2758241593837738,0.12586694955825806,0.1007172241806984,-0.03494052216410637,Walking,,,,,,,
2404,Magnetometer,40.443938701966054,-79.94448793436604,289.7412300109863,259.61968994140625,15.621009826660156,0.007904052734375,98.08150482177734,-1.0,-1.0,N/A,0.0027618408203125,-1.03936767578125,-0.2541656494140625,0.05549228563904762,-0.03476596996188164,-0.009907491505146027,-25.374435424804688,-114.82154846191406,-333.16424560546875,-0.030357524752616882,-0.09491574764251709,0.036551058292388916,1.2902374503213239,0.08787196639015919,-0.18013510331309074,0.02429978735744953,-0.9609008431434631,-0.2758241593837738,0.12586694955825806,0.1007172241806984,-0.03494052216410637,Walking,,,,,,,
2435,Gyrometer,40.443938701966054,-79.94448793436604,289.7412300109863,259.61968994140625,15.621009826660156,0.007904052734375,98.08150482177734,-1.0,-1.0,N/A,0.0027618408203125,-1.03936767578125,-0.2541656494140625,0.1744503676891327,0.021924206987023354,0.21628409624099731,-25.374435424804688,-114.82154846191406,-333.16424560546875,-0.030357524752616882,-0.09491574764251709,0.036551058292388916,1.2902374503213239,0.08787196639015919,-0.18013510331309074,0.02429978735744953,-0.9609008431434631,-0.2758241593837738,0.12586694955825806,0.1007172241806984,-0.03494052216410637,Walking,,,,,,,
2464,Accelerometer,40.443938701966054,-79.94448793436604,289.7412300109863,259.61968994140625,15.621009826660156,0.007904052734375,98.08150482177734,-1.0,-1.0,N/A,0.0298309326171875,-0.9342193603515625,-0.2648468017578125,0.1744503676891327,0.021924206987023354,0.21628409624099731,-25.374435424804688,-114.82154846191406,-333.16424560546875,-0.030357524752616882,-0.09491574764251709,0.036551058292388916,1.2902374503213239,0.08787196639015919,-0.18013510331309074,0.02429978735744953,-0.9609008431434631,-0.2758241593837738,0.12586694955825806,0.1007172241806984,-0.03494052216410637,Walking,,,,,,,
2489,COMPASS,40.443938701966054,-79.94448793436604,289.7412300109863,258.56365966796875,15.623856544494629,0.007904052734375,98.08150482177734,-1.0,-1.0,N/A,0.0298309326171875,-0.9342193603515625,-0.2648468017578125,0.1744503676891327,0.021924206987023354,0.21628409624099731,-25.374435424804688,-114.82154846191406,-333.16424560546875,-0.030357524752616882,-0.09491574764251709,0.036551058292388916,1.2902374503213239,0.08787196639015919,-0.18013510331309074,0.02429978735744953,-0.9609008431434631,-0.2758241593837738,0.12586694955825806,0.1007172241806984,-0.03494052216410637,Walking,,,,,,,
2515,Device Motion,40.443938701966054,-79.94448793436604,289.7412300109863,258.56365966796875,15.623856544494629,0.007904052734375,98.08150482177734,-1.0,-1.0,N/A,0.0298309326171875,-0.9342193603515625,-0.2648468017578125,0.1744503676891327,0.021924206987023354,0.21628409624099731,-25.374435424804688,-114.82154846191406,-333.16424560546875,0.025777027010917664,0.06410562992095947,-0.004612073302268982,1.3287896014880283,0.0015712346737740584,-0.07035276240988218,0.00037654771585948765,-0.9708589911460876,-0.2396506518125534,-0.022211953997612,0.15541905164718628,0.09534303098917007,Walking,,,,,,,
2546,COMPASS,40.443938701966054,-79.94448793436604,289.7412300109863,257.4891662597656,15.62463665008545,0.007904052734375,98.08150482177734,-1.0,-1.0,N/A,0.0298309326171875,-0.9342193603515625,-0.2648468017578125,0.1744503676891327,0.021924206987023354,0.21628409624099731,-25.374435424804688,-114.82154846191406,-333.16424560546875,0.025777027010917664,0.06410562992095947,-0.004612073302268982,1.3287896014880283,0.0015712346737740584,-0.07035276240988218,0.00037654771585948765,-0.9708589911460876,-0.2396506518125534,-0.022211953997612,0.15541905164718628,0.09534303098917007,Walking,,,,,,,
2645,COMPASS,40.443938701966054,-79.94448793436604,289.7412300109863,256.261962890625,15.625608444213867,0.007904052734375,98.08150482177734,-1.0,-1.0,N/A,0.0298309326171875,-0.9342193603515625,-0.2648468017578125,0.1744503676891327,0.021924206987023354,0.21628409624099731,-25.374435424804688,-114.82154846191406,-333.16424560546875,0.025777027010917664,0.06410562992095947,-0.004612073302268982,1.3287896014880283,0.0015712346737740584,-0.07035276240988218,0.00037654771585948765,-0.9708589911460876,-0.2396506518125534,-0.022211953997612,0.15541905164718628,0.09534303098917007,Walking,,,,,,,
2703,Magnetometer,40.443938701966054,-79.94448793436604,289.7412300109863,256.261962890625,15.625608444213867,0.007904052734375,98.08150482177734,-1.0,-1.0,N/A,0.0298309326171875,-0.9342193603515625,-0.2648468017578125,0.1744503676891327,0.021924206987023354,0.21628409624099731,-26.068801879882812,-115.436767578125,-332.3941650390625,0.025777027010917664,0.06410562992095947,-0.004612073302268982,1.3287896014880283,0.0015712346737740584,-0.07035276240988218,0.00037654771585948765,-0.9708589911460876,-0.2396506518125534,-0.022211953997612,0.15541905164718628,0.09534303098917007,Walking,,,,,,,
2731,Gyrometer,40.443938701966054,-79.94448793436604,289.7412300109863,256.261962890625,15.625608444213867,0.007904052734375,98.08150482177734,-1.0,-1.0,N/A,0.0298309326171875,-0.9342193603515625,-0.2648468017578125,-0.38618606328964233,-0.12458320707082748,0.0904204472899437,-26.068801879882812,-115.436767578125,-332.3941650390625,0.025777027010917664,0.06410562992095947,-0.004612073302268982,1.3287896014880283,0.0015712346737740584,-0.07035276240988218,0.00037654771585948765,-0.9708589911460876,-0.2396506518125534,-0.022211953997612,0.15541905164718628,0.09534303098917007,Walking,,,,,,,
2758,Accelerometer,40.443938701966054,-79.94448793436604,289.7412300109863,256.261962890625,15.625608444213867,0.007904052734375,98.08150482177734,-1.0,-1.0,N/A,0.0225372314453125,-0.889190673828125,-0.2163848876953125,-0.38618606328964233,-0.12458320707082748,0.0904204472899437,-26.068801879882812,-115.436767578125,-332.3941650390625,0.025777027010917664,0.06410562992095947,-0.004612073302268982,1.3287896014880283,0.0015712346737740584,-0.07035276240988218,0.00037654771585948765,-0.9708589911460876,-0.2396506518125534,-0.022211953997612,0.15541905164718628,0.09534303098917007,Walking,,,,,,,
2814,Device Motion,40.443938701966054,-79.94448793436604,289.7412300109863,256.261962890625,15.625608444213867,0.007904052734375,98.08150482177734,-1.0,-1.0,N/A,0.0225372314453125,-0.889190673828125,-0.2163848876953125,-0.38618606328964233,-0.12458320707082748,0.0904204472899437,-26.068801879882812,-115.436767578125,-332.3941650390625,0.04051005840301514,0.03760111331939697,0.040487825870513916,1.2947713911778673,-0.10865633593623693,0.04367823208078453,-0.02955423854291439,-0.9621464014053345,-0.2709261178970337,0.013587269932031631,-0.07868032157421112,0.037998612970113754,Walking,,,,,,,
3003,Magnetometer,40.443938701966054,-79.94448793436604,289.7412300109863,256.261962890625,15.625608444213867,0.007904052734375,98.08150482177734,-1.0,-1.0,N/A,0.0225372314453125,-0.889190673828125,-0.2163848876953125,-0.38618606328964233,-0.12458320707082748,0.0904204472899437,-26.456954956054688,-116.50718688964844,-331.48944091796875,0.04051005840301514,0.03760111331939697,0.040487825870513916,1.2947713911778673,-0.10865633593623693,0.04367823208078453,-0.02955423854291439,-0.9621464014053345,-0.2709261178970337,0.013587269932031631,-0.07868032157421112,0.037998612970113754,Walking,,,,,,,
3030,Gyrometer,40.443938701966054,-79.94448793436604,289.7412300109863,256.261962890625,15.625608444213867,0.007904052734375,98.08150482177734,-1.0,-1.0,N/A,0.0225372314453125,-0.889190673828125,-0.2163848876953125,0.0016498282784596086,0.056113071739673615,-0.18613950908184052,-26.456954956054688,-116.50718688964844,-331.48944091796875,0.04051005840301514,0.03760111331939697,0.040487825870513916,1.2947713911778673,-0.10865633593623693,0.04367823208078453,-0.02955423854291439,-0.9621464014053345,-0.2709261178970337,0.013587269932031631,-0.07868032157421112,0.037998612970113754,Walking,,,,,,,
3057,COMPASS,40.443938701966054,-79.94448793436604,289.7412300109863,257.3370361328125,15.628937721252441,0.007904052734375,98.08150482177734,-1.0,-1.0,N/A,0.0225372314453125,-0.889190673828125,-0.2163848876953125,0.0016498282784596086,0.056113071739673615,-0.18613950908184052,-26.456954956054688,-116.50718688964844,-331.48944091796875,0.04051005840301514,0.03760111331939697,0.040487825870513916,1.2947713911778673,-0.10865633593623693,0.04367823208078453,-0.02955423854291439,-0.9621464014053345,-0.2709261178970337,0.013587269932031631,-0.07868032157421112,0.037998612970113754,Walking,,,,,,,
3087,Accelerometer,40.443938701966054,-79.94448793436604,289.7412300109863,257.3370361328125,15.628937721252441,0.007904052734375,98.08150482177734,-1.0,-1.0,N/A,0.0308074951171875,-1.09375,-0.277618408203125,0.0016498282784596086,0.056113071739673615,-0.18613950908184052,-26.456954956054688,-116.50718688964844,-331.48944091796875,0.04051005840301514,0.03760111331939697,0.040487825870513916,1.2947713911778673,-0.10865633593623693,0.04367823208078453,-0.02955423854291439,-0.9621464014053345,-0.2709261178970337,0.013587269932031631,-0.07868032157421112,0.037998612970113754,Walking,,,,,,,
3114,Altimeter,40.443938701966054,-79.94448793436604,289.7412300109863,257.3370361328125,15.628937721252441,0.015838623046875,98.08140563964844,-1.0,-1.0,N/A,0.0308074951171875,-1.09375,-0.277618408203125,0.0016498282784596086,0.056113071739673615,-0.18613950908184052,-26.456954956054688,-116.50718688964844,-331.48944091796875,0.04051005840301514,0.03760111331939697,0.040487825870513916,1.2947713911778673,-0.10865633593623693,0.04367823208078453,-0.02955423854291439,-0.9621464014053345,-0.2709261178970337,0.013587269932031631,-0.07868032157421112,0.037998612970113754,Walking,,,,,,,
3139,Device Motion,40.443938701966054,-79.94448793436604,289.7412300109863,257.3370361328125,15.628937721252441,0.015838623046875,98.08140563964844,-1.0,-1.0,N/A,0.0308074951171875,-1.09375,-0.277618408203125,0.0016498282784596086,0.056113071739673615,-0.18613950908184052,-26.456954956054688,-116.50718688964844,-331.48944091796875,0.0021164712961763144,-0.039737045764923096,-0.055529817938804626,1.334886210902586,0.015231139917778264,-0.08626961353207901,0.003559801494702697,-0.9723020195960999,-0.23370057344436646,-0.025899630039930344,0.16567401587963104,-0.2471635341644287,Walking,,,,,,,
3184,COMPASS,40.443938701966054,-79.94448793436604,289.7412300109863,258.3625183105469,15.630561828613281,0.015838623046875,98.08140563964844,-1.0,-1.0,N/A,0.0308074951171875,-1.09375,-0.277618408203125,0.0016498282784596086,0.056113071739673615,-0.18613950908184052,-26.456954956054688,-116.50718688964844,-331.48944091796875,0.0021164712961763144,-0.039737045764923096,-0.055529817938804626,1.334886210902586,0.015231139917778264,-0.08626961353207901,0.003559801494702697,-0.9723020195960999,-0.23370057344436646,-0.025899630039930344,0.16567401587963104,-0.2471635341644287,Walking,,,,,,,
3244,COMPASS,40.443938701966054,-79.94448793436604,289.7412300109863,259.3854675292969,15.631227493286133,0.015838623046875,98.08140563964844,-1.0,-1.0,N/A,0.0308074951171875,-1.09375,-0.277618408203125,0.0016498282784596086,0.056113071739673615,-0.18613950908184052,-26.456954956054688,-116.50718688964844,-331.48944091796875,0.0021164712961763144,-0.039737045764923096,-0.055529817938804626,1.334886210902586,0.015231139917778264,-0.08626961353207901,0.003559801494702697,-0.9723020195960999,-0.23370057344436646,-0.025899630039930344,0.16567401587963104,-0.2471635341644287,Walking,,,,,,,
3302,Magnetometer,40.443938701966054,-79.94448793436604,289.7412300109863,259.3854675292969,15.631227493286133,0.015838623046875,98.08140563964844,-1.0,-1.0,N/A,0.0308074951171875,-1.09375,-0.277618408203125,0.0016498282784596086,0.056113071739673615,-0.18613950908184052,-24.2374267578125,-116.65834045410156,-330.82427978515625,0.0021164712961763144,-0.039737045764923096,-0.055529817938804626,1.334886210902586,0.015231139917778264,-0.08626961353207901,0.003559801494702697,-0.9723020195960999,-0.23370057344436646,-0.025899630039930344,0.16567401587963104,-0.2471635341644287,Walking,,,,,,,
3333,Gyrometer,40.443938701966054,-79.94448793436604,289.7412300109863,259.3854675292969,15.631227493286133,0.015838623046875,98.08140563964844,-1.0,-1.0,N/A,0.0308074951171875,-1.09375,-0.277618408203125,-0.10258229821920395,0.04277009889483452,-0.019751068204641342,-24.2374267578125,-116.65834045410156,-330.82427978515625,0.0021164712961763144,-0.039737045764923096,-0.055529817938804626,1.334886210902586,0.015231139917778264,-0.08626961353207901,0.003559801494702697,-0.9723020195960999,-0.23370057344436646,-0.025899630039930344,0.16567401587963104,-0.2471635341644287,Walking,,,,,,,
3359,Accelerometer,40.443938701966054,-79.94448793436604,289.7412300109863,259.3854675292969,15.631227493286133,0.015838623046875,98.08140563964844,-1.0,-1.0,N/A,-0.0129852294921875,-0.8552093505859375,-0.309539794921875,-0.10258229821920395,0.04277009889483452,-0.019751068204641342,-24.2374267578125,-116.65834045410156,-330.82427978515625,0.0021164712961763144,-0.039737045764923096,-0.055529817938804626,1.334886210902586,0.015231139917778264,-0.08626961353207901,0.003559801494702697,-0.9723020195960999,-0.23370057344436646,-0.025899630039930344,0.16567401587963104,-0.2471635341644287,Walking,,,,,,,
3412,Device Motion,40.443938701966054,-79.94448793436604,289.7412300109863,259.3854675292969,15.631227493286133,0.015838623046875,98.08140563964844,-1.0,-1.0,N/A,-0.0129852294921875,-0.8552093505859375,-0.309539794921875,-0.10258229821920395,0.04277009889483452,-0.019751068204641342,-24.2374267578125,-116.65834045410156,-330.82427978515625,-0.02622981183230877,0.07518714666366577,-0.0024630725383758545,1.2923876328816635,0.06945769310958204,-0.1617721866897705,0.019073450937867165,-0.961493968963623,-0.2741635739803314,0.025933844968676567,-0.2032826691865921,0.11870910227298737,Walking,,,,,,,
3583,COMPASS,40.443938701966054,-79.94448793436604,289.7412300109863,258.3744201660156,15.634654998779297,0.015838623046875,98.08140563964844,-1.0,-1.0,N/A,-0.0129852294921875,-0.8552093505859375,-0.309539794921875,-0.10258229821920395,0.04277009889483452,-0.019751068204641342,-24.2374267578125,-116.65834045410156,-330.82427978515625,-0.02622981183230877,0.07518714666366577,-0.0024630725383758545,1.2923876328816635,0.06945769310958204,-0.1617721866897705,0.019073450937867165,-0.961493968963623,-0.2741635739803314,0.025933844968676567,-0.2032826691865921,0.11870910227298737,Walking,,,,,,,
3614,Magnetometer,40.443938701966054,-79.94448793436604,289.7412300109863,258.3744201660156,15.634654998779297,0.015838623046875,98.08140563964844,-1.0,-1.0,N/A,-0.0129852294921875,-0.8552093505859375,-0.309539794921875,-0.10258229821920395,0.04277009889483452,-0.019751068204641342,-25.144439697265625,-118.25982666015625,-329.40802001953125,-0.02622981183230877,0.07518714666366577,-0.0024630725383758545,1.2923876328816635,0.06945769310958204,-0.1617721866897705,0.019073450937867165,-0.961493968963623,-0.2741635739803314,0.025933844968676567,-0.2032826691865921,0.11870910227298737,Walking,,,,,,,
3644,Gyrometer,40.443938701966054,-79.94448793436604,289.7412300109863,258.3744201660156,15.634654998779297,0.015838623046875,98.08140563964844,-1.0,-1.0,N/A,-0.0129852294921875,-0.8552093505859375,-0.309539794921875,0.19302751123905182,0.2219638228416443,0.045996785163879395,-25.144439697265625,-118.25982666015625,-329.40802001953125,-0.02622981183230877,0.07518714666366577,-0.0024630725383758545,1.2923876328816635,0.06945769310958204,-0.1617721866897705,0.019073450937867165,-0.961493968963623,-0.2741635739803314,0.025933844968676567,-0.2032826691865921,0.11870910227298737,Walking,,,,,,,
3670,Accelerometer,40.443938701966054,-79.94448793436604,289.7412300109863,258.3744201660156,15.634654998779297,0.015838623046875,98.08140563964844,-1.0,-1.0,N/A,-0.038848876953125,-1.029144287109375,-0.2961273193359375,0.19302751123905182,0.2219638228416443,0.045996785163879395,-25.144439697265625,-118.25982666015625,-329.40802001953125,-0.02622981183230877,0.07518714666366577,-0.0024630725383758545,1.2923876328816635,0.06945769310958204,-0.1617721866897705,0.019073450937867165,-0.961493968963623,-0.2741635739803314,0.025933844968676567,-0.2032826691865921,0.11870910227298737,Walking,,,,,,,
3697,COMPASS,40.443938701966054,-79.94448793436604,289.7412300109863,257.2872314453125,15.635290145874023,0.015838623046875,98.08140563964844,-1.0,-1.0,N/A,-0.038848876953125,-1.029144287109375,-0.2961273193359375,0.19302751123905182,0.2219638228416443,0.045996785163879395,-25.144439697265625,-118.25982666015625,-329.40802001953125,-0.02622981183230877,0.07518714666366577,-0.0024630725383758545,1.2923876328816635,0.06945769310958204,-0.1617721866897705,0.019073450937867165,-0.961493968963623,-0.2741635739803314,0.025933844968676567,-0.2032826691865921,0.11870910227298737,Walking,,,,,,,
3720,Device Motion,40.443938701966054,-79.94448793436604,289.7412300109863,257.2872314453125,15.635290145874023,0.015838623046875,98.08140563964844,-1.0,-1.0,N/A,-0.038848876953125,-1.029144287109375,-0.2961273193359375,0.19302751123905182,0.2219638228416443,0.045996785163879395,-25.144439697265625,-118.25982666015625,-329.40802001953125,-0.020361870527267456,-0.15393918752670288,0.02601921558380127,1.3294412470421364,0.003921983540375893,-0.05516142379901799,0.0009374241926707327,-0.9710149765014648,-0.23901665210723877,0.13864484429359436,0.2918652892112732,0.04288461431860924,Walking,,,,,,,
3762,COMPASS,40.443938701966054,-79.94448793436604,289.7412300109863,255.78611755371094,15.636141777038574,0.015838623046875,98.08140563964844,-1.0,-1.0,N/A,-0.038848876953125,-1.029144287109375,-0.2961273193359375,0.19302751123905182,0.2219638228416443,0.045996785163879395,-25.144439697265625,-118.25982666015625,-329.40802001953125,-0.020361870527267456,-0.15393918752670288,0.02601921558380127,1.3294412470421364,0.003921983540375893,-0.05516142379901799,0.0009374241926707327,-0.9710149765014648,-0.23901665210723877,0.13864484429359436,0.2918652892112732,0.04288461431860924,Walking,,,,,,,
3843,COMPASS,40.443938701966054,-79.94448793436604,289.7412300109863,254.68360900878906,15.637001037597656,0.015838623046875,98.08140563964844,-1.0,-1.0,N/A,-0.038848876953125,-1.029144287109375,-0.2961273193359375,0.19302751123905182,0.2219638228416443,0.045996785163879395,-25.144439697265625,-118.25982666015625,-329.40802001953125,-0.020361870527267456,-0.15393918752670288,0.02601921558380127,1.3294412470421364,0.003921983540375893,-0.05516142379901799,0.0009374241926707327,-0.9710149765014648,-0.23901665210723877,0.13864484429359436,0.2918652892112732,0.04288461431860924,Walking,,,,,,,
3901,Magnetometer,40.443938701966054,-79.94448793436604,289.7412300109863,254.68360900878906,15.637001037597656,0.015838623046875,98.08140563964844,-1.0,-1.0,N/A,-0.038848876953125,-1.029144287109375,-0.2961273193359375,0.19302751123905182,0.2219638228416443,0.045996785163879395,-24.851287841796875,-118.61233520507812,-328.7493591308594,-0.020361870527267456,-0.15393918752670288,0.02601921558380127,1.3294412470421364,0.003921983540375893,-0.05516142379901799,0.0009374241926707327,-0.9710149765014648,-0.23901665210723877,0.13864484429359436,0.2918652892112732,0.04288461431860924,Walking,,,,,,,
3932,COMPASS,40.443938701966054,-79.94448793436604,289.7412300109863,253.3864288330078,15.637642860412598,0.015838623046875,98.08140563964844,-1.0,-1.0,N/A,-0.038848876953125,-1.029144287109375,-0.2961273193359375,0.19302751123905182,0.2219638228416443,0.045996785163879395,-24.851287841796875,-118.61233520507812,-328.7493591308594,-0.020361870527267456,-0.15393918752670288,0.02601921558380127,1.3294412470421364,0.003921983540375893,-0.05516142379901799,0.0009374241926707327,-0.9710149765014648,-0.23901665210723877,0.13864484429359436,0.2918652892112732,0.04288461431860924,Walking,,,,,,,
3959,Gyrometer,40.443938701966054,-79.94448793436604,289.7412300109863,253.3864288330078,15.637642860412598,0.015838623046875,98.08140563964844,-1.0,-1.0,N/A,-0.038848876953125,-1.029144287109375,-0.2961273193359375,0.040713872760534286,0.22994691133499146,0.1747901886701584,-24.851287841796875,-118.61233520507812,-328.7493591308594,-0.020361870527267456,-0.15393918752670288,0.02601921558380127,1.3294412470421364,0.003921983540375893,-0.05516142379901799,0.0009374241926707327,-0.9710149765014648,-0.23901665210723877,0.13864484429359436,0.2918652892112732,0.04288461431860924,Walking,,,,,,,
3986,Accelerometer,40.443938701966054,-79.94448793436604,289.7412300109863,253.3864288330078,15.637642860412598,0.015838623046875,98.08140563964844,-1.0,-1.0,N/A,0.0142669677734375,-0.887786865234375,-0.299835205078125,0.040713872760534286,0.22994691133499146,0.1747901886701584,-24.851287841796875,-118.61233520507812,-328.7493591308594,-0.020361870527267456,-0.15393918752670288,0.02601921558380127,1.3294412470421364,0.003921983540375893,-0.05516142379901799,0.0009374241926707327,-0.9710149765014648,-0.23901665210723877,0.13864484429359436,0.2918652892112732,0.04288461431860924,Walking,,,,,,,
4014,Device Motion,40.443938701966054,-79.94448793436604,289.7412300109863,253.3864288330078,15.637642860412598,0.015838623046875,98.08140563964844,-1.0,-1.0,N/A,0.0142669677734375,-0.887786865234375,-0.299835205078125,0.040713872760534286,0.22994691133499146,0.1747901886701584,-24.851287841796875,-118.61233520507812,-328.7493591308594,-0.0208254586905241,0.13385027647018433,0.0011485517024993896,1.294255495920348,-0.06930971923680311,0.07910203660107352,-0.018908420577645302,-0.9620056748390198,-0.2723735272884369,-0.18911215662956238,0.06646496802568436,0.05702758580446243,Walking,,,,,,,
4041,COMPASS,40.443938701966054,-79.94448793436604,289.7412300109863,252.26466369628906,15.638938903808594,0.015838623046875,98.08140563964844,-1.0,-1.0,N/A,0.0142669677734375,-0.887786865234375,-0.299835205078125,0.040713872760534286,0.22994691133499146,0.1747901886701584,-24.851287841796875,-118.61233520507812,-328.7493591308594,-0.0208254586905241,0.13385027647018433,0.0011485517024993896,1.294255495920348,-0.06930971923680311,0.07910203660107352,-0.018908420577645302,-0.9620056748390198,-0.2723735272884369,-0.18911215662956238,0.06646496802568436,0.05702758580446243,Walking,,,,,,,
4069,Altimeter,40.443938701966054,-79.94448793436604,289.7412300109863,252.26466369628906,15.638938903808594,0.029052734375,98.08125305175781,-1.0,-1.0,N/A,0.0142669677734375,-0.887786865234375,-0.299835205078125,0.040713872760534286,0.22994691133499146,0.1747901886701584,-24.851287841796875,-118.61233520507812,-328.7493591308594,-0.0208254586905241,0.13385027647018433,0.0011485517024993896,1.294255495920348,-0.06930971923680311,0.07910203660107352,-0.018908420577645302,-0.9620056748390198,-0.2723735272884369,-0.18911215662956238,0.06646496802568436,0.05702758580446243,Walking,,,,,,,
4200,Magnetometer,40.443938701966054,-79.94448793436604,289.7412300109863,252.26466369628906,15.638938903808594,0.029052734375,98.08125305175781,-1.0,-1.0,N/A,0.0142669677734375,-0.887786865234375,-0.299835205078125,0.040713872760534286,0.22994691133499146,0.1747901886701584,-26.78826904296875,-118.81993103027344,-327.6972961425781,-0.0208254586905241,0.13385027647018433,0.0011485517024993896,1.294255495920348,-0.06930971923680311,0.07910203660107352,-0.018908420577645302,-0.9620056748390198,-0.2723735272884369,-0.18911215662956238,0.06646496802568436,0.05702758580446243,Walking,,,,,,,
4232,Gyrometer,40.443938701966054,-79.94448793436604,289.7412300109863,252.26466369628906,15.638938903808594,0.029052734375,98.08125305175781,-1.0,-1.0,N/A,0.0142669677734375,-0.887786865234375,-0.299835205078125,0.20465168356895447,0.12968342006206512,-0.060152553021907806,-26.78826904296875,-118.81993103027344,-327.6972961425781,-0.0208254586905241,0.13385027647018433,0.0011485517024993896,1.294255495920348,-0.06930971923680311,0.07910203660107352,-0.018908420577645302,-0.9620056748390198,-0.2723735272884369,-0.18911215662956238,0.06646496802568436,0.05702758580446243,Walking,,,,,,,
4257,Accelerometer,40.443938701966054,-79.94448793436604,289.7412300109863,252.26466369628906,15.638938903808594,0.029052734375,98.08125305175781,-1.0,-1.0,N/A,0.00048828125,-1.0520172119140625,-0.2830963134765625,0.20465168356895447,0.12968342006206512,-0.060152553021907806,-26.78826904296875,-118.81993103027344,-327.6972961425781,-0.0208254586905241,0.13385027647018433,0.0011485517024993896,1.294255495920348,-0.06930971923680311,0.07910203660107352,-0.018908420577645302,-0.9620056748390198,-0.2723735272884369,-0.18911215662956238,0.06646496802568436,0.05702758580446243,Walking,,,,,,,
4301,COMPASS,40.443938701966054,-79.94448793436604,289.7412300109863,251.2456512451172,15.641610145568848,0.029052734375,98.08125305175781,-1.0,-1.0,N/A,0.00048828125,-1.0520172119140625,-0.2830963134765625,0.20465168356895447,0.12968342006206512,-0.060152553021907806,-26.78826904296875,-118.81993103027344,-327.6972961425781,-0.0208254586905241,0.13385027647018433,0.0011485517024993896,1.294255495920348,-0.06930971923680311,0.07910203660107352,-0.018908420577645302,-0.9620056748390198,-0.2723735272884369,-0.18911215662956238,0.06646496802568436,0.05702758580446243,Walking,,,,,,,
4329,Device Motion,40.443938701966054,-79.94448793436604,289.7412300109863,251.2456512451172,15.641610145568848,0.029052734375,98.08125305175781,-1.0,-1.0,N/A,0.00048828125,-1.0520172119140625,-0.2830963134765625,0.20465168356895447,0.12968342006206512,-0.060152553021907806,-26.78826904296875,-118.81993103027344,-327.6972961425781,0.028136517852544785,-0.10807764530181885,-0.10083726048469543,1.3221807163613826,-0.11441042093710606,0.13416729767853072,-0.02809075266122818,-0.9692540168762207,-0.24445393681526184,0.03169757127761841,-0.1516183465719223,0.009512162767350674,Walking,,,,,,,
4360,Activity Manager,40.443938701966054,-79.94448793436604,289.7412300109863,251.2456512451172,15.641610145568848,0.029052734375,98.08125305175781,-1.0,-1.0,N/A,0.00048828125,-1.0520172119140625,-0.2830963134765625,0.20465168356895447,0.12968342006206512,-0.060152553021907806,-26.78826904296875,-118.81993103027344,-327.6972961425781,0.028136517852544785,-0.10807764530181885,-0.10083726048469543,1.3221807163613826,-0.11441042093710606,0.13416729767853072,-0.02809075266122818,-0.9692540168762207,-0.24445393681526184,0.03169757127761841,-0.1516183465719223,0.009512162767350674,Walking,,,,,,,
4391,COMPASS,40.443938701966054,-79.94448793436604,289.7412300109863,252.5048065185547,15.642455101013184,0.029052734375,98.08125305175781,-1.0,-1.0,N/A,0.00048828125,-1.0520172119140625,-0.2830963134765625,0.20465168356895447,0.12968342006206512,-0.060152553021907806,-26.78826904296875,-118.81993103027344,-327.6972961425781,0.028136517852544785,-0.10807764530181885,-0.10083726048469543,1.3221807163613826,-0.11441042093710606,0.13416729767853072,-0.02809075266122818,-0.9692540168762207,-0.24445393681526184,0.03169757127761841,-0.1516183465719223,0.009512162767350674,Walking,,,,,,,
4441,COMPASS,40.443938701966054,-79.94448793436604,289.7412300109863,253.6643524169922,15.643085479736328,0.029052734375,98.08125305175781,-1.0,-1.0,N/A,0.00048828125,-1.0520172119140625,-0.2830963134765625,0.20465168356895447,0.12968342006206512,-0.060152553021907806,-26.78826904296875,-118.81993103027344,-327.6972961425781,0.028136517852544785,-0.10807764530181885,-0.10083726048469543,1.3221807163613826,-0.11441042093710606,0.13416729767853072,-0.02809075266122818,-0.9692540168762207,-0.24445393681526184,0.03169757127761841,-0.1516183465719223,0.009512162767350674,Walking,,,,,,,
4500,Magnetometer,40.443938701966054,-79.94448793436604,289.7412300109863,253.6643524169922,15.643085479736328,0.029052734375,98.08125305175781,-1.0,-1.0,N/A,0.00048828125,-1.0520172119140625,-0.2830963134765625,0.20465168356895447,0.12968342006206512,-0.060152553021907806,-26.540969848632812,-118.94184875488281,-326.0048522949219,0.028136517852544785,-0.10807764530181885,-0.10083726048469543,1.3221807163613826,-0.11441042093710606,0.13416729767853072,-0.02809075266122818,-0.9692540168762207,-0.24445393681526184,0.03169757127761841,-0.1516183465719223,0.009512162767350674,Walking,,,,,,,
4529,Gyrometer,40.443938701966054,-79.94448793436604,289.7412300109863,253.6643524169922,15.643085479736328,0.029052734375,98.08125305175781,-1.0,-1.0,N/A,0.00048828125,-1.0520172119140625,-0.2830963134765625,0.044861216098070145,-0.04385853558778763,-0.16718153655529022,-26.540969848632812,-118.94184875488281,-326.0048522949219,0.028136517852544785,-0.10807764530181885,-0.10083726048469543,1.3221807163613826,-0.11441042093710606,0.13416729767853072,-0.02809075266122818,-0.9692540168762207,-0.24445393681526184,0.03169757127761841,-0.1516183465719223,0.009512162767350674,Walking,,,,,,,
4558,COMPASS,40.443938701966054,-79.94448793436604,289.7412300109863,254.7088165283203,15.643621444702148,0.029052734375,98.08125305175781,-1.0,-1.0,N/A,0.00048828125,-1.0520172119140625,-0.2830963134765625,0.044861216098070145,-0.04385853558778763,-0.16718153655529022,-26.540969848632812,-118.94184875488281,-326.0048522949219,0.028136517852544785,-0.10807764530181885,-0.10083726048469543,1.3221807163613826,-0.11441042093710606,0.13416729767853072,-0.02809075266122818,-0.9692540168762207,-0.24445393681526184,0.03169757127761841,-0.1516183465719223,0.009512162767350674,Walking,,,,,,,
4588,Accelerometer,40.443938701966054,-79.94448793436604,289.7412300109863,254.7088165283203,15.643621444702148,0.029052734375,98.08125305175781,-1.0,-1.0,N/A,-0.0526123046875,-0.8743896484375,-0.242828369140625,0.044861216098070145,-0.04385853558778763,-0.16718153655529022,-26.540969848632812,-118.94184875488281,-326.0048522949219,0.028136517852544785,-0.10807764530181885,-0.10083726048469543,1.3221807163613826,-0.11441042093710606,0.13416729767853072,-0.02809075266122818,-0.9692540168762207,-0.24445393681526184,0.03169757127761841,-0.1516183465719223,0.009512162767350674,Walking,,,,,,,
4612,Device Motion,40.443938701966054,-79.94448793436604,289.7412300109863,254.7088165283203,15.643621444702148,0.029052734375,98.08125305175781,-1.0,-1.0,N/A,-0.0526123046875,-0.8743896484375,-0.242828369140625,0.044861216098070145,-0.04385853558778763,-0.16718153655529022,-26.540969848632812,-118.94184875488281,-326.0048522949219,-0.026202648878097534,0.15406697988510132,0.005172163248062134,1.3144173014040998,0.013853413982925332,-0.029616398746694448,0.00351282418705523,-0.9673145413398743,-0.2535547912120819,-0.27002424001693726,-0.170562282204628,-0.01804077811539173,Walking,,,,,,,
4680,COMPASS,40.443938701966054,-79.94448793436604,289.7412300109863,255.77439880371094,15.644850730895996,0.029052734375,98.08125305175781,-1.0,-1.0,N/A,-0.0526123046875,-0.8743896484375,-0.242828369140625,0.044861216098070145,-0.04385853558778763,-0.16718153655529022,-26.540969848632812,-118.94184875488281,-326.0048522949219,-0.026202648878097534,0.15406697988510132,0.005172163248062134,1.3144173014040998,0.013853413982925332,-0.029616398746694448,0.00351282418705523,-0.9673145413398743,-0.2535547912120819,-0.27002424001693726,-0.170562282204628,-0.01804077811539173,Walking,,,,,,,
4801,Magnetometer,40.443938701966054,-79.94448793436604,289.7412300109863,255.77439880371094,15.644850730895996,0.029052734375,98.08125305175781,-1.0,-1.0,N/A,-0.0526123046875,-0.8743896484375,-0.242828369140625,0.044861216098070145,-0.04385853558778763,-0.16718153655529022,-28.076644897460938,-117.98992919921875,-326.7989807128906,-0.026202648878097534,0.15406697988510132,0.005172163248062134,1.3144173014040998,0.013853413982925332,-0.029616398746694448,0.00351282418705523,-0.9673145413398743,-0.2535547912120819,-0.27002424001693726,-0.170562282204628,-0.01804077811539173,Walking,,,,,,,
4846,Gyrometer,40.443938701966054,-79.94448793436604,289.7412300109863,255.77439880371094,15.644850730895996,0.029052734375,98.08125305175781,-1.0,-1.0,N/A,-0.0526123046875,-0.8743896484375,-0.242828369140625,0.18849268555641174,0.040835581719875336,0.03754977136850357,-28.076644897460938,-117.98992919921875,-326.7989807128906,-0.026202648878097534,0.15406697988510132,0.005172163248062134,1.3144173014040998,0.013853413982925332,-0.029616398746694448,0.00351282418705523,-0.9673145413398743,-0.2535547912120819,-0.27002424001693726,-0.170562282204628,-0.01804077811539173,Walking,,,,,,,
