Timestamp (ms),Triggering Sensor,Latitude,Longitude,Altitude,Heading (degrees),Heading accuracy (degrees),Relative Altitude (m),Pressure (kPa),Speed (m/s),Speed Accuracy (m/s),Floor,Acceleration - X axis,Acceleration - Y axis,Acceleration - Z axis,Gyrometer - X axis,Gyrometer - Y axis,Gyrometer - Z axis,Magnetometer - X axis,Magnetometer - Y axis,Magnetometer - Z axis,User acceleration - X axis,User acceleration - Y axis,User acceleration - Z axis,Attitude Pitch,Attitude Roll,Attitude Yaw,Gravity - X axis,Gravity - Y axis,Gravity - Z axis,Rotation Rate - X axis,Rotation Rate - Y axis,Rotation Rate - Z axis,Activity Type,Number of Steps,Distance,Floors Ascended,Floors Descended,Current Pace,Current Cadence,Average Active Pace
11,Gyrometer,,,,,,,,,,,,,,-0.030068952590227127,-0.1259123980998993,-0.05136518552899361,,,,,,,,,,,,,,,,,,,,,,,
40,GPS,40.44366498353663,-79.94450408007052,289.7598686218262,,,,,-1.0,-1.0,N/A,,,,-0.030068952590227127,-0.1259123980998993,-0.05136518552899361,,,,,,,,,,,,,,,,,,,,,,,
67,GPS,40.44366498353663,-79.94450408007052,289.7598686218262,,,,,-1.0,-1.0,N/A,,,,-0.030068952590227127,-0.1259123980998993,-0.05136518552899361,,,,,,,,,,,,,,,,,,,,,,,
97,COMPASS,40.44366498353663,-79.94450408007052,289.7598686218262,234.591796875,15.622353553771973,,,-1.0,-1.0,N/A,,,,-0.030068952590227127,-0.1259123980998993,-0.05136518552899361,,,,,,,,,,,,,,,,,,,,,,,
128,Magnetometer,40.44366498353663,-79.94450408007052,289.7598686218262,234.591796875,15.622353553771973,,,-1.0,-1.0,N/A,,,,-0.030068952590227127,-0.1259123980998993,-0.05136518552899361,2.9357757568359375,-114.67318725585938,-311.06756591796875,,,,,,,,,,,,,,,,,,,,
143,Accelerometer,40.44366498353663,-79.94450408007052,289.7598686218262,234.591796875,15.622353553771973,,,-1.0,-1.0,N/A,0.012359619140625,-0.965576171875,-0.278472900390625,-0.030068952590227127,-0.1259123980998993,-0.05136518552899361,2.9357757568359375,-114.67318725585938,-311.06756591796875,,,,,,,,,,,,,,,,,,,,
169,GPS,40.44366423480637,-79.94452467658925,289.8140983581543,234.591796875,15.622353553771973,,,-1.0,-1.0,N/A,0.012359619140625,-0.965576171875,-0.278472900390625,-0.030068952590227127,-0.1259123980998993,-0.05136518552899361,2.9357757568359375,-114.67318725585938,-311.06756591796875,,,,,,,,,,,,,,,,,,,,
198,GPS,40.443616887236985,-79.9445220775796,289.81440353393555,234.591796875,15.622353553771973,,,-1.0,-1.0,N/A,0.012359619140625,-0.965576171875,-0.278472900390625,-0.030068952590227127,-0.1259123980998993,-0.05136518552899361,2.9357757568359375,-114.67318725585938,-311.06756591796875,,,,,,,,,,,,,,,,,,,,
227,Activity Manager,40.443616887236985,-79.9445220775796,289.81440353393555,234.591796875,15.622353553771973,,,-1.0,-1.0,N/A,0.012359619140625,-0.965576171875,-0.278472900390625,-0.030068952590227127,-0.1259123980998993,-0.05136518552899361,2.9357757568359375,-114.67318725585938,-311.06756591796875,,,,,,,,,,,,,Walking,,,,,,,
256,Device Motion,40.443616887236985,-79.9445220775796,289.81440353393555,234.591796875,15.622353553771973,,,-1.0,-1.0,N/A,0.012359619140625,-0.965576171875,-0.278472900390625,-0.030068952590227127,-0.1259123980998993,-0.05136518552899361,2.9357757568359375,-114.67318725585938,-311.06756591796875,0.020251065492630005,0.005213320255279541,0.02541029453277588,1.298118735033552,-0.005562429013512017,0.004220338240955206,-0.0014980152482166886,-0.9630532264709473,-0.2693067789077759,0.0706772580742836,-0.09927241504192352,0.03412187099456787,Walking,,,,,,,
305,Gyrometer,40.443616887236985,-79.9445220775796,289.81440353393555,234.591796875,15.622353553771973,,,-1.0,-1.0,N/A,0.012359619140625,-0.965576171875,-0.278472900390625,0.04147340729832649,-0.032938241958618164,0.001472461735829711,2.9357757568359375,-114.67318725585938,-311.06756591796875,0.020251065492630005,0.005213320255279541,0.02541029453277588,1.298118735033552,-0.005562429013512017,0.004220338240955206,-0.0014980152482166886,-0.9630532264709473,-0.2693067789077759,0.0706772580742836,-0.09927241504192352,0.03412187099456787,Walking,,,,,,,
334,Magnetometer,40.443616887236985,-79.9445220775796,289.81440353393555,234.591796875,15.622353553771973,,,-1.0,-1.0,N/A,0.012359619140625,-0.965576171875,-0.278472900390625,0.04147340729832649,-0.032938241958618164,0.001472461735829711,3.26055908203125,-114.3311767578125,-310.5845947265625,0.020251065492630005,0.005213320255279541,0.02541029453277588,1.298118735033552,-0.005562429013512017,0.004220338240955206,-0.0014980152482166886,-0.9630532264709473,-0.2693067789077759,0.0706772580742836,-0.09927241504192352,0.03412187099456787,Walking,,,,,,,
362,Accelerometer,40.443616887236985,-79.9445220775796,289.81440353393555,234.591796875,15.622353553771973,,,-1.0,-1.0,N/A,-0.00634765625,-0.94696044921875,-0.248016357421875,0.04147340729832649,-0.032938241958618164,0.001472461735829711,3.26055908203125,-114.3311767578125,-310.5845947265625,0.020251065492630005,0.005213320255279541,0.02541029453277588,1.298118735033552,-0.005562429013512017,0.004220338240955206,-0.0014980152482166886,-0.9630532264709473,-0.2693067789077759,0.0706772580742836,-0.09927241504192352,0.03412187099456787,Walking,,,,,,,
486,Pedometer,40.443616887236985,-79.9445220775796,289.81440353393555,234.591796875,15.622353553771973,,,-1.0,-1.0,N/A,-0.00634765625,-0.94696044921875,-0.248016357421875,0.04147340729832649,-0.032938241958618164,0.001472461735829711,3.26055908203125,-114.3311767578125,-310.5845947265625,0.020251065492630005,0.005213320255279541,0.02541029453277588,1.298118735033552,-0.005562429013512017,0.004220338240955206,-0.0014980152482166886,-0.9630532264709473,-0.2693067789077759,0.0706772580742836,-0.09927241504192352,0.03412187099456787,Walking,3,2.21999999997206,0,0,0.8136230707168579,1.714188694953918,0.8621903153261664
520,Pedometer,40.443616887236985,-79.9445220775796,289.81440353393555,234.591796875,15.622353553771973,,,-1.0,-1.0,N/A,-0.00634765625,-0.94696044921875,-0.248016357421875,0.04147340729832649,-0.032938241958618164,0.001472461735829711,3.26055908203125,-114.3311767578125,-310.5845947265625,0.020251065492630005,0.005213320255279541,0.02541029453277588,1.298118735033552,-0.005562429013512017,0.004220338240955206,-0.0014980152482166886,-0.9630532264709473,-0.2693067789077759,0.0706772580742836,-0.09927241504192352,0.03412187099456787,Walking,3,2.21999999997206,0,0,0.8136230707168579,1.714188694953918,1.993595157682748
551,Device Motion,40.443616887236985,-79.9445220775796,289.81440353393555,234.591796875,15.622353553771973,,,-1.0,-1.0,N/A,-0.00634765625,-0.94696044921875,-0.248016357421875,0.04147340729832649,-0.032938241958618164,0.001472461735829711,3.26055908203125,-114.3311767578125,-310.5845947265625,-0.004753023386001587,-0.006597757339477539,0.04013264179229736,1.2959147411751009,-0.0073927763888836,-0.003971025075461165,-0.002006623661145568,-0.9624573588371277,-0.27142536640167236,-0.06455066055059433,-0.11947300285100937,0.02240642160177231,Walking,3,2.21999999997206,0,0,0.8136230707168579,1.714188694953918,1.993595157682748
606,Gyrometer,40.443616887236985,-79.9445220775796,289.81440353393555,234.591796875,15.622353553771973,,,-1.0,-1.0,N/A,-0.00634765625,-0.94696044921875,-0.248016357421875,-0.011983691714704037,-0.011751198209822178,-0.02196522057056427,3.26055908203125,-114.3311767578125,-310.5845947265625,-0.004753023386001587,-0.006597757339477539,0.04013264179229736,1.2959147411751009,-0.0073927763888836,-0.003971025075461165,-0.002006623661145568,-0.9624573588371277,-0.27142536640167236,-0.06455066055059433,-0.11947300285100937,0.02240642160177231,Walking,3,2.21999999997206,0,0,0.8136230707168579,1.714188694953918,1.993595157682748
638,Magnetometer,40.443616887236985,-79.9445220775796,289.81440353393555,234.591796875,15.622353553771973,,,-1.0,-1.0,N/A,-0.00634765625,-0.94696044921875,-0.248016357421875,-0.011983691714704037,-0.011751198209822178,-0.02196522057056427,3.5691070556640625,-114.54945373535156,-311.97344970703125,-0.004753023386001587,-0.006597757339477539,0.04013264179229736,1.2959147411751009,-0.0073927763888836,-0.003971025075461165,-0.002006623661145568,-0.9624573588371277,-0.27142536640167236,-0.06455066055059433,-0.11947300285100937,0.02240642160177231,Walking,3,2.21999999997206,0,0,0.8136230707168579,1.714188694953918,1.993595157682748
668,Accelerometer,40.443616887236985,-79.9445220775796,289.81440353393555,234.591796875,15.622353553771973,,,-1.0,-1.0,N/A,-0.01513671875,-0.9624176025390625,-0.2169342041015625,-0.011983691714704037,-0.011751198209822178,-0.02196522057056427,3.5691070556640625,-114.54945373535156,-311.97344970703125,-0.004753023386001587,-0.006597757339477539,0.04013264179229736,1.2959147411751009,-0.0073927763888836,-0.003971025075461165,-0.002006623661145568,-0.9624573588371277,-0.27142536640167236,-0.06455066055059433,-0.11947300285100937,0.02240642160177231,Walking,3,2.21999999997206,0,0,0.8136230707168579,1.714188694953918,1.993595157682748
807,Device Motion,40.443616887236985,-79.9445220775796,289.81440353393555,234.591796875,15.622353553771973,,,-1.0,-1.0,N/A,-0.01513671875,-0.9624176025390625,-0.2169342041015625,-0.011983691714704037,-0.011751198209822178,-0.02196522057056427,3.5691070556640625,-114.54945373535156,-311.97344970703125,0.007504464127123356,-0.011088192462921143,0.09471848607063293,1.282393407320906,-0.02810544414854142,0.012012664844448306,-0.007992733269929886,-0.9586993455886841,-0.28430891036987305,-0.07344672083854675,0.005943495314568281,-0.02007300965487957,Walking,3,2.21999999997206,0,0,0.8136230707168579,1.714188694953918,1.993595157682748
906,Gyrometer,40.443616887236985,-79.9445220775796,289.81440353393555,234.591796875,15.622353553771973,,,-1.0,-1.0,N/A,-0.01513671875,-0.9624176025390625,-0.2169342041015625,-0.018091918900609016,0.008872054517269135,0.020600350573658943,3.5691070556640625,-114.54945373535156,-311.97344970703125,0.007504464127123356,-0.011088192462921143,0.09471848607063293,1.282393407320906,-0.02810544414854142,0.012012664844448306,-0.007992733269929886,-0.9586993455886841,-0.28430891036987305,-0.07344672083854675,0.005943495314568281,-0.02007300965487957,Walking,3,2.21999999997206,0,0,0.8136230707168579,1.714188694953918,1.993595157682748
939,Magnetometer,40.443616887236985,-79.9445220775796,289.81440353393555,234.591796875,15.622353553771973,,,-1.0,-1.0,N/A,-0.01513671875,-0.9624176025390625,-0.2169342041015625,-0.018091918900609016,0.008872054517269135,0.020600350573658943,4.5139617919921875,-114.46206665039062,-312.7580261230469,0.007504464127123356,-0.011088192462921143,0.09471848607063293,1.282393407320906,-0.02810544414854142,0.012012664844448306,-0.007992733269929886,-0.9586993455886841,-0.28430891036987305,-0.07344672083854675,0.005943495314568281,-0.02007300965487957,Walking,3,2.21999999997206,0,0,0.8136230707168579,1.714188694953918,1.993595157682748
970,Accelerometer,40.443616887236985,-79.9445220775796,289.81440353393555,234.591796875,15.622353553771973,,,-1.0,-1.0,N/A,-0.021759033203125,-0.9741363525390625,-0.1885528564453125,-0.018091918900609016,0.008872054517269135,0.020600350573658943,4.5139617919921875,-114.46206665039062,-312.7580261230469,0.007504464127123356,-0.011088192462921143,0.09471848607063293,1.282393407320906,-0.02810544414854142,0.012012664844448306,-0.007992733269929886,-0.9586993455886841,-0.28430891036987305,-0.07344672083854675,0.005943495314568281,-0.02007300965487957,Walking,3,2.21999999997206,0,0,0.8136230707168579,1.714188694953918,1.993595157682748
1042,Altimeter,40.443616887236985,-79.9445220775796,289.81440353393555,234.591796875,15.622353553771973,0,98.07318115234375,-1.0,-1.0,N/A,-0.021759033203125,-0.9741363525390625,-0.1885528564453125,-0.018091918900609016,0.008872054517269135,0.020600350573658943,4.5139617919921875,-114.46206665039062,-312.7580261230469,0.007504464127123356,-0.011088192462921143,0.09471848607063293,1.282393407320906,-0.02810544414854142,0.012012664844448306,-0.007992733269929886,-0.9586993455886841,-0.28430891036987305,-0.07344672083854675,0.005943495314568281,-0.02007300965487957,Walking,3,2.21999999997206,0,0,0.8136230707168579,1.714188694953918,1.993595157682748
1106,Device Motion,40.443616887236985,-79.9445220775796,289.81440353393555,234.591796875,15.622353553771973,0,98.07318115234375,-1.0,-1.0,N/A,-0.021759033203125,-0.9741363525390625,-0.1885528564453125,-0.018091918900609016,0.008872054517269135,0.020600350573658943,4.5139617919921875,-114.46206665039062,-312.7580261230469,-0.010349184274673462,-0.092307448387146,0.07645159959793091,1.311640573662479,-0.03488473972208865,0.025919779458111993,-0.008937906473875046,-0.9666066765785217,-0.2561085820198059,0.08636150509119034,0.046517275273799896,0.05063549056649208,Walking,3,2.21999999997206,0,0,0.8136230707168579,1.714188694953918,1.993595157682748
1206,Gyrometer,40.443616887236985,-79.9445220775796,289.81440353393555,234.591796875,15.622353553771973,0,98.07318115234375,-1.0,-1.0,N/A,-0.021759033203125,-0.9741363525390625,-0.1885528564453125,0.2110573798418045,-0.011168764904141426,0.0284098032861948,4.5139617919921875,-114.46206665039062,-312.7580261230469,-0.010349184274673462,-0.092307448387146,0.07645159959793091,1.311640573662479,-0.03488473972208865,0.025919779458111993,-0.008937906473875046,-0.9666066765785217,-0.2561085820198059,0.08636150509119034,0.046517275273799896,0.05063549056649208,Walking,3,2.21999999997206,0,0,0.8136230707168579,1.714188694953918,1.993595157682748
1238,Magnetometer,40.443616887236985,-79.9445220775796,289.81440353393555,234.591796875,15.622353553771973,0,98.07318115234375,-1.0,-1.0,N/A,-0.021759033203125,-0.9741363525390625,-0.1885528564453125,0.2110573798418045,-0.011168764904141426,0.0284098032861948,5.6242828369140625,-113.93331909179688,-312.4375915527344,-0.010349184274673462,-0.092307448387146,0.07645159959793091,1.311640573662479,-0.03488473972208865,0.025919779458111993,-0.008937906473875046,-0.9666066765785217,-0.2561085820198059,0.08636150509119034,0.046517275273799896,0.05063549056649208,Walking,3,2.21999999997206,0,0,0.8136230707168579,1.714188694953918,1.993595157682748
1270,Accelerometer,40.443616887236985,-79.9445220775796,289.81440353393555,234.591796875,15.622353553771973,0,98.07318115234375,-1.0,-1.0,N/A,-0.0072021484375,-0.99755859375,-0.1983642578125,0.2110573798418045,-0.011168764904141426,0.0284098032861948,5.6242828369140625,-113.93331909179688,-312.4375915527344,-0.010349184274673462,-0.092307448387146,0.07645159959793091,1.311640573662479,-0.03488473972208865,0.025919779458111993,-0.008937906473875046,-0.9666066765785217,-0.2561085820198059,0.08636150509119034,0.046517275273799896,0.05063549056649208,Walking,3,2.21999999997206,0,0,0.8136230707168579,1.714188694953918,1.993595157682748
1366,COMPASS,40.443616887236985,-79.9445220775796,289.81440353393555,233.4990234375,15.615117073059082,0,98.07318115234375,-1.0,-1.0,N/A,-0.0072021484375,-0.99755859375,-0.1983642578125,0.2110573798418045,-0.011168764904141426,0.0284098032861948,5.6242828369140625,-113.93331909179688,-312.4375915527344,-0.010349184274673462,-0.092307448387146,0.07645159959793091,1.311640573662479,-0.03488473972208865,0.025919779458111993,-0.008937906473875046,-0.9666066765785217,-0.2561085820198059,0.08636150509119034,0.046517275273799896,0.05063549056649208,Walking,3,2.21999999997206,0,0,0.8136230707168579,1.714188694953918,1.993595157682748
1405,Device Motion,40.443616887236985,-79.9445220775796,289.81440353393555,233.4990234375,15.615117073059082,0,98.07318115234375,-1.0,-1.0,N/A,-0.0072021484375,-0.99755859375,-0.1983642578125,0.2110573798418045,-0.011168764904141426,0.0284098032861948,5.6242828369140625,-113.93331909179688,-312.4375915527344,0.04633909463882446,0.07554447650909424,0.010832160711288452,1.3329420480679273,-0.08785602506370978,0.0993450593600483,-0.020673830062150955,-0.971845805644989,-0.23470912873744965,-0.11151928454637527,0.21520377695560455,0.1041475459933281,Walking,3,2.21999999997206,0,0,0.8136230707168579,1.714188694953918,1.993595157682748
1465,COMPASS,40.443616887236985,-79.9445220775796,289.81440353393555,232.24339294433594,15.61654281616211,0,98.07318115234375,-1.0,-1.0,N/A,-0.0072021484375,-0.99755859375,-0.1983642578125,0.2110573798418045,-0.011168764904141426,0.0284098032861948,5.6242828369140625,-113.93331909179688,-312.4375915527344,0.04633909463882446,0.07554447650909424,0.010832160711288452,1.3329420480679273,-0.08785602506370978,0.0993450593600483,-0.020673830062150955,-0.971845805644989,-0.23470912873744965,-0.11151928454637527,0.21520377695560455,0.1041475459933281,Walking,3,2.21999999997206,0,0,0.8136230707168579,1.714188694953918,1.993595157682748
1506,Magnetometer,40.443616887236985,-79.9445220775796,289.81440353393555,232.24339294433594,15.61654281616211,0,98.07318115234375,-1.0,-1.0,N/A,-0.0072021484375,-0.99755859375,-0.1983642578125,0.2110573798418045,-0.011168764904141426,0.0284098032861948,5.164947509765625,-113.87637329101562,-313.5018310546875,0.04633909463882446,0.07554447650909424,0.010832160711288452,1.3329420480679273,-0.08785602506370978,0.0993450593600483,-0.020673830062150955,-0.971845805644989,-0.23470912873744965,-0.11151928454637527,0.21520377695560455,0.1041475459933281,Walking,3,2.21999999997206,0,0,0.8136230707168579,1.714188694953918,1.993595157682748
1540,COMPASS,40.443616887236985,-79.9445220775796,289.81440353393555,231.09593200683594,15.61764907836914,0,98.07318115234375,-1.0,-1.0,N/A,-0.0072021484375,-0.99755859375,-0.1983642578125,0.2110573798418045,-0.011168764904141426,0.0284098032861948,5.164947509765625,-113.87637329101562,-313.5018310546875,0.04633909463882446,0.07554447650909424,0.010832160711288452,1.3329420480679273,-0.08785602506370978,0.0993450593600483,-0.020673830062150955,-0.971845805644989,-0.23470912873744965,-0.11151928454637527,0.21520377695560455,0.1041475459933281,Walking,3,2.21999999997206,0,0,0.8136230707168579,1.714188694953918,1.993595157682748
1570,Gyrometer,40.443616887236985,-79.9445220775796,289.81440353393555,231.09593200683594,15.61764907836914,0,98.07318115234375,-1.0,-1.0,N/A,-0.0072021484375,-0.99755859375,-0.1983642578125,-0.137759730219841,0.317771852016449,0.11471113562583923,5.164947509765625,-113.87637329101562,-313.5018310546875,0.04633909463882446,0.07554447650909424,0.010832160711288452,1.3329420480679273,-0.08785602506370978,0.0993450593600483,-0.020673830062150955,-0.971845805644989,-0.23470912873744965,-0.11151928454637527,0.21520377695560455,0.1041475459933281,Walking,3,2.21999999997206,0,0,0.8136230707168579,1.714188694953918,1.993595157682748
1599,Accelerometer,40.443616887236985,-79.9445220775796,289.81440353393555,231.09593200683594,15.61764907836914,0,98.07318115234375,-1.0,-1.0,N/A,0.054443359375,-0.8901824951171875,-0.28814697265625,-0.137759730219841,0.317771852016449,0.11471113562583923,5.164947509765625,-113.87637329101562,-313.5018310546875,0.04633909463882446,0.07554447650909424,0.010832160711288452,1.3329420480679273,-0.08785602506370978,0.0993450593600483,-0.020673830062150955,-0.971845805644989,-0.23470912873744965,-0.11151928454637527,0.21520377695560455,0.1041475459933281,Walking,3,2.21999999997206,0,0,0.8136230707168579,1.714188694953918,1.993595157682748
1704,Device Motion,40.443616887236985,-79.9445220775796,289.81440353393555,231.09593200683594,15.61764907836914,0,98.07318115234375,-1.0,-1.0,N/A,0.054443359375,-0.8901824951171875,-0.28814697265625,-0.137759730219841,0.317771852016449,0.11471113562583923,5.164947509765625,-113.87637329101562,-313.5018310546875,-0.013176828622817993,-0.009469747543334961,0.06227165460586548,1.2861764789388304,-0.11329745231132822,0.16361371270934671,-0.0317450575530529,-0.9597684741020203,-0.27899226546287537,0.19823871552944183,-0.054255127906799316,-0.06561222672462463,Walking,3,2.21999999997206,0,0,0.8136230707168579,1.714188694953918,1.993595157682748
1806,Magnetometer,40.443616887236985,-79.9445220775796,289.81440353393555,231.09593200683594,15.61764907836914,0,98.07318115234375,-1.0,-1.0,N/A,0.054443359375,-0.8901824951171875,-0.28814697265625,-0.137759730219841,0.317771852016449,0.11471113562583923,5.4126129150390625,-114.43070983886719,-316.27239990234375,-0.013176828622817993,-0.009469747543334961,0.06227165460586548,1.2861764789388304,-0.11329745231132822,0.16361371270934671,-0.0317450575530529,-0.9597684741020203,-0.27899226546287537,0.19823871552944183,-0.054255127906799316,-0.06561222672462463,Walking,3,2.21999999997206,0,0,0.8136230707168579,1.714188694953918,1.993595157682748
1840,Gyrometer,40.443616887236985,-79.9445220775796,289.81440353393555,231.09593200683594,15.61764907836914,0,98.07318115234375,-1.0,-1.0,N/A,0.054443359375,-0.8901824951171875,-0.28814697265625,0.12970127165317535,-0.05531278997659683,-0.07797442376613617,5.4126129150390625,-114.43070983886719,-316.27239990234375,-0.013176828622817993,-0.009469747543334961,0.06227165460586548,1.2861764789388304,-0.11329745231132822,0.16361371270934671,-0.0317450575530529,-0.9597684741020203,-0.27899226546287537,0.19823871552944183,-0.054255127906799316,-0.06561222672462463,Walking,3,2.21999999997206,0,0,0.8136230707168579,1.714188694953918,1.993595157682748
1871,Accelerometer,40.443616887236985,-79.9445220775796,289.81440353393555,231.09593200683594,15.61764907836914,0,98.07318115234375,-1.0,-1.0,N/A,0.0355224609375,-1.06927490234375,-0.314910888671875,0.12970127165317535,-0.05531278997659683,-0.07797442376613617,5.4126129150390625,-114.43070983886719,-316.27239990234375,-0.013176828622817993,-0.009469747543334961,0.06227165460586548,1.2861764789388304,-0.11329745231132822,0.16361371270934671,-0.0317450575530529,-0.9597684741020203,-0.27899226546287537,0.19823871552944183,-0.054255127906799316,-0.06561222672462463,Walking,3,2.21999999997206,0,0,0.8136230707168579,1.714188694953918,1.993595157682748
1944,COMPASS,40.443616887236985,-79.9445220775796,289.81440353393555,232.3435821533203,15.625554084777832,0,98.07318115234375,-1.0,-1.0,N/A,0.0355224609375,-1.06927490234375,-0.314910888671875,0.12970127165317535,-0.05531278997659683,-0.07797442376613617,5.4126129150390625,-114.43070983886719,-316.27239990234375,-0.013176828622817993,-0.009469747543334961,0.06227165460586548,1.2861764789388304,-0.11329745231132822,0.16361371270934671,-0.0317450575530529,-0.9597684741020203,-0.27899226546287537,0.19823871552944183,-0.054255127906799316,-0.06561222672462463,Walking,3,2.21999999997206,0,0,0.8136230707168579,1.714188694953918,1.993595157682748
2003,Device Motion,40.443616887236985,-79.9445220775796,289.81440353393555,232.3435821533203,15.625554084777832,0,98.07318115234375,-1.0,-1.0,N/A,0.0355224609375,-1.06927490234375,-0.314910888671875,0.12970127165317535,-0.05531278997659683,-0.07797442376613617,5.4126129150390625,-114.43070983886719,-316.27239990234375,-0.030161231756210327,0.024251818656921387,-0.10961231589317322,1.3102057543939634,-0.0004946836426382571,0.027446999030646842,-0.00012745600542984903,-0.9662379622459412,-0.25765153765678406,0.05293683707714081,-0.12866652011871338,-0.10533436387777328,Walking,3,2.21999999997206,0,0,0.8136230707168579,1.714188694953918,1.993595157682748
2036,COMPASS,40.443616887236985,-79.9445220775796,289.81440353393555,233.4355926513672,15.6270751953125,0,98.07318115234375,-1.0,-1.0,N/A,0.0355224609375,-1.06927490234375,-0.314910888671875,0.12970127165317535,-0.05531278997659683,-0.07797442376613617,5.4126129150390625,-114.43070983886719,-316.27239990234375,-0.030161231756210327,0.024251818656921387,-0.10961231589317322,1.3102057543939634,-0.0004946836426382571,0.027446999030646842,-0.00012745600542984903,-0.9662379622459412,-0.25765153765678406,0.05293683707714081,-0.12866652011871338,-0.10533436387777328,Walking,3,2.21999999997206,0,0,0.8136230707168579,1.714188694953918,1.993595157682748
2066,Altimeter,40.443616887236985,-79.9445220775796,289.81440353393555,233.4355926513672,15.6270751953125,-0.005279541015625,98.07325744628906,-1.0,-1.0,N/A,0.0355224609375,-1.06927490234375,-0.314910888671875,0.12970127165317535,-0.05531278997659683,-0.07797442376613617,5.4126129150390625,-114.43070983886719,-316.27239990234375,-0.030161231756210327,0.024251818656921387,-0.10961231589317322,1.3102057543939634,-0.0004946836426382571,0.027446999030646842,-0.00012745600542984903,-0.9662379622459412,-0.25765153765678406,0.05293683707714081,-0.12866652011871338,-0.10533436387777328,Walking,3,2.21999999997206,0,0,0.8136230707168579,1.714188694953918,1.993595157682748
2103,COMPASS,40.443616887236985,-79.9445220775796,289.81440353393555,234.48570251464844,15.628311157226562,-0.005279541015625,98.07325744628906,-1.0,-1.0,N/A,0.0355224609375,-1.06927490234375,-0.314910888671875,0.12970127165317535,-0.05531278997659683,-0.07797442376613617,5.4126129150390625,-114.43070983886719,-316.27239990234375,-0.030161231756210327,0.024251818656921387,-0.10961231589317322,1.3102057543939634,-0.0004946836426382571,0.027446999030646842,-0.00012745600542984903,-0.9662379622459412,-0.25765153765678406,0.05293683707714081,-0.12866652011871338,-0.10533436387777328,Walking,3,2.21999999997206,0,0,0.8136230707168579,1.714188694953918,1.993595157682748
2134,Magnetometer,40.443616887236985,-79.9445220775796,289.81440353393555,234.48570251464844,15.628311157226562,-0.005279541015625,98.07325744628906,-1.0,-1.0,N/A,0.0355224609375,-1.06927490234375,-0.314910888671875,0.12970127165317535,-0.05531278997659683,-0.07797442376613617,5.2236328125,-114.39100646972656,-318.85028076171875,-0.030161231756210327,0.024251818656921387,-0.10961231589317322,1.3102057543939634,-0.0004946836426382571,0.027446999030646842,-0.00012745600542984903,-0.9662379622459412,-0.25765153765678406,0.05293683707714081,-0.12866652011871338,-0.10533436387777328,Walking,3,2.21999999997206,0,0,0.8136230707168579,1.714188694953918,1.993595157682748
2163,COMPASS,40.443616887236985,-79.9445220775796,289.81440353393555,235.49256896972656,15.629132270812988,-0.005279541015625,98.07325744628906,-1.0,-1.0,N/A,0.0355224609375,-1.06927490234375,-0.314910888671875,0.12970127165317535,-0.05531278997659683,-0.07797442376613617,5.2236328125,-114.39100646972656,-318.85028076171875,-0.030161231756210327,0.024251818656921387,-0.10961231589317322,1.3102057543939634,-0.0004946836426382571,0.027446999030646842,-0.00012745600542984903,-0.9662379622459412,-0.25765153765678406,0.05293683707714081,-0.12866652011871338,-0.10533436387777328,Walking,3,2.21999999997206,0,0,0.8136230707168579,1.714188694953918,1.993595157682748
2192,Gyrometer,40.443616887236985,-79.9445220775796,289.81440353393555,235.49256896972656,15.629132270812988,-0.005279541015625,98.07325744628906,-1.0,-1.0,N/A,0.0355224609375,-1.06927490234375,-0.314910888671875,-0.0816759541630745,-0.11029721051454544,-0.19514791667461395,5.2236328125,-114.39100646972656,-318.85028076171875,-0.030161231756210327,0.024251818656921387,-0.10961231589317322,1.3102057543939634,-0.0004946836426382571,0.027446999030646842,-0.00012745600542984903,-0.9662379622459412,-0.25765153765678406,0.05293683707714081,-0.12866652011871338,-0.10533436387777328,Walking,3,2.21999999997206,0,0,0.8136230707168579,1.714188694953918,1.993595157682748
2219,Accelerometer,40.443616887236985,-79.9445220775796,289.81440353393555,235.49256896972656,15.629132270812988,-0.005279541015625,98.07325744628906,-1.0,-1.0,N/A,-0.04443359375,-0.9072418212890625,-0.3078765869140625,-0.0816759541630745,-0.11029721051454544,-0.19514791667461395,5.2236328125,-114.39100646972656,-318.85028076171875,-0.030161231756210327,0.024251818656921387,-0.10961231589317322,1.3102057543939634,-0.0004946836426382571,0.027446999030646842,-0.00012745600542984903,-0.9662379622459412,-0.25765153765678406,0.05293683707714081,-0.12866652011871338,-0.10533436387777328,Walking,3,2.21999999997206,0,0,0.8136230707168579,1.714188694953918,1.993595157682748
2302,Device Motion,40.443616887236985,-79.9445220775796,289.81440353393555,235.49256896972656,15.629132270812988,-0.005279541015625,98.07325744628906,-1.0,-1.0,N/A,-0.04443359375,-0.9072418212890625,-0.3078765869140625,-0.0816759541630745,-0.11029721051454544,-0.19514791667461395,5.2236328125,-114.39100646972656,-318.85028076171875,-0.024342119693756104,0.09620749950408936,0.06721606850624084,1.291477328573377,0.03201086746287426,-0.045161161668828755,0.008823915384709835,-0.9612433910369873,-0.27555957436561584,0.1256607174873352,0.09376014024019241,-0.05574880540370941,Walking,3,2.21999999997206,0,0,0.8136230707168579,1.714188694953918,1.993595157682748
2396,Activity Manager,40.443616887236985,-79.9445220775796,289.81440353393555,235.49256896972656,15.629132270812988,-0.005279541015625,98.07325744628906,-1.0,-1.0,N/A,-0.04443359375,-0.9072418212890625,-0.3078765869140625,-0.0816759541630745,-0.11029721051454544,-0.19514791667461395,5.2236328125,-114.39100646972656,-318.85028076171875,-0.024342119693756104,0.09620749950408936,0.06721606850624084,1.291477328573377,0.03201086746287426,-0.045161161668828755,0.008823915384709835,-0.9612433910369873,-0.27555957436561584,0.1256607174873352,0.09376014024019241,-0.05574880540370941,Walking,3,2.21999999997206,0,0,0.8136230707168579,1.714188694953918,1.993595157682748
2430,Magnetometer,40.443616887236985,-79.9445220775796,289.81440353393555,235.49256896972656,15.629132270812988,-0.005279541015625,98.07325744628906,-1.0,-1.0,N/A,-0.04443359375,-0.9072418212890625,-0.3078765869140625,-0.0816759541630745,-0.11029721051454544,-0.19514791667461395,4.6630706787109375,-117.22282409667969,-321.025390625,-0.024342119693756104,0.09620749950408936,0.06721606850624084,1.291477328573377,0.03201086746287426,-0.045161161668828755,0.008823915384709835,-0.9612433910369873,-0.27555957436561584,0.1256607174873352,0.09376014024019241,-0.05574880540370941,Walking,3,2.21999999997206,0,0,0.8136230707168579,1.714188694953918,1.993595157682748
2459,Gyrometer,40.443616887236985,-79.9445220775796,289.81440353393555,235.49256896972656,15.629132270812988,-0.005279541015625,98.07325744628906,-1.0,-1.0,N/A,-0.04443359375,-0.9072418212890625,-0.3078765869140625,0.1988196223974228,-0.04765566810965538,0.032775525003671646,4.6630706787109375,-117.22282409667969,-321.025390625,-0.024342119693756104,0.09620749950408936,0.06721606850624084,1.291477328573377,0.03201086746287426,-0.045161161668828755,0.008823915384709835,-0.9612433910369873,-0.27555957436561584,0.1256607174873352,0.09376014024019241,-0.05574880540370941,Walking,3,2.21999999997206,0,0,0.8136230707168579,1.714188694953918,1.993595157682748
2487,Accelerometer,40.443616887236985,-79.9445220775796,289.81440353393555,235.49256896972656,15.629132270812988,-0.005279541015625,98.07325744628906,-1.0,-1.0,N/A,-0.0559234619140625,-1.033355712890625,-0.1960906982421875,0.1988196223974228,-0.04765566810965538,0.032775525003671646,4.6630706787109375,-117.22282409667969,-321.025390625,-0.024342119693756104,0.09620749950408936,0.06721606850624084,1.291477328573377,0.03201086746287426,-0.045161161668828755,0.008823915384709835,-0.9612433910369873,-0.27555957436561584,0.1256607174873352,0.09376014024019241,-0.05574880540370941,Walking,3,2.21999999997206,0,0,0.8136230707168579,1.714188694953918,1.993595157682748
2562,COMPASS,40.443616887236985,-79.9445220775796,289.81440353393555,234.4291534423828,15.636143684387207,-0.005279541015625,98.07325744628906,-1.0,-1.0,N/A,-0.0559234619140625,-1.033355712890625,-0.1960906982421875,0.1988196223974228,-0.04765566810965538,0.032775525003671646,4.6630706787109375,-117.22282409667969,-321.025390625,-0.024342119693756104,0.09620749950408936,0.06721606850624084,1.291477328573377,0.03201086746287426,-0.045161161668828755,0.008823915384709835,-0.9612433910369873,-0.27555957436561584,0.1256607174873352,0.09376014024019241,-0.05574880540370941,Walking,3,2.21999999997206,0,0,0.8136230707168579,1.714188694953918,1.993595157682748
2601,Device Motion,40.443616887236985,-79.9445220775796,289.81440353393555,234.4291534423828,15.636143684387207,-0.005279541015625,98.07325744628906,-1.0,-1.0,N/A,-0.0559234619140625,-1.033355712890625,-0.1960906982421875,0.1988196223974228,-0.04765566810965538,0.032775525003671646,4.6630706787109375,-117.22282409667969,-321.025390625,0.016508817672729492,-0.10084676742553711,-0.09247970581054688,1.3419169688399208,-0.01142803492175771,0.0238822025657607,-0.002592808101326227,-0.9739212393760681,-0.22687149047851562,-0.05818498507142067,-0.028955107554793358,0.20024190843105316,Walking,3,2.21999999997206,0,0,0.8136230707168579,1.714188694953918,1.993595157682748
2642,COMPASS,40.443616887236985,-79.9445220775796,289.81440353393555,233.32899475097656,15.637642860412598,-0.005279541015625,98.07325744628906,-1.0,-1.0,N/A,-0.0559234619140625,-1.033355712890625,-0.1960906982421875,0.1988196223974228,-0.04765566810965538,0.032775525003671646,4.6630706787109375,-117.22282409667969,-321.025390625,0.016508817672729492,-0.10084676742553711,-0.09247970581054688,1.3419169688399208,-0.01142803492175771,0.0238822025657607,-0.002592808101326227,-0.9739212393760681,-0.22687149047851562,-0.05818498507142067,-0.028955107554793358,0.20024190843105316,Walking,3,2.21999999997206,0,0,0.8136230707168579,1.714188694953918,1.993595157682748
2705,Magnetometer,40.443616887236985,-79.9445220775796,289.81440353393555,233.32899475097656,15.637642860412598,-0.005279541015625,98.07325744628906,-1.0,-1.0,N/A,-0.0559234619140625,-1.033355712890625,-0.1960906982421875,0.1988196223974228,-0.04765566810965538,0.032775525003671646,3.0644378662109375,-122.29391479492188,-320.00616455078125,0.016508817672729492,-0.10084676742553711,-0.09247970581054688,1.3419169688399208,-0.01142803492175771,0.0238822025657607,-0.002592808101326227,-0.9739212393760681,-0.22687149047851562,-0.05818498507142067,-0.028955107554793358,0.20024190843105316,Walking,3,2.21999999997206,0,0,0.8136230707168579,1.714188694953918,1.993595157682748
2738,Gyrometer,40.443616887236985,-79.9445220775796,289.81440353393555,233.32899475097656,15.637642860412598,-0.005279541015625,98.07325744628906,-1.0,-1.0,N/A,-0.0559234619140625,-1.033355712890625,-0.1960906982421875,0.00583605095744133,0.1941785365343094,-0.1064193844795227,3.0644378662109375,-122.29391479492188,-320.00616455078125,0.016508817672729492,-0.10084676742553711,-0.09247970581054688,1.3419169688399208,-0.01142803492175771,0.0238822025657607,-0.002592808101326227,-0.9739212393760681,-0.22687149047851562,-0.05818498507142067,-0.028955107554793358,0.20024190843105316,Walking,3,2.21999999997206,0,0,0.8136230707168579,1.714188694953918,1.993595157682748
2770,Accelerometer,40.443616887236985,-79.9445220775796,289.81440353393555,233.32899475097656,15.637642860412598,-0.005279541015625,98.07325744628906,-1.0,-1.0,N/A,0.055419921875,-0.954254150390625,-0.240875244140625,0.00583605095744133,0.1941785365343094,-0.1064193844795227,3.0644378662109375,-122.29391479492188,-320.00616455078125,0.016508817672729492,-0.10084676742553711,-0.09247970581054688,1.3419169688399208,-0.01142803492175771,0.0238822025657607,-0.002592808101326227,-0.9739212393760681,-0.22687149047851562,-0.05818498507142067,-0.028955107554793358,0.20024190843105316,Walking,3,2.21999999997206,0,0,0.8136230707168579,1.714188694953918,1.993595157682748
2900,Device Motion,40.443616887236985,-79.9445220775796,289.81440353393555,233.32899475097656,15.637642860412598,-0.005279541015625,98.07325744628906,-1.0,-1.0,N/A,0.055419921875,-0.954254150390625,-0.240875244140625,0.00583605095744133,0.1941785365343094,-0.1064193844795227,3.0644378662109375,-122.29391479492188,-320.00616455078125,0.012735813856124878,0.13948148488998413,0.052740782499313354,1.3632870703126532,-0.025899547004117663,0.05730644835140469,-0.005335316993296146,-0.9785470962524414,-0.20595434308052063,0.0865313857793808,0.021321939304471016,-0.03533046320080757,Walking,3,2.21999999997206,0,0,0.8136230707168579,1.714188694953918,1.993595157682748
3004,Magnetometer,40.443616887236985,-79.9445220775796,289.81440353393555,233.32899475097656,15.637642860412598,-0.005279541015625,98.07325744628906,-1.0,-1.0,N/A,0.055419921875,-0.954254150390625,-0.240875244140625,0.00583605095744133,0.1941785365343094,-0.1064193844795227,2.201751708984375,-126.46171569824219,-319.5051574707031,0.012735813856124878,0.13948148488998413,0.052740782499313354,1.3632870703126532,-0.025899547004117663,0.05730644835140469,-0.005335316993296146,-0.9785470962524414,-0.20595434308052063,0.0865313857793808,0.021321939304471016,-0.03533046320080757,Walking,3,2.21999999997206,0,0,0.8136230707168579,1.714188694953918,1.993595157682748
3040,Gyrometer,40.443616887236985,-79.9445220775796,289.81440353393555,233.32899475097656,15.637642860412598,-0.005279541015625,98.07325744628906,-1.0,-1.0,N/A,0.055419921875,-0.954254150390625,-0.240875244140625,0.330993115901947,-0.09645010530948639,-0.07752195745706558,2.201751708984375,-126.46171569824219,-319.5051574707031,0.012735813856124878,0.13948148488998413,0.052740782499313354,1.3632870703126532,-0.025899547004117663,0.05730644835140469,-0.005335316993296146,-0.9785470962524414,-0.20595434308052063,0.0865313857793808,0.021321939304471016,-0.03533046320080757,Walking,3,2.21999999997206,0,0,0.8136230707168579,1.714188694953918,1.993595157682748
3070,Pedometer,40.443616887236985,-79.9445220775796,289.81440353393555,233.32899475097656,15.637642860412598,-0.005279541015625,98.07325744628906,-1.0,-1.0,N/A,0.055419921875,-0.954254150390625,-0.240875244140625,0.330993115901947,-0.09645010530948639,-0.07752195745706558,2.201751708984375,-126.46171569824219,-319.5051574707031,0.012735813856124878,0.13948148488998413,0.052740782499313354,1.3632870703126532,-0.025899547004117663,0.05730644835140469,-0.005335316993296146,-0.9785470962524414,-0.20595434308052063,0.0865313857793808,0.021321939304471016,-0.03533046320080757,Walking,3,2.21999999997206,0,0,0.8136230707168579,1.714188694953918,1.993595157682748
3100,Accelerometer,40.443616887236985,-79.9445220775796,289.81440353393555,233.32899475097656,15.637642860412598,-0.005279541015625,98.07325744628906,-1.0,-1.0,N/A,-0.002105712890625,-1.0997161865234375,-0.168243408203125,0.330993115901947,-0.09645010530948639,-0.07752195745706558,2.201751708984375,-126.46171569824219,-319.5051574707031,0.012735813856124878,0.13948148488998413,0.052740782499313354,1.3632870703126532,-0.025899547004117663,0.05730644835140469,-0.005335316993296146,-0.9785470962524414,-0.20595434308052063,0.0865313857793808,0.021321939304471016,-0.03533046320080757,Walking,3,2.21999999997206,0,0,0.8136230707168579,1.714188694953918,1.993595157682748
3126,COMPASS,40.443616887236985,-79.9445220775796,289.81440353393555,234.3502655029297,15.646127700805664,-0.005279541015625,98.07325744628906,-1.0,-1.0,N/A,-0.002105712890625,-1.0997161865234375,-0.168243408203125,0.330993115901947,-0.09645010530948639,-0.07752195745706558,2.201751708984375,-126.46171569824219,-319.5051574707031,0.012735813856124878,0.13948148488998413,0.052740782499313354,1.3632870703126532,-0.025899547004117663,0.05730644835140469,-0.005335316993296146,-0.9785470962524414,-0.20595434308052063,0.0865313857793808,0.021321939304471016,-0.03533046320080757,Walking,3,2.21999999997206,0,0,0.8136230707168579,1.714188694953918,1.993595157682748
3153,Activity Manager,40.443616887236985,-79.9445220775796,289.81440353393555,234.3502655029297,15.646127700805664,-0.005279541015625,98.07325744628906,-1.0,-1.0,N/A,-0.002105712890625,-1.0997161865234375,-0.168243408203125,0.330993115901947,-0.09645010530948639,-0.07752195745706558,2.201751708984375,-126.46171569824219,-319.5051574707031,0.012735813856124878,0.13948148488998413,0.052740782499313354,1.3632870703126532,-0.025899547004117663,0.05730644835140469,-0.005335316993296146,-0.9785470962524414,-0.20595434308052063,0.0865313857793808,0.021321939304471016,-0.03533046320080757,Walking,3,2.21999999997206,0,0,0.8136230707168579,1.714188694953918,1.993595157682748
3181,COMPASS,40.443616887236985,-79.9445220775796,289.81440353393555,235.4320526123047,15.647587776184082,-0.005279541015625,98.07325744628906,-1.0,-1.0,N/A,-0.002105712890625,-1.0997161865234375,-0.168243408203125,0.330993115901947,-0.09645010530948639,-0.07752195745706558,2.201751708984375,-126.46171569824219,-319.5051574707031,0.012735813856124878,0.13948148488998413,0.052740782499313354,1.3632870703126532,-0.025899547004117663,0.05730644835140469,-0.005335316993296146,-0.9785470962524414,-0.20595434308052063,0.0865313857793808,0.021321939304471016,-0.03533046320080757,Walking,3,2.21999999997206,0,0,0.8136230707168579,1.714188694953918,1.993595157682748
3207,Altimeter,40.443616887236985,-79.9445220775796,289.81440353393555,235.4320526123047,15.647587776184082,0,98.07318115234375,-1.0,-1.0,N/A,-0.002105712890625,-1.0997161865234375,-0.168243408203125,0.330993115901947,-0.09645010530948639,-0.07752195745706558,2.201751708984375,-126.46171569824219,-319.5051574707031,0.012735813856124878,0.13948148488998413,0.052740782499313354,1.3632870703126532,-0.025899547004117663,0.05730644835140469,-0.005335316993296146,-0.9785470962524414,-0.20595434308052063,0.0865313857793808,0.021321939304471016,-0.03533046320080757,Walking,3,2.21999999997206,0,0,0.8136230707168579,1.714188694953918,1.993595157682748
3234,Device Motion,40.443616887236985,-79.9445220775796,289.81440353393555,235.4320526123047,15.647587776184082,0,98.07318115234375,-1.0,-1.0,N/A,-0.002105712890625,-1.0997161865234375,-0.168243408203125,0.330993115901947,-0.09645010530948639,-0.07752195745706558,2.201751708984375,-126.46171569824219,-319.5051574707031,0.007625492289662361,-0.10913991928100586,-0.08102871477603912,1.4325142174600884,0.13962859894577176,-0.13841499894549694,0.01918421871960163,-0.9904542565345764,-0.13650058209896088,0.08235642313957214,-0.28957444429397583,-0.023234860971570015,Walking,3,2.21999999997206,0,0,0.8136230707168579,1.714188694953918,1.993595157682748
3263,COMPASS,40.443616887236985,-79.9445220775796,289.81440353393555,236.6049041748047,15.648987770080566,0,98.07318115234375,-1.0,-1.0,N/A,-0.002105712890625,-1.0997161865234375,-0.168243408203125,0.330993115901947,-0.09645010530948639,-0.07752195745706558,2.201751708984375,-126.46171569824219,-319.5051574707031,0.007625492289662361,-0.10913991928100586,-0.08102871477603912,1.4325142174600884,0.13962859894577176,-0.13841499894549694,0.01918421871960163,-0.9904542565345764,-0.13650058209896088,0.08235642313957214,-0.28957444429397583,-0.023234860971570015,Walking,3,2.21999999997206,0,0,0.8136230707168579,1.714188694953918,1.993595157682748
3304,Magnetometer,40.443616887236985,-79.9445220775796,289.81440353393555,236.6049041748047,15.648987770080566,0,98.07318115234375,-1.0,-1.0,N/A,-0.002105712890625,-1.0997161865234375,-0.168243408203125,0.330993115901947,-0.09645010530948639,-0.07752195745706558,2.766937255859375,-130.298095703125,-318.48870849609375,0.007625492289662361,-0.10913991928100586,-0.08102871477603912,1.4325142174600884,0.13962859894577176,-0.13841499894549694,0.01918421871960163,-0.9904542565345764,-0.13650058209896088,0.08235642313957214,-0.28957444429397583,-0.023234860971570015,Walking,3,2.21999999997206,0,0,0.8136230707168579,1.714188694953918,1.993595157682748
3332,Gyrometer,40.443616887236985,-79.9445220775796,289.81440353393555,236.6049041748047,15.648987770080566,0,98.07318115234375,-1.0,-1.0,N/A,-0.002105712890625,-1.0997161865234375,-0.168243408203125,-0.13329041004180908,-0.10257591307163239,-0.03905658796429634,2.766937255859375,-130.298095703125,-318.48870849609375,0.007625492289662361,-0.10913991928100586,-0.08102871477603912,1.4325142174600884,0.13962859894577176,-0.13841499894549694,0.01918421871960163,-0.9904542565345764,-0.13650058209896088,0.08235642313957214,-0.28957444429397583,-0.023234860971570015,Walking,3,2.21999999997206,0,0,0.8136230707168579,1.714188694953918,1.993595157682748
3361,COMPASS,40.443616887236985,-79.9445220775796,289.81440353393555,237.6212615966797,15.650618553161621,0,98.07318115234375,-1.0,-1.0,N/A,-0.002105712890625,-1.0997161865234375,-0.168243408203125,-0.13329041004180908,-0.10257591307163239,-0.03905658796429634,2.766937255859375,-130.298095703125,-318.48870849609375,0.007625492289662361,-0.10913991928100586,-0.08102871477603912,1.4325142174600884,0.13962859894577176,-0.13841499894549694,0.01918421871960163,-0.9904542565345764,-0.13650058209896088,0.08235642313957214,-0.28957444429397583,-0.023234860971570015,Walking,3,2.21999999997206,0,0,0.8136230707168579,1.714188694953918,1.993595157682748
3390,Accelerometer,40.443616887236985,-79.9445220775796,289.81440353393555,237.6212615966797,15.650618553161621,0,98.07318115234375,-1.0,-1.0,N/A,0.0054473876953125,-0.8878631591796875,-0.150970458984375,-0.13329041004180908,-0.10257591307163239,-0.03905658796429634,2.766937255859375,-130.298095703125,-318.48870849609375,0.007625492289662361,-0.10913991928100586,-0.08102871477603912,1.4325142174600884,0.13962859894577176,-0.13841499894549694,0.01918421871960163,-0.9904542565345764,-0.13650058209896088,0.08235642313957214,-0.28957444429397583,-0.023234860971570015,Walking,3,2.21999999997206,0,0,0.8136230707168579,1.714188694953918,1.993595157682748
3440,COMPASS,40.443616887236985,-79.9445220775796,289.81440353393555,238.7315216064453,15.6519775390625,0,98.07318115234375,-1.0,-1.0,N/A,0.0054473876953125,-0.8878631591796875,-0.150970458984375,-0.13329041004180908,-0.10257591307163239,-0.03905658796429634,2.766937255859375,-130.298095703125,-318.48870849609375,0.007625492289662361,-0.10913991928100586,-0.08102871477603912,1.4325142174600884,0.13962859894577176,-0.13841499894549694,0.01918421871960163,-0.9904542565345764,-0.13650058209896088,0.08235642313957214,-0.28957444429397583,-0.023234860971570015,Walking,3,2.21999999997206,0,0,0.8136230707168579,1.714188694953918,1.993595157682748
3499,Device Motion,40.443616887236985,-79.9445220775796,289.81440353393555,238.7315216064453,15.6519775390625,0,98.07318115234375,-1.0,-1.0,N/A,0.0054473876953125,-0.8878631591796875,-0.150970458984375,-0.13329041004180908,-0.10257591307163239,-0.03905658796429634,2.766937255859375,-130.298095703125,-318.48870849609375,-0.051581770181655884,0.1196015477180481,0.03808110952377319,1.3856716874480073,0.15492863260026382,-0.20960221330714307,0.028403665870428085,-0.9829133152961731,-0.1818646788597107,-0.013297328725457191,-0.015968987718224525,-0.17414285242557526,Walking,3,2.21999999997206,0,0,0.8136230707168579,1.714188694953918,1.993595157682748
3540,COMPASS,40.443616887236985,-79.9445220775796,289.81440353393555,239.74484252929688,15.653791427612305,0,98.07318115234375,-1.0,-1.0,N/A,0.0054473876953125,-0.8878631591796875,-0.150970458984375,-0.13329041004180908,-0.10257591307163239,-0.03905658796429634,2.766937255859375,-130.298095703125,-318.48870849609375,-0.051581770181655884,0.1196015477180481,0.03808110952377319,1.3856716874480073,0.15492863260026382,-0.20960221330714307,0.028403665870428085,-0.9829133152961731,-0.1818646788597107,-0.013297328725457191,-0.015968987718224525,-0.17414285242557526,Walking,3,2.21999999997206,0,0,0.8136230707168579,1.714188694953918,1.993595157682748
3605,Magnetometer,40.443616887236985,-79.9445220775796,289.81440353393555,239.74484252929688,15.653791427612305,0,98.07318115234375,-1.0,-1.0,N/A,0.0054473876953125,-0.8878631591796875,-0.150970458984375,-0.13329041004180908,-0.10257591307163239,-0.03905658796429634,3.77655029296875,-134.4443817138672,-321.48846435546875,-0.051581770181655884,0.1196015477180481,0.03808110952377319,1.3856716874480073,0.15492863260026382,-0.20960221330714307,0.028403665870428085,-0.9829133152961731,-0.1818646788597107,-0.013297328725457191,-0.015968987718224525,-0.17414285242557526,Walking,3,2.21999999997206,0,0,0.8136230707168579,1.714188694953918,1.993595157682748
3640,Gyrometer,40.443616887236985,-79.9445220775796,289.81440353393555,239.74484252929688,15.653791427612305,0,98.07318115234375,-1.0,-1.0,N/A,0.0054473876953125,-0.8878631591796875,-0.150970458984375,0.10030077397823334,0.04013490304350853,0.027965322136878967,3.77655029296875,-134.4443817138672,-321.48846435546875,-0.051581770181655884,0.1196015477180481,0.03808110952377319,1.3856716874480073,0.15492863260026382,-0.20960221330714307,0.028403665870428085,-0.9829133152961731,-0.1818646788597107,-0.013297328725457191,-0.015968987718224525,-0.17414285242557526,Walking,3,2.21999999997206,0,0,0.8136230707168579,1.714188694953918,1.993595157682748
3669,Accelerometer,40.443616887236985,-79.9445220775796,289.81440353393555,239.74484252929688,15.653791427612305,0,98.07318115234375,-1.0,-1.0,N/A,0.00811767578125,-1.0690765380859375,-0.1840667724609375,0.10030077397823334,0.04013490304350853,0.027965322136878967,3.77655029296875,-134.4443817138672,-321.48846435546875,-0.051581770181655884,0.1196015477180481,0.03808110952377319,1.3856716874480073,0.15492863260026382,-0.20960221330714307,0.028403665870428085,-0.9829133152961731,-0.1818646788597107,-0.013297328725457191,-0.015968987718224525,-0.17414285242557526,Walking,3,2.21999999997206,0,0,0.8136230707168579,1.714188694953918,1.993595157682748
3779,COMPASS,40.443616887236985,-79.9445220775796,289.81440353393555,238.57884216308594,15.65743350982666,0,98.07318115234375,-1.0,-1.0,N/A,0.00811767578125,-1.0690765380859375,-0.1840667724609375,0.10030077397823334,0.04013490304350853,0.027965322136878967,3.77655029296875,-134.4443817138672,-321.48846435546875,-0.051581770181655884,0.1196015477180481,0.03808110952377319,1.3856716874480073,0.15492863260026382,-0.20960221330714307,0.028403665870428085,-0.9829133152961731,-0.1818646788597107,-0.013297328725457191,-0.015968987718224525,-0.17414285242557526,Walking,3,2.21999999997206,0,0,0.8136230707168579,1.714188694953918,1.993595157682748
3813,Device Motion,40.443616887236985,-79.9445220775796,289.81440353393555,238.57884216308594,15.65743350982666,0,98.07318115234375,-1.0,-1.0,N/A,0.00811767578125,-1.0690765380859375,-0.1840667724609375,0.10030077397823334,0.04013490304350853,0.027965322136878967,3.77655029296875,-134.4443817138672,-321.48846435546875,0.030546754598617554,-0.06700754165649414,0.06252449750900269,1.409049554736772,0.15248309864265505,-0.19098637430272603,0.0244611743837595,-0.9869474768638611,-0.15917368233203888,0.04180682450532913,0.4029185473918915,-0.06123485043644905,Walking,3,2.21999999997206,0,0,0.8136230707168579,1.714188694953918,1.993595157682748
3839,COMPASS,40.443616887236985,-79.9445220775796,289.81440353393555,237.56503295898438,15.658483505249023,0,98.07318115234375,-1.0,-1.0,N/A,0.00811767578125,-1.0690765380859375,-0.1840667724609375,0.10030077397823334,0.04013490304350853,0.027965322136878967,3.77655029296875,-134.4443817138672,-321.48846435546875,0.030546754598617554,-0.06700754165649414,0.06252449750900269,1.409049554736772,0.15248309864265505,-0.19098637430272603,0.0244611743837595,-0.9869474768638611,-0.15917368233203888,0.04180682450532913,0.4029185473918915,-0.06123485043644905,Walking,3,2.21999999997206,0,0,0.8136230707168579,1.714188694953918,1.993595157682748
3898,COMPASS,40.443616887236985,-79.9445220775796,289.81440353393555,236.25730895996094,15.65948486328125,0,98.07318115234375,-1.0,-1.0,N/A,0.00811767578125,-1.0690765380859375,-0.1840667724609375,0.10030077397823334,0.04013490304350853,0.027965322136878967,3.77655029296875,-134.4443817138672,-321.48846435546875,0.030546754598617554,-0.06700754165649414,0.06252449750900269,1.409049554736772,0.15248309864265505,-0.19098637430272603,0.0244611743837595,-0.9869474768638611,-0.15917368233203888,0.04180682450532913,0.4029185473918915,-0.06123485043644905,Walking,3,2.21999999997206,0,0,0.8136230707168579,1.714188694953918,1.993595157682748
3931,Magnetometer,40.443616887236985,-79.9445220775796,289.81440353393555,236.25730895996094,15.65948486328125,0,98.07318115234375,-1.0,-1.0,N/A,0.00811767578125,-1.0690765380859375,-0.1840667724609375,0.10030077397823334,0.04013490304350853,0.027965322136878967,3.1053924560546875,-139.85665893554688,-319.39251708984375,0.030546754598617554,-0.06700754165649414,0.06252449750900269,1.409049554736772,0.15248309864265505,-0.19098637430272603,0.0244611743837595,-0.9869474768638611,-0.15917368233203888,0.04180682450532913,0.4029185473918915,-0.06123485043644905,Walking,3,2.21999999997206,0,0,0.8136230707168579,1.714188694953918,1.993595157682748
3961,COMPASS,40.443616887236985,-79.9445220775796,289.81440353393555,235.21359252929688,15.660152435302734,0,98.07318115234375,-1.0,-1.0,N/A,0.00811767578125,-1.0690765380859375,-0.1840667724609375,0.10030077397823334,0.04013490304350853,0.027965322136878967,3.1053924560546875,-139.85665893554688,-319.39251708984375,0.030546754598617554,-0.06700754165649414,0.06252449750900269,1.409049554736772,0.15248309864265505,-0.19098637430272603,0.0244611743837595,-0.9869474768638611,-0.15917368233203888,0.04180682450532913,0.4029185473918915,-0.06123485043644905,Walking,3,2.21999999997206,0,0,0.8136230707168579,1.714188694953918,1.993595157682748
3989,Gyrometer,40.443616887236985,-79.9445220775796,289.81440353393555,235.21359252929688,15.660152435302734,0,98.07318115234375,-1.0,-1.0,N/A,0.00811767578125,-1.0690765380859375,-0.1840667724609375,-0.2035009264945984,0.2878411114215851,0.23577524721622467,3.1053924560546875,-139.85665893554688,-319.39251708984375,0.030546754598617554,-0.06700754165649414,0.06252449750900269,1.409049554736772,0.15248309864265505,-0.19098637430272603,0.0244611743837595,-0.9869474768638611,-0.15917368233203888,0.04180682450532913,0.4029185473918915,-0.06123485043644905,Walking,3,2.21999999997206,0,0,0.8136230707168579,1.714188694953918,1.993595157682748
4017,COMPASS,40.443616887236985,-79.9445220775796,289.81440353393555,234.00526428222656,15.661168098449707,0,98.07318115234375,-1.0,-1.0,N/A,0.00811767578125,-1.0690765380859375,-0.1840667724609375,-0.2035009264945984,0.2878411114215851,0.23577524721622467,3.1053924560546875,-139.85665893554688,-319.39251708984375,0.030546754598617554,-0.06700754165649414,0.06252449750900269,1.409049554736772,0.15248309864265505,-0.19098637430272603,0.0244611743837595,-0.9869474768638611,-0.15917368233203888,0.04180682450532913,0.4029185473918915,-0.06123485043644905,Walking,3,2.21999999997206,0,0,0.8136230707168579,1.714188694953918,1.993595157682748
4045,Accelerometer,40.443616887236985,-79.9445220775796,289.81440353393555,234.00526428222656,15.661168098449707,0,98.07318115234375,-1.0,-1.0,N/A,0.0601654052734375,-0.9008026123046875,-0.1687469482421875,-0.2035009264945984,0.2878411114215851,0.23577524721622467,3.1053924560546875,-139.85665893554688,-319.39251708984375,0.030546754598617554,-0.06700754165649414,0.06252449750900269,1.409049554736772,0.15248309864265505,-0.19098637430272603,0.0244611743837595,-0.9869474768638611,-0.15917368233203888,0.04180682450532913,0.4029185473918915,-0.06123485043644905,Walking,3,2.21999999997206,0,0,0.8136230707168579,1.714188694953918,1.993595157682748
4070,COMPASS,40.443616887236985,-79.9445220775796,289.81440353393555,232.65464782714844,15.66220474243164,0,98.07318115234375,-1.0,-1.0,N/A,0.0601654052734375,-0.9008026123046875,-0.1687469482421875,-0.2035009264945984,0.2878411114215851,0.23577524721622467,3.1053924560546875,-139.85665893554688,-319.39251708984375,0.030546754598617554,-0.06700754165649414,0.06252449750900269,1.409049554736772,0.15248309864265505,-0.19098637430272603,0.0244611743837595,-0.9869474768638611,-0.15917368233203888,0.04180682450532913,0.4029185473918915,-0.06123485043644905,Walking,3,2.21999999997206,0,0,0.8136230707168579,1.714188694953918,1.993595157682748
4097,Altimeter,40.443616887236985,-79.9445220775796,289.81440353393555,232.65464782714844,15.66220474243164,0.021148681640625,98.07292175292969,-1.0,-1.0,N/A,0.0601654052734375,-0.9008026123046875,-0.1687469482421875,-0.2035009264945984,0.2878411114215851,0.23577524721622467,3.1053924560546875,-139.85665893554688,-319.39251708984375,0.030546754598617554,-0.06700754165649414,0.06252449750900269,1.409049554736772,0.15248309864265505,-0.19098637430272603,0.0244611743837595,-0.9869474768638611,-0.15917368233203888,0.04180682450532913,0.4029185473918915,-0.06123485043644905,Walking,3,2.21999999997206,0,0,0.8136230707168579,1.714188694953918,1.993595157682748
4126,Device Motion,40.443616887236985,-79.9445220775796,289.81440353393555,232.65464782714844,15.66220474243164,0.021148681640625,98.07292175292969,-1.0,-1.0,N/A,0.0601654052734375,-0.9008026123046875,-0.1687469482421875,-0.2035009264945984,0.2878411114215851,0.23577524721622467,3.1053924560546875,-139.85665893554688,-319.39251708984375,0.04775094985961914,0.15693926811218262,-0.008295595645904541,1.3716064506085281,-0.1080455490241996,0.13615072251918361,-0.021337982267141342,-0.9802272319793701,-0.19672152400016785,-0.31765612959861755,0.13341890275478363,0.08747497946023941,Walking,3,2.21999999997206,0,0,0.8136230707168579,1.714188694953918,1.993595157682748
4157,COMPASS,40.443616887236985,-79.9445220775796,289.81440353393555,231.52149963378906,15.663976669311523,0.021148681640625,98.07292175292969,-1.0,-1.0,N/A,0.0601654052734375,-0.9008026123046875,-0.1687469482421875,-0.2035009264945984,0.2878411114215851,0.23577524721622467,3.1053924560546875,-139.85665893554688,-319.39251708984375,0.04775094985961914,0.15693926811218262,-0.008295595645904541,1.3716064506085281,-0.1080455490241996,0.13615072251918361,-0.021337982267141342,-0.9802272319793701,-0.19672152400016785,-0.31765612959861755,0.13341890275478363,0.08747497946023941,Walking,3,2.21999999997206,0,0,0.8136230707168579,1.714188694953918,1.993595157682748
4202,Magnetometer,40.443616887236985,-79.9445220775796,289.81440353393555,231.52149963378906,15.663976669311523,0.021148681640625,98.07292175292969,-1.0,-1.0,N/A,0.0601654052734375,-0.9008026123046875,-0.1687469482421875,-0.2035009264945984,0.2878411114215851,0.23577524721622467,0.5325164794921875,-146.89810180664062,-321.04376220703125,0.04775094985961914,0.15693926811218262,-0.008295595645904541,1.3716064506085281,-0.1080455490241996,0.13615072251918361,-0.021337982267141342,-0.9802272319793701,-0.19672152400016785,-0.31765612959861755,0.13341890275478363,0.08747497946023941,Walking,3,2.21999999997206,0,0,0.8136230707168579,1.714188694953918,1.993595157682748
4232,Gyrometer,40.443616887236985,-79.9445220775796,289.81440353393555,231.52149963378906,15.663976669311523,0.021148681640625,98.07292175292969,-1.0,-1.0,N/A,0.0601654052734375,-0.9008026123046875,-0.1687469482421875,-0.051898352801799774,-0.11285704374313354,0.27743613719940186,0.5325164794921875,-146.89810180664062,-321.04376220703125,0.04775094985961914,0.15693926811218262,-0.008295595645904541,1.3716064506085281,-0.1080455490241996,0.13615072251918361,-0.021337982267141342,-0.9802272319793701,-0.19672152400016785,-0.31765612959861755,0.13341890275478363,0.08747497946023941,Walking,3,2.21999999997206,0,0,0.8136230707168579,1.714188694953918,1.993595157682748
4260,Accelerometer,40.443616887236985,-79.9445220775796,289.81440353393555,231.52149963378906,15.663976669311523,0.021148681640625,98.07292175292969,-1.0,-1.0,N/A,-0.0340728759765625,-1.0853729248046875,-0.167205810546875,-0.051898352801799774,-0.11285704374313354,0.27743613719940186,0.5325164794921875,-146.89810180664062,-321.04376220703125,0.04775094985961914,0.15693926811218262,-0.008295595645904541,1.3716064506085281,-0.1080455490241996,0.13615072251918361,-0.021337982267141342,-0.9802272319793701,-0.19672152400016785,-0.31765612959861755,0.13341890275478363,0.08747497946023941,Walking,3,2.21999999997206,0,0,0.8136230707168579,1.714188694953918,1.993595157682748
