Timestamp (ms),Triggering Sensor,Latitude,Longitude,Altitude,Heading (degrees),Heading accuracy (degrees),Relative Altitude (m),Pressure (kPa),Speed (m/s),Speed Accuracy (m/s),Floor,Acceleration - X axis,Acceleration - Y axis,Acceleration - Z axis,Gyrometer - X axis,Gyrometer - Y axis,Gyrometer - Z axis,Magnetometer - X axis,Magnetometer - Y axis,Magnetometer - Z axis,User acceleration - X axis,User acceleration - Y axis,User acceleration - Z axis,Attitude Pitch,Attitude Roll,Attitude Yaw,Gravity - X axis,Gravity - Y axis,Gravity - Z axis,Rotation Rate - X axis,Rotation Rate - Y axis,Rotation Rate - Z axis,Activity Type,Number of Steps,Distance,Floors Ascended,Floors Descended,Current Pace,Current Cadence,Average Active Pace
9,Gyrometer,,,,,,,,,,,,,,-0.024463264271616936,-0.04327130690217018,-0.04162494093179703,,,,,,,,,,,,,,,,,,,,,,,
34,GPS,40.44396372206805,-79.94450422453612,286.1642189025879,,,,,-1.0,-1.0,N/A,,,,-0.024463264271616936,-0.04327130690217018,-0.04162494093179703,,,,,,,,,,,,,,,,,,,,,,,
57,GPS,40.44396372206805,-79.94450422453612,286.1642189025879,,,,,-1.0,-1.0,N/A,,,,-0.024463264271616936,-0.04327130690217018,-0.04162494093179703,,,,,,,,,,,,,,,,,,,,,,,
78,COMPASS,40.44396372206805,-79.94450422453612,286.1642189025879,81.4759292602539,15.364645957946777,,,-1.0,-1.0,N/A,,,,-0.024463264271616936,-0.04327130690217018,-0.04162494093179703,,,,,,,,,,,,,,,,,,,,,,,
99,Magnetometer,40.44396372206805,-79.94450422453612,286.1642189025879,81.4759292602539,15.364645957946777,,,-1.0,-1.0,N/A,,,,-0.024463264271616936,-0.04327130690217018,-0.04162494093179703,-31.999786376953125,-103.07659912109375,-327.352783203125,,,,,,,,,,,,,,,,,,,,
121,Activity Manager,40.44396372206805,-79.94450422453612,286.1642189025879,81.4759292602539,15.364645957946777,,,-1.0,-1.0,N/A,,,,-0.024463264271616936,-0.04327130690217018,-0.04162494093179703,-31.999786376953125,-103.07659912109375,-327.352783203125,,,,,,,,,,,,,,,,,,,,
143,Accelerometer,40.44396372206805,-79.94450422453612,286.1642189025879,81.4759292602539,15.364645957946777,,,-1.0,-1.0,N/A,0.0046844482421875,-0.9532928466796875,-0.31292724609375,-0.024463264271616936,-0.04327130690217018,-0.04162494093179703,-31.999786376953125,-103.07659912109375,-327.352783203125,,,,,,,,,,,,,,,,,,,,
164,Device Motion,40.44396372206805,-79.94450422453612,286.1642189025879,81.4759292602539,15.364645957946777,,,-1.0,-1.0,N/A,0.0046844482421875,-0.9532928466796875,-0.31292724609375,-0.024463264271616936,-0.04327130690217018,-0.04162494093179703,-31.999786376953125,-103.07659912109375,-327.352783203125,0.013606250286102295,-0.01189512014389038,0.000440061092376709,1.262517051049851,0.026671744496666684,-0.019498753973902758,0.008091771975159645,-0.9528570771217346,-0.3033117353916168,-0.0323282815515995,-0.049277786165475845,-0.029714150354266167,,,,,,,,
185,GPS,40.44391469200374,-79.94448021907228,286.1763114929199,81.4759292602539,15.364645957946777,,,-1.0,-1.0,N/A,0.0046844482421875,-0.9532928466796875,-0.31292724609375,-0.024463264271616936,-0.04327130690217018,-0.04162494093179703,-31.999786376953125,-103.07659912109375,-327.352783203125,0.013606250286102295,-0.01189512014389038,0.000440061092376709,1.262517051049851,0.026671744496666684,-0.019498753973902758,0.008091771975159645,-0.9528570771217346,-0.3033117353916168,-0.0323282815515995,-0.049277786165475845,-0.029714150354266167,,,,,,,,
208,GPS,40.44391359600187,-79.94448055453611,286.1763725280762,81.4759292602539,15.364645957946777,,,-1.0,-1.0,N/A,0.0046844482421875,-0.9532928466796875,-0.31292724609375,-0.024463264271616936,-0.04327130690217018,-0.04162494093179703,-31.999786376953125,-103.07659912109375,-327.352783203125,0.013606250286102295,-0.01189512014389038,0.000440061092376709,1.262517051049851,0.026671744496666684,-0.019498753973902758,0.008091771975159645,-0.9528570771217346,-0.3033117353916168,-0.0323282815515995,-0.049277786165475845,-0.029714150354266167,,,,,,,,
303,Gyrometer,40.44391359600187,-79.94448055453611,286.1763725280762,81.4759292602539,15.364645957946777,,,-1.0,-1.0,N/A,0.0046844482421875,-0.9532928466796875,-0.31292724609375,-0.017914285883307457,0.005922337528318167,-0.022010227665305138,-31.999786376953125,-103.07659912109375,-327.352783203125,0.013606250286102295,-0.01189512014389038,0.000440061092376709,1.262517051049851,0.026671744496666684,-0.019498753973902758,0.008091771975159645,-0.9528570771217346,-0.3033117353916168,-0.0323282815515995,-0.049277786165475845,-0.029714150354266167,,,,,,,,
327,Magnetometer,40.44391359600187,-79.94448055453611,286.1763725280762,81.4759292602539,15.364645957946777,,,-1.0,-1.0,N/A,0.0046844482421875,-0.9532928466796875,-0.31292724609375,-0.017914285883307457,0.005922337528318167,-0.022010227665305138,-32.01203918457031,-103.14688110351562,-326.97503662109375,0.013606250286102295,-0.01189512014389038,0.000440061092376709,1.262517051049851,0.026671744496666684,-0.019498753973902758,0.008091771975159645,-0.9528570771217346,-0.3033117353916168,-0.0323282815515995,-0.049277786165475845,-0.029714150354266167,,,,,,,,
350,Accelerometer,40.44391359600187,-79.94448055453611,286.1763725280762,81.4759292602539,15.364645957946777,,,-1.0,-1.0,N/A,0.0205230712890625,-0.9518890380859375,-0.2919464111328125,-0.017914285883307457,0.005922337528318167,-0.022010227665305138,-32.01203918457031,-103.14688110351562,-326.97503662109375,0.013606250286102295,-0.01189512014389038,0.000440061092376709,1.262517051049851,0.026671744496666684,-0.019498753973902758,0.008091771975159645,-0.9528570771217346,-0.3033117353916168,-0.0323282815515995,-0.049277786165475845,-0.029714150354266167,,,,,,,,
394,Device Motion,40.44391359600187,-79.94448055453611,286.1763725280762,81.4759292602539,15.364645957946777,,,-1.0,-1.0,N/A,0.0205230712890625,-0.9518890380859375,-0.2919464111328125,-0.017914285883307457,0.005922337528318167,-0.022010227665305138,-32.01203918457031,-103.14688110351562,-326.97503662109375,0.00603368878364563,-0.0044023990631103516,0.01383662223815918,1.2574799305006472,0.018396622300621134,-0.021585248591047625,0.005669804755598307,-0.9513166546821594,-0.3081633746623993,0.010394870303571224,0.006424835417419672,-0.030449729412794113,,,,,,,,
564,COMPASS,40.44391359600187,-79.94448055453611,286.1763725280762,82.53256225585938,15.359758377075195,,,-1.0,-1.0,N/A,0.0205230712890625,-0.9518890380859375,-0.2919464111328125,-0.017914285883307457,0.005922337528318167,-0.022010227665305138,-32.01203918457031,-103.14688110351562,-326.97503662109375,0.00603368878364563,-0.0044023990631103516,0.01383662223815918,1.2574799305006472,0.018396622300621134,-0.021585248591047625,0.005669804755598307,-0.9513166546821594,-0.3081633746623993,0.010394870303571224,0.006424835417419672,-0.030449729412794113,,,,,,,,
599,GPS,40.443986185809806,-79.94450636203635,286.10628509521484,82.53256225585938,15.359758377075195,,,-1.0,-1.0,N/A,0.0205230712890625,-0.9518890380859375,-0.2919464111328125,-0.017914285883307457,0.005922337528318167,-0.022010227665305138,-32.01203918457031,-103.14688110351562,-326.97503662109375,0.00603368878364563,-0.0044023990631103516,0.01383662223815918,1.2574799305006472,0.018396622300621134,-0.021585248591047625,0.005669804755598307,-0.9513166546821594,-0.3081633746623993,0.010394870303571224,0.006424835417419672,-0.030449729412794113,,,,,,,,
620,Gyrometer,40.443986185809806,-79.94450636203635,286.10628509521484,82.53256225585938,15.359758377075195,,,-1.0,-1.0,N/A,0.0205230712890625,-0.9518890380859375,-0.2919464111328125,-0.046667635440826416,0.018228804692626,-0.025427861139178276,-32.01203918457031,-103.14688110351562,-326.97503662109375,0.00603368878364563,-0.0044023990631103516,0.01383662223815918,1.2574799305006472,0.018396622300621134,-0.021585248591047625,0.005669804755598307,-0.9513166546821594,-0.3081633746623993,0.010394870303571224,0.006424835417419672,-0.030449729412794113,,,,,,,,
646,Magnetometer,40.443986185809806,-79.94450636203635,286.10628509521484,82.53256225585938,15.359758377075195,,,-1.0,-1.0,N/A,0.0205230712890625,-0.9518890380859375,-0.2919464111328125,-0.046667635440826416,0.018228804692626,-0.025427861139178276,-32.43894958496094,-103.01771545410156,-326.63360595703125,0.00603368878364563,-0.0044023990631103516,0.01383662223815918,1.2574799305006472,0.018396622300621134,-0.021585248591047625,0.005669804755598307,-0.9513166546821594,-0.3081633746623993,0.010394870303571224,0.006424835417419672,-0.030449729412794113,,,,,,,,
670,Accelerometer,40.443986185809806,-79.94450636203635,286.10628509521484,82.53256225585938,15.359758377075195,,,-1.0,-1.0,N/A,0.0286407470703125,-0.9592437744140625,-0.299072265625,-0.046667635440826416,0.018228804692626,-0.025427861139178276,-32.43894958496094,-103.01771545410156,-326.63360595703125,0.00603368878364563,-0.0044023990631103516,0.01383662223815918,1.2574799305006472,0.018396622300621134,-0.021585248591047625,0.005669804755598307,-0.9513166546821594,-0.3081633746623993,0.010394870303571224,0.006424835417419672,-0.030449729412794113,,,,,,,,
696,Device Motion,40.443986185809806,-79.94450636203635,286.10628509521484,82.53256225585938,15.359758377075195,,,-1.0,-1.0,N/A,0.0286407470703125,-0.9592437744140625,-0.299072265625,-0.046667635440826416,0.018228804692626,-0.025427861139178276,-32.43894958496094,-103.01771545410156,-326.63360595703125,0.0050983726978302,0.012517571449279785,0.027678489685058594,1.2578696464807908,0.034449313586158464,-0.04617585454670271,0.010602938942611217,-0.9514366984367371,-0.3076619803905487,-0.014647269621491432,-0.016686588525772095,-0.04498119652271271,,,,,,,,
824,COMPASS,40.443986185809806,-79.94450636203635,286.10628509521484,83.6440200805664,15.358870506286621,,,-1.0,-1.0,N/A,0.0286407470703125,-0.9592437744140625,-0.299072265625,-0.046667635440826416,0.018228804692626,-0.025427861139178276,-32.43894958496094,-103.01771545410156,-326.63360595703125,0.0050983726978302,0.012517571449279785,0.027678489685058594,1.2578696464807908,0.034449313586158464,-0.04617585454670271,0.010602938942611217,-0.9514366984367371,-0.3076619803905487,-0.014647269621491432,-0.016686588525772095,-0.04498119652271271,,,,,,,,
904,Gyrometer,40.443986185809806,-79.94450636203635,286.10628509521484,83.6440200805664,15.358870506286621,,,-1.0,-1.0,N/A,0.0286407470703125,-0.9592437744140625,-0.299072265625,-0.08083253353834152,-0.004857872147113085,-0.030596790835261345,-32.43894958496094,-103.01771545410156,-326.63360595703125,0.0050983726978302,0.012517571449279785,0.027678489685058594,1.2578696464807908,0.034449313586158464,-0.04617585454670271,0.010602938942611217,-0.9514366984367371,-0.3076619803905487,-0.014647269621491432,-0.016686588525772095,-0.04498119652271271,,,,,,,,
929,Magnetometer,40.443986185809806,-79.94450636203635,286.10628509521484,83.6440200805664,15.358870506286621,,,-1.0,-1.0,N/A,0.0286407470703125,-0.9592437744140625,-0.299072265625,-0.08083253353834152,-0.004857872147113085,-0.030596790835261345,-32.9356689453125,-102.86337280273438,-326.28662109375,0.0050983726978302,0.012517571449279785,0.027678489685058594,1.2578696464807908,0.034449313586158464,-0.04617585454670271,0.010602938942611217,-0.9514366984367371,-0.3076619803905487,-0.014647269621491432,-0.016686588525772095,-0.04498119652271271,,,,,,,,
955,Accelerometer,40.443986185809806,-79.94450636203635,286.10628509521484,83.6440200805664,15.358870506286621,,,-1.0,-1.0,N/A,-0.0082244873046875,-0.96209716796875,-0.255706787109375,-0.08083253353834152,-0.004857872147113085,-0.030596790835261345,-32.9356689453125,-102.86337280273438,-326.28662109375,0.0050983726978302,0.012517571449279785,0.027678489685058594,1.2578696464807908,0.034449313586158464,-0.04617585454670271,0.010602938942611217,-0.9514366984367371,-0.3076619803905487,-0.014647269621491432,-0.016686588525772095,-0.04498119652271271,,,,,,,,
992,Device Motion,40.443986185809806,-79.94450636203635,286.10628509521484,83.6440200805664,15.358870506286621,,,-1.0,-1.0,N/A,-0.0082244873046875,-0.96209716796875,-0.255706787109375,-0.08083253353834152,-0.004857872147113085,-0.030596790835261345,-32.9356689453125,-102.86337280273438,-326.28662109375,-0.02963918447494507,-0.004728794097900391,0.07756569981575012,1.245741606532714,0.046143978339911275,-0.07817343924976898,0.014731340110301971,-0.9476332664489746,-0.31902068853378296,-0.09946229308843613,-0.0432705283164978,-0.035043079406023026,,,,,,,,
1046,Altimeter,40.443986185809806,-79.94450636203635,286.10628509521484,83.6440200805664,15.358870506286621,0,98.12809753417969,-1.0,-1.0,N/A,-0.0082244873046875,-0.96209716796875,-0.255706787109375,-0.08083253353834152,-0.004857872147113085,-0.030596790835261345,-32.9356689453125,-102.86337280273438,-326.28662109375,-0.02963918447494507,-0.004728794097900391,0.07756569981575012,1.245741606532714,0.046143978339911275,-0.07817343924976898,0.014731340110301971,-0.9476332664489746,-0.31902068853378296,-0.09946229308843613,-0.0432705283164978,-0.035043079406023026,,,,,,,,
1205,Gyrometer,40.443986185809806,-79.94450636203635,286.10628509521484,83.6440200805664,15.358870506286621,0,98.12809753417969,-1.0,-1.0,N/A,-0.0082244873046875,-0.96209716796875,-0.255706787109375,0.02275431528687477,-0.020924190059304237,0.033135317265987396,-32.9356689453125,-102.86337280273438,-326.28662109375,-0.02963918447494507,-0.004728794097900391,0.07756569981575012,1.245741606532714,0.046143978339911275,-0.07817343924976898,0.014731340110301971,-0.9476332664489746,-0.31902068853378296,-0.09946229308843613,-0.0432705283164978,-0.035043079406023026,,,,,,,,
1233,Magnetometer,40.443986185809806,-79.94450636203635,286.10628509521484,83.6440200805664,15.358870506286621,0,98.12809753417969,-1.0,-1.0,N/A,-0.0082244873046875,-0.96209716796875,-0.255706787109375,0.02275431528687477,-0.020924190059304237,0.033135317265987396,-33.21440124511719,-103.0997314453125,-324.11004638671875,-0.02963918447494507,-0.004728794097900391,0.07756569981575012,1.245741606532714,0.046143978339911275,-0.07817343924976898,0.014731340110301971,-0.9476332664489746,-0.31902068853378296,-0.09946229308843613,-0.0432705283164978,-0.035043079406023026,,,,,,,,
1259,Accelerometer,40.443986185809806,-79.94450636203635,286.10628509521484,83.6440200805664,15.358870506286621,0,98.12809753417969,-1.0,-1.0,N/A,-0.04248046875,-0.9874420166015625,-0.2554473876953125,0.02275431528687477,-0.020924190059304237,0.033135317265987396,-33.21440124511719,-103.0997314453125,-324.11004638671875,-0.02963918447494507,-0.004728794097900391,0.07756569981575012,1.245741606532714,0.046143978339911275,-0.07817343924976898,0.014731340110301971,-0.9476332664489746,-0.31902068853378296,-0.09946229308843613,-0.0432705283164978,-0.035043079406023026,,,,,,,,
1291,Device Motion,40.443986185809806,-79.94450636203635,286.10628509521484,83.6440200805664,15.358870506286621,0,98.12809753417969,-1.0,-1.0,N/A,-0.04248046875,-0.9874420166015625,-0.2554473876953125,0.02275431528687477,-0.020924190059304237,0.033135317265987396,-33.21440124511719,-103.0997314453125,-324.11004638671875,-0.03221815824508667,-0.07225281000137329,0.058666765689849854,1.2370501162686238,0.00868483905423028,-0.046966218950262234,0.0028449848759919405,-0.9448217749595642,-0.32757237553596497,-0.047466542571783066,0.019716106355190277,0.024449262768030167,,,,,,,,
1481,COMPASS,40.443986185809806,-79.94450636203635,286.10628509521484,82.62239074707031,15.359535217285156,0,98.12809753417969,-1.0,-1.0,N/A,-0.04248046875,-0.9874420166015625,-0.2554473876953125,0.02275431528687477,-0.020924190059304237,0.033135317265987396,-33.21440124511719,-103.0997314453125,-324.11004638671875,-0.03221815824508667,-0.07225281000137329,0.058666765689849854,1.2370501162686238,0.00868483905423028,-0.046966218950262234,0.0028449848759919405,-0.9448217749595642,-0.32757237553596497,-0.047466542571783066,0.019716106355190277,0.024449262768030167,,,,,,,,
1508,Magnetometer,40.443986185809806,-79.94450636203635,286.10628509521484,82.62239074707031,15.359535217285156,0,98.12809753417969,-1.0,-1.0,N/A,-0.04248046875,-0.9874420166015625,-0.2554473876953125,0.02275431528687477,-0.020924190059304237,0.033135317265987396,-32.76341247558594,-103.69976806640625,-321.15576171875,-0.03221815824508667,-0.07225281000137329,0.058666765689849854,1.2370501162686238,0.00868483905423028,-0.046966218950262234,0.0028449848759919405,-0.9448217749595642,-0.32757237553596497,-0.047466542571783066,0.019716106355190277,0.024449262768030167,,,,,,,,
1533,Gyrometer,40.443986185809806,-79.94450636203635,286.10628509521484,82.62239074707031,15.359535217285156,0,98.12809753417969,-1.0,-1.0,N/A,-0.04248046875,-0.9874420166015625,-0.2554473876953125,0.05516178905963898,0.12596751749515533,0.23284682631492615,-32.76341247558594,-103.69976806640625,-321.15576171875,-0.03221815824508667,-0.07225281000137329,0.058666765689849854,1.2370501162686238,0.00868483905423028,-0.046966218950262234,0.0028449848759919405,-0.9448217749595642,-0.32757237553596497,-0.047466542571783066,0.019716106355190277,0.024449262768030167,,,,,,,,
1557,Accelerometer,40.443986185809806,-79.94450636203635,286.10628509521484,82.62239074707031,15.359535217285156,0,98.12809753417969,-1.0,-1.0,N/A,0.010467529296875,-0.930206298828125,-0.32049560546875,0.05516178905963898,0.12596751749515533,0.23284682631492615,-32.76341247558594,-103.69976806640625,-321.15576171875,-0.03221815824508667,-0.07225281000137329,0.058666765689849854,1.2370501162686238,0.00868483905423028,-0.046966218950262234,0.0028449848759919405,-0.9448217749595642,-0.32757237553596497,-0.047466542571783066,0.019716106355190277,0.024449262768030167,,,,,,,,
1582,COMPASS,40.443986185809806,-79.94450636203635,286.10628509521484,81.45436096191406,15.360334396362305,0,98.12809753417969,-1.0,-1.0,N/A,0.010467529296875,-0.930206298828125,-0.32049560546875,0.05516178905963898,0.12596751749515533,0.23284682631492615,-32.76341247558594,-103.69976806640625,-321.15576171875,-0.03221815824508667,-0.07225281000137329,0.058666765689849854,1.2370501162686238,0.00868483905423028,-0.046966218950262234,0.0028449848759919405,-0.9448217749595642,-0.32757237553596497,-0.047466542571783066,0.019716106355190277,0.024449262768030167,,,,,,,,
1606,Device Motion,40.443986185809806,-79.94450636203635,286.10628509521484,81.45436096191406,15.360334396362305,0,98.12809753417969,-1.0,-1.0,N/A,0.010467529296875,-0.930206298828125,-0.32049560546875,0.05516178905963898,0.12596751749515533,0.23284682631492615,-32.76341247558594,-103.69976806640625,-321.15576171875,-0.0008230190724134445,0.0654265284538269,-0.04399248957633972,1.2659731136618162,-0.0727708385712009,0.06313815112641907,-0.021821044385433197,-0.9539000391960144,-0.2993302345275879,0.10051032900810242,0.11134175956249237,0.12710882723331451,,,,,,,,
1661,COMPASS,40.443986185809806,-79.94450636203635,286.10628509521484,80.25053405761719,15.361233711242676,0,98.12809753417969,-1.0,-1.0,N/A,0.010467529296875,-0.930206298828125,-0.32049560546875,0.05516178905963898,0.12596751749515533,0.23284682631492615,-32.76341247558594,-103.69976806640625,-321.15576171875,-0.0008230190724134445,0.0654265284538269,-0.04399248957633972,1.2659731136618162,-0.0727708385712009,0.06313815112641907,-0.021821044385433197,-0.9539000391960144,-0.2993302345275879,0.10051032900810242,0.11134175956249237,0.12710882723331451,,,,,,,,
1741,COMPASS,40.443986185809806,-79.94450636203635,286.10628509521484,79.18707275390625,15.361969947814941,0,98.12809753417969,-1.0,-1.0,N/A,0.010467529296875,-0.930206298828125,-0.32049560546875,0.05516178905963898,0.12596751749515533,0.23284682631492615,-32.76341247558594,-103.69976806640625,-321.15576171875,-0.0008230190724134445,0.0654265284538269,-0.04399248957633972,1.2659731136618162,-0.0727708385712009,0.06313815112641907,-0.021821044385433197,-0.9539000391960144,-0.2993302345275879,0.10051032900810242,0.11134175956249237,0.12710882723331451,,,,,,,,
1804,Magnetometer,40.443986185809806,-79.94450636203635,286.10628509521484,79.18707275390625,15.361969947814941,0,98.12809753417969,-1.0,-1.0,N/A,0.010467529296875,-0.930206298828125,-0.32049560546875,0.05516178905963898,0.12596751749515533,0.23284682631492615,-33.24018859863281,-103.83692932128906,-319.50775146484375,-0.0008230190724134445,0.0654265284538269,-0.04399248957633972,1.2659731136618162,-0.0727708385712009,0.06313815112641907,-0.021821044385433197,-0.9539000391960144,-0.2993302345275879,0.10051032900810242,0.11134175956249237,0.12710882723331451,,,,,,,,
1831,Gyrometer,40.443986185809806,-79.94450636203635,286.10628509521484,79.18707275390625,15.361969947814941,0,98.12809753417969,-1.0,-1.0,N/A,0.010467529296875,-0.930206298828125,-0.32049560546875,-0.21569234132766724,0.07303932309150696,0.09686555713415146,-33.24018859863281,-103.83692932128906,-319.50775146484375,-0.0008230190724134445,0.0654265284538269,-0.04399248957633972,1.2659731136618162,-0.0727708385712009,0.06313815112641907,-0.021821044385433197,-0.9539000391960144,-0.2993302345275879,0.10051032900810242,0.11134175956249237,0.12710882723331451,,,,,,,,
1857,Accelerometer,40.443986185809806,-79.94450636203635,286.10628509521484,79.18707275390625,15.361969947814941,0,98.12809753417969,-1.0,-1.0,N/A,-0.001617431640625,-0.916717529296875,-0.29119873046875,-0.21569234132766724,0.07303932309150696,0.09686555713415146,-33.24018859863281,-103.83692932128906,-319.50775146484375,-0.0008230190724134445,0.0654265284538269,-0.04399248957633972,1.2659731136618162,-0.0727708385712009,0.06313815112641907,-0.021821044385433197,-0.9539000391960144,-0.2993302345275879,0.10051032900810242,0.11134175956249237,0.12710882723331451,,,,,,,,
1882,COMPASS,40.443986185809806,-79.94450636203635,286.10628509521484,77.96659088134766,15.363187789916992,0,98.12809753417969,-1.0,-1.0,N/A,-0.001617431640625,-0.916717529296875,-0.29119873046875,-0.21569234132766724,0.07303932309150696,0.09686555713415146,-33.24018859863281,-103.83692932128906,-319.50775146484375,-0.0008230190724134445,0.0654265284538269,-0.04399248957633972,1.2659731136618162,-0.0727708385712009,0.06313815112641907,-0.021821044385433197,-0.9539000391960144,-0.2993302345275879,0.10051032900810242,0.11134175956249237,0.12710882723331451,,,,,,,,
1906,Device Motion,40.443986185809806,-79.94450636203635,286.10628509521484,77.96659088134766,15.363187789916992,0,98.12809753417969,-1.0,-1.0,N/A,-0.001617431640625,-0.916717529296875,-0.29119873046875,-0.21569234132766724,0.07303932309150696,0.09686555713415146,-33.24018859863281,-103.83692932128906,-319.50775146484375,0.045217365026474,0.02144324779510498,0.0029790401458740234,1.2392681523826452,-0.08770065876143279,0.13032693020461963,-0.028508976101875305,-0.94554603099823,-0.32423755526542664,-0.11013905704021454,0.027722764760255814,0.022720908746123314,,,,,,,,
2043,Altimeter,40.443986185809806,-79.94450636203635,286.10628509521484,77.96659088134766,15.363187789916992,0,98.12809753417969,-1.0,-1.0,N/A,-0.001617431640625,-0.916717529296875,-0.29119873046875,-0.21569234132766724,0.07303932309150696,0.09686555713415146,-33.24018859863281,-103.83692932128906,-319.50775146484375,0.045217365026474,0.02144324779510498,0.0029790401458740234,1.2392681523826452,-0.08770065876143279,0.13032693020461963,-0.028508976101875305,-0.94554603099823,-0.32423755526542664,-0.11013905704021454,0.027722764760255814,0.022720908746123314,,,,,,,,
2080,COMPASS,40.443986185809806,-79.94450636203635,286.10628509521484,79.00643920898438,15.364500045776367,0,98.12809753417969,-1.0,-1.0,N/A,-0.001617431640625,-0.916717529296875,-0.29119873046875,-0.21569234132766724,0.07303932309150696,0.09686555713415146,-33.24018859863281,-103.83692932128906,-319.50775146484375,0.045217365026474,0.02144324779510498,0.0029790401458740234,1.2392681523826452,-0.08770065876143279,0.13032693020461963,-0.028508976101875305,-0.94554603099823,-0.32423755526542664,-0.11013905704021454,0.027722764760255814,0.022720908746123314,,,,,,,,
2107,Magnetometer,40.443986185809806,-79.94450636203635,286.10628509521484,79.00643920898438,15.364500045776367,0,98.12809753417969,-1.0,-1.0,N/A,-0.001617431640625,-0.916717529296875,-0.29119873046875,-0.21569234132766724,0.07303932309150696,0.09686555713415146,-32.313262939453125,-103.84773254394531,-317.0782470703125,0.045217365026474,0.02144324779510498,0.0029790401458740234,1.2392681523826452,-0.08770065876143279,0.13032693020461963,-0.028508976101875305,-0.94554603099823,-0.32423755526542664,-0.11013905704021454,0.027722764760255814,0.022720908746123314,,,,,,,,
2131,Gyrometer,40.443986185809806,-79.94450636203635,286.10628509521484,79.00643920898438,15.364500045776367,0,98.12809753417969,-1.0,-1.0,N/A,-0.001617431640625,-0.916717529296875,-0.29119873046875,0.06864670664072037,-0.13974085450172424,-0.14218483865261078,-32.313262939453125,-103.84773254394531,-317.0782470703125,0.045217365026474,0.02144324779510498,0.0029790401458740234,1.2392681523826452,-0.08770065876143279,0.13032693020461963,-0.028508976101875305,-0.94554603099823,-0.32423755526542664,-0.11013905704021454,0.027722764760255814,0.022720908746123314,,,,,,,,
2152,Accelerometer,40.443986185809806,-79.94450636203635,286.10628509521484,79.00643920898438,15.364500045776367,0,98.12809753417969,-1.0,-1.0,N/A,0.00830078125,-1.054656982421875,-0.3166351318359375,0.06864670664072037,-0.13974085450172424,-0.14218483865261078,-32.313262939453125,-103.84773254394531,-317.0782470703125,0.045217365026474,0.02144324779510498,0.0029790401458740234,1.2392681523826452,-0.08770065876143279,0.13032693020461963,-0.028508976101875305,-0.94554603099823,-0.32423755526542664,-0.11013905704021454,0.027722764760255814,0.022720908746123314,,,,,,,,
2176,COMPASS,40.443986185809806,-79.94450636203635,286.10628509521484,80.28778839111328,15.365017890930176,0,98.12809753417969,-1.0,-1.0,N/A,0.00830078125,-1.054656982421875,-0.3166351318359375,0.06864670664072037,-0.13974085450172424,-0.14218483865261078,-32.313262939453125,-103.84773254394531,-317.0782470703125,0.045217365026474,0.02144324779510498,0.0029790401458740234,1.2392681523826452,-0.08770065876143279,0.13032693020461963,-0.028508976101875305,-0.94554603099823,-0.32423755526542664,-0.11013905704021454,0.027722764760255814,0.022720908746123314,,,,,,,,
2201,Device Motion,40.443986185809806,-79.94450636203635,286.10628509521484,80.28778839111328,15.365017890930176,0,98.12809753417969,-1.0,-1.0,N/A,0.00830078125,-1.054656982421875,-0.3166351318359375,0.06864670664072037,-0.13974085450172424,-0.14218483865261078,-32.313262939453125,-103.84773254394531,-317.0782470703125,0.05292654037475586,-0.10582327842712402,-0.05816680192947388,1.2493285175523094,-0.03509688174951704,0.04017616604919083,-0.011086922138929367,-0.948772668838501,-0.31576505303382874,0.016883496195077896,-0.2224033623933792,-0.1405816525220871,,,,,,,,
2229,COMPASS,40.443986185809806,-79.94450636203635,286.10628509521484,81.32273864746094,15.365601539611816,0,98.12809753417969,-1.0,-1.0,N/A,0.00830078125,-1.054656982421875,-0.3166351318359375,0.06864670664072037,-0.13974085450172424,-0.14218483865261078,-32.313262939453125,-103.84773254394531,-317.0782470703125,0.05292654037475586,-0.10582327842712402,-0.05816680192947388,1.2493285175523094,-0.03509688174951704,0.04017616604919083,-0.011086922138929367,-0.948772668838501,-0.31576505303382874,0.016883496195077896,-0.2224033623933792,-0.1405816525220871,,,,,,,,
2299,COMPASS,40.443986185809806,-79.94450636203635,286.10628509521484,82.55500030517578,15.366397857666016,0,98.12809753417969,-1.0,-1.0,N/A,0.00830078125,-1.054656982421875,-0.3166351318359375,0.06864670664072037,-0.13974085450172424,-0.14218483865261078,-32.313262939453125,-103.84773254394531,-317.0782470703125,0.05292654037475586,-0.10582327842712402,-0.05816680192947388,1.2493285175523094,-0.03509688174951704,0.04017616604919083,-0.011086922138929367,-0.948772668838501,-0.31576505303382874,0.016883496195077896,-0.2224033623933792,-0.1405816525220871,,,,,,,,
2379,COMPASS,40.443986185809806,-79.94450636203635,286.10628509521484,83.91020965576172,15.367186546325684,0,98.12809753417969,-1.0,-1.0,N/A,0.00830078125,-1.054656982421875,-0.3166351318359375,0.06864670664072037,-0.13974085450172424,-0.14218483865261078,-32.313262939453125,-103.84773254394531,-317.0782470703125,0.05292654037475586,-0.10582327842712402,-0.05816680192947388,1.2493285175523094,-0.03509688174951704,0.04017616604919083,-0.011086922138929367,-0.948772668838501,-0.31576505303382874,0.016883496195077896,-0.2224033623933792,-0.1405816525220871,,,,,,,,
2407,Magnetometer,40.443986185809806,-79.94450636203635,286.10628509521484,83.91020965576172,15.367186546325684,0,98.12809753417969,-1.0,-1.0,N/A,0.00830078125,-1.054656982421875,-0.3166351318359375,0.06864670664072037,-0.13974085450172424,-0.14218483865261078,-30.17401123046875,-104.00694274902344,-314.9090270996094,0.05292654037475586,-0.10582327842712402,-0.05816680192947388,1.2493285175523094,-0.03509688174951704,0.04017616604919083,-0.011086922138929367,-0.948772668838501,-0.31576505303382874,0.016883496195077896,-0.2224033623933792,-0.1405816525220871,,,,,,,,
2433,Gyrometer,40.443986185809806,-79.94450636203635,286.10628509521484,83.91020965576172,15.367186546325684,0,98.12809753417969,-1.0,-1.0,N/A,0.00830078125,-1.054656982421875,-0.3166351318359375,0.10204487293958664,-0.2189003825187683,-0.15399116277694702,-30.17401123046875,-104.00694274902344,-314.9090270996094,0.05292654037475586,-0.10582327842712402,-0.05816680192947388,1.2493285175523094,-0.03509688174951704,0.04017616604919083,-0.011086922138929367,-0.948772668838501,-0.31576505303382874,0.016883496195077896,-0.2224033623933792,-0.1405816525220871,,,,,,,,
2465,COMPASS,40.443986185809806,-79.94450636203635,286.10628509521484,84.9691390991211,15.367980003356934,0,98.12809753417969,-1.0,-1.0,N/A,0.00830078125,-1.054656982421875,-0.3166351318359375,0.10204487293958664,-0.2189003825187683,-0.15399116277694702,-30.17401123046875,-104.00694274902344,-314.9090270996094,0.05292654037475586,-0.10582327842712402,-0.05816680192947388,1.2493285175523094,-0.03509688174951704,0.04017616604919083,-0.011086922138929367,-0.948772668838501,-0.31576505303382874,0.016883496195077896,-0.2224033623933792,-0.1405816525220871,,,,,,,,
2492,Accelerometer,40.443986185809806,-79.94450636203635,286.10628509521484,84.9691390991211,15.367980003356934,0,98.12809753417969,-1.0,-1.0,N/A,-0.0734405517578125,-0.899383544921875,-0.2891998291015625,0.10204487293958664,-0.2189003825187683,-0.15399116277694702,-30.17401123046875,-104.00694274902344,-314.9090270996094,0.05292654037475586,-0.10582327842712402,-0.05816680192947388,1.2493285175523094,-0.03509688174951704,0.04017616604919083,-0.011086922138929367,-0.948772668838501,-0.31576505303382874,0.016883496195077896,-0.2224033623933792,-0.1405816525220871,,,,,,,,
2518,Device Motion,40.443986185809806,-79.94450636203635,286.10628509521484,84.9691390991211,15.367980003356934,0,98.12809753417969,-1.0,-1.0,N/A,-0.0734405517578125,-0.899383544921875,-0.2891998291015625,0.10204487293958664,-0.2189003825187683,-0.15399116277694702,-30.17401123046875,-104.00694274902344,-314.9090270996094,-0.06955564022064209,0.0867389440536499,-0.04642671346664429,1.2866734692111506,0.10511004040668602,-0.13901322496251997,0.02940976619720459,-0.9599078893661499,-0.2787685990333557,-0.2741614580154419,-0.09361135959625244,-0.04607166349887848,,,,,,,,
2578,COMPASS,40.443986185809806,-79.94450636203635,286.10628509521484,86.07371520996094,15.369158744812012,0,98.12809753417969,-1.0,-1.0,N/A,-0.0734405517578125,-0.899383544921875,-0.2891998291015625,0.10204487293958664,-0.2189003825187683,-0.15399116277694702,-30.17401123046875,-104.00694274902344,-314.9090270996094,-0.06955564022064209,0.0867389440536499,-0.04642671346664429,1.2866734692111506,0.10511004040668602,-0.13901322496251997,0.02940976619720459,-0.9599078893661499,-0.2787685990333557,-0.2741614580154419,-0.09361135959625244,-0.04607166349887848,,,,,,,,
2703,Magnetometer,40.443986185809806,-79.94450636203635,286.10628509521484,86.07371520996094,15.369158744812012,0,98.12809753417969,-1.0,-1.0,N/A,-0.0734405517578125,-0.899383544921875,-0.2891998291015625,0.10204487293958664,-0.2189003825187683,-0.15399116277694702,-27.506820678710938,-102.75924682617188,-312.48516845703125,-0.06955564022064209,0.0867389440536499,-0.04642671346664429,1.2866734692111506,0.10511004040668602,-0.13901322496251997,0.02940976619720459,-0.9599078893661499,-0.2787685990333557,-0.2741614580154419,-0.09361135959625244,-0.04607166349887848,,,,,,,,
2729,Gyrometer,40.443986185809806,-79.94450636203635,286.10628509521484,86.07371520996094,15.369158744812012,0,98.12809753417969,-1.0,-1.0,N/A,-0.0734405517578125,-0.899383544921875,-0.2891998291015625,0.06578407436609268,0.07131253182888031,0.11180403083562851,-27.506820678710938,-102.75924682617188,-312.48516845703125,-0.06955564022064209,0.0867389440536499,-0.04642671346664429,1.2866734692111506,0.10511004040668602,-0.13901322496251997,0.02940976619720459,-0.9599078893661499,-0.2787685990333557,-0.2741614580154419,-0.09361135959625244,-0.04607166349887848,,,,,,,,
2756,Accelerometer,40.443986185809806,-79.94450636203635,286.10628509521484,86.07371520996094,15.369158744812012,0,98.12809753417969,-1.0,-1.0,N/A,-0.0400848388671875,-0.9675750732421875,-0.2599945068359375,0.06578407436609268,0.07131253182888031,0.11180403083562851,-27.506820678710938,-102.75924682617188,-312.48516845703125,-0.06955564022064209,0.0867389440536499,-0.04642671346664429,1.2866734692111506,0.10511004040668602,-0.13901322496251997,0.02940976619720459,-0.9599078893661499,-0.2787685990333557,-0.2741614580154419,-0.09361135959625244,-0.04607166349887848,,,,,,,,
2787,Device Motion,40.443986185809806,-79.94450636203635,286.10628509521484,86.07371520996094,15.369158744812012,0,98.12809753417969,-1.0,-1.0,N/A,-0.0400848388671875,-0.9675750732421875,-0.2599945068359375,0.06578407436609268,0.07131253182888031,0.11180403083562851,-27.506820678710938,-102.75924682617188,-312.48516845703125,-0.06490948796272278,-0.03006720542907715,0.04329991340637207,1.2813861763985712,0.07121987168260122,-0.1282649566502035,0.02030804008245468,-0.9584123492240906,-0.2846634089946747,0.13169792294502258,0.16190247237682343,0.17138689756393433,,,,,,,,
2838,COMPASS,40.443986185809806,-79.94450636203635,286.10628509521484,84.99683380126953,15.371256828308105,0,98.12809753417969,-1.0,-1.0,N/A,-0.0400848388671875,-0.9675750732421875,-0.2599945068359375,0.06578407436609268,0.07131253182888031,0.11180403083562851,-27.506820678710938,-102.75924682617188,-312.48516845703125,-0.06490948796272278,-0.03006720542907715,0.04329991340637207,1.2813861763985712,0.07121987168260122,-0.1282649566502035,0.02030804008245468,-0.9584123492240906,-0.2846634089946747,0.13169792294502258,0.16190247237682343,0.17138689756393433,,,,,,,,
3002,Magnetometer,40.443986185809806,-79.94450636203635,286.10628509521484,84.99683380126953,15.371256828308105,0,98.12809753417969,-1.0,-1.0,N/A,-0.0400848388671875,-0.9675750732421875,-0.2599945068359375,0.06578407436609268,0.07131253182888031,0.11180403083562851,-24.729217529296875,-102.1739501953125,-307.19061279296875,-0.06490948796272278,-0.03006720542907715,0.04329991340637207,1.2813861763985712,0.07121987168260122,-0.1282649566502035,0.02030804008245468,-0.9584123492240906,-0.2846634089946747,0.13169792294502258,0.16190247237682343,0.17138689756393433,,,,,,,,
3030,COMPASS,40.443986185809806,-79.94450636203635,286.10628509521484,83.96485137939453,15.372896194458008,0,98.12809753417969,-1.0,-1.0,N/A,-0.0400848388671875,-0.9675750732421875,-0.2599945068359375,0.06578407436609268,0.07131253182888031,0.11180403083562851,-24.729217529296875,-102.1739501953125,-307.19061279296875,-0.06490948796272278,-0.03006720542907715,0.04329991340637207,1.2813861763985712,0.07121987168260122,-0.1282649566502035,0.02030804008245468,-0.9584123492240906,-0.2846634089946747,0.13169792294502258,0.16190247237682343,0.17138689756393433,,,,,,,,
3056,Gyrometer,40.443986185809806,-79.94450636203635,286.10628509521484,83.96485137939453,15.372896194458008,0,98.12809753417969,-1.0,-1.0,N/A,-0.0400848388671875,-0.9675750732421875,-0.2599945068359375,-0.024812405928969383,-0.0035217641852796078,0.11851999163627625,-24.729217529296875,-102.1739501953125,-307.19061279296875,-0.06490948796272278,-0.03006720542907715,0.04329991340637207,1.2813861763985712,0.07121987168260122,-0.1282649566502035,0.02030804008245468,-0.9584123492240906,-0.2846634089946747,0.13169792294502258,0.16190247237682343,0.17138689756393433,,,,,,,,
3082,Altimeter,40.443986185809806,-79.94450636203635,286.10628509521484,83.96485137939453,15.372896194458008,0,98.12809753417969,-1.0,-1.0,N/A,-0.0400848388671875,-0.9675750732421875,-0.2599945068359375,-0.024812405928969383,-0.0035217641852796078,0.11851999163627625,-24.729217529296875,-102.1739501953125,-307.19061279296875,-0.06490948796272278,-0.03006720542907715,0.04329991340637207,1.2813861763985712,0.07121987168260122,-0.1282649566502035,0.02030804008245468,-0.9584123492240906,-0.2846634089946747,0.13169792294502258,0.16190247237682343,0.17138689756393433,,,,,,,,
3106,Accelerometer,40.443986185809806,-79.94450636203635,286.10628509521484,83.96485137939453,15.372896194458008,0,98.12809753417969,-1.0,-1.0,N/A,-0.0065155029296875,-0.87322998046875,-0.3081207275390625,-0.024812405928969383,-0.0035217641852796078,0.11851999163627625,-24.729217529296875,-102.1739501953125,-307.19061279296875,-0.06490948796272278,-0.03006720542907715,0.04329991340637207,1.2813861763985712,0.07121987168260122,-0.1282649566502035,0.02030804008245468,-0.9584123492240906,-0.2846634089946747,0.13169792294502258,0.16190247237682343,0.17138689756393433,,,,,,,,
3132,COMPASS,40.443986185809806,-79.94450636203635,286.10628509521484,82.65363311767578,15.373854637145996,0,98.12809753417969,-1.0,-1.0,N/A,-0.0065155029296875,-0.87322998046875,-0.3081207275390625,-0.024812405928969383,-0.0035217641852796078,0.11851999163627625,-24.729217529296875,-102.1739501953125,-307.19061279296875,-0.06490948796272278,-0.03006720542907715,0.04329991340637207,1.2813861763985712,0.07121987168260122,-0.1282649566502035,0.02030804008245468,-0.9584123492240906,-0.2846634089946747,0.13169792294502258,0.16190247237682343,0.17138689756393433,,,,,,,,
3158,Device Motion,40.443986185809806,-79.94450636203635,286.10628509521484,82.65363311767578,15.373854637145996,0,98.12809753417969,-1.0,-1.0,N/A,-0.0065155029296875,-0.87322998046875,-0.3081207275390625,-0.024812405928969383,-0.0035217641852796078,0.11851999163627625,-24.729217529296875,-102.1739501953125,-307.19061279296875,-0.004165947437286377,0.06710708141326904,0.005665183067321777,1.2986446356877932,-0.02406977552587985,-0.009400001672656127,-0.006469440646469593,-0.963194727897644,-0.2687266767024994,0.18827101588249207,0.18982334434986115,0.18357545137405396,,,,,,,,
3302,Magnetometer,40.443986185809806,-79.94450636203635,286.10628509521484,82.65363311767578,15.373854637145996,0,98.12809753417969,-1.0,-1.0,N/A,-0.0065155029296875,-0.87322998046875,-0.3081207275390625,-0.024812405928969383,-0.0035217641852796078,0.11851999163627625,-19.316452026367188,-100.48590087890625,-302.5582275390625,-0.004165947437286377,0.06710708141326904,0.005665183067321777,1.2986446356877932,-0.02406977552587985,-0.009400001672656127,-0.006469440646469593,-0.963194727897644,-0.2687266767024994,0.18827101588249207,0.18982334434986115,0.18357545137405396,,,,,,,,
3330,Gyrometer,40.443986185809806,-79.94450636203635,286.10628509521484,82.65363311767578,15.373854637145996,0,98.12809753417969,-1.0,-1.0,N/A,-0.0065155029296875,-0.87322998046875,-0.3081207275390625,0.002375007141381502,0.02785160392522812,-0.02809874527156353,-19.316452026367188,-100.48590087890625,-302.5582275390625,-0.004165947437286377,0.06710708141326904,0.005665183067321777,1.2986446356877932,-0.02406977552587985,-0.009400001672656127,-0.006469440646469593,-0.963194727897644,-0.2687266767024994,0.18827101588249207,0.18982334434986115,0.18357545137405396,,,,,,,,
3356,Accelerometer,40.443986185809806,-79.94450636203635,286.10628509521484,82.65363311767578,15.373854637145996,0,98.12809753417969,-1.0,-1.0,N/A,-0.000518798828125,-0.9216461181640625,-0.24444580078125,0.002375007141381502,0.02785160392522812,-0.02809874527156353,-19.316452026367188,-100.48590087890625,-302.5582275390625,-0.004165947437286377,0.06710708141326904,0.005665183067321777,1.2986446356877932,-0.02406977552587985,-0.009400001672656127,-0.006469440646469593,-0.963194727897644,-0.2687266767024994,0.18827101588249207,0.18982334434986115,0.18357545137405396,,,,,,,,
3385,Device Motion,40.443986185809806,-79.94450636203635,286.10628509521484,82.65363311767578,15.373854637145996,0,98.12809753417969,-1.0,-1.0,N/A,-0.000518798828125,-0.9216461181640625,-0.24444580078125,0.002375007141381502,0.02785160392522812,-0.02809874527156353,-19.316452026367188,-100.48590087890625,-302.5582275390625,0.011722566559910774,0.0266379714012146,0.05785283446311951,1.2742134933405371,-0.06359638799327857,0.044563911364135025,-0.01857377216219902,-0.9563407301902771,-0.29166316986083984,0.006563122384250164,-0.03266460821032524,-0.04315449669957161,,,,,,,,
3602,Magnetometer,40.443986185809806,-79.94450636203635,286.10628509521484,82.65363311767578,15.373854637145996,0,98.12809753417969,-1.0,-1.0,N/A,-0.000518798828125,-0.9216461181640625,-0.24444580078125,0.002375007141381502,0.02785160392522812,-0.02809874527156353,-9.622451782226562,-97.590087890625,-295.6329345703125,0.011722566559910774,0.0266379714012146,0.05785283446311951,1.2742134933405371,-0.06359638799327857,0.044563911364135025,-0.01857377216219902,-0.9563407301902771,-0.29166316986083984,0.006563122384250164,-0.03266460821032524,-0.04315449669957161,,,,,,,,
3629,Gyrometer,40.443986185809806,-79.94450636203635,286.10628509521484,82.65363311767578,15.373854637145996,0,98.12809753417969,-1.0,-1.0,N/A,-0.000518798828125,-0.9216461181640625,-0.24444580078125,0.22607973217964172,0.008285094052553177,-0.04400474205613136,-9.622451782226562,-97.590087890625,-295.6329345703125,0.011722566559910774,0.0266379714012146,0.05785283446311951,1.2742134933405371,-0.06359638799327857,0.044563911364135025,-0.01857377216219902,-0.9563407301902771,-0.29166316986083984,0.006563122384250164,-0.03266460821032524,-0.04315449669957161,,,,,,,,
3658,Accelerometer,40.443986185809806,-79.94450636203635,286.10628509521484,82.65363311767578,15.373854637145996,0,98.12809753417969,-1.0,-1.0,N/A,-0.0048370361328125,-0.973968505859375,-0.327484130859375,0.22607973217964172,0.008285094052553177,-0.04400474205613136,-9.622451782226562,-97.590087890625,-295.6329345703125,0.011722566559910774,0.0266379714012146,0.05785283446311951,1.2742134933405371,-0.06359638799327857,0.044563911364135025,-0.01857377216219902,-0.9563407301902771,-0.29166316986083984,0.006563122384250164,-0.03266460821032524,-0.04315449669957161,,,,,,,,
3684,Device Motion,40.443986185809806,-79.94450636203635,286.10628509521484,82.65363311767578,15.373854637145996,0,98.12809753417969,-1.0,-1.0,N/A,-0.0048370361328125,-0.973968505859375,-0.327484130859375,0.22607973217964172,0.008285094052553177,-0.04400474205613136,-9.622451782226562,-97.590087890625,-295.6329345703125,0.00483709666877985,0.04191964864730835,-0.04040846228599548,1.2925972212601717,-0.034956160584940776,0.005411058330988772,-0.009597856551408768,-0.9615515470504761,-0.27445653080940247,0.011326695792376995,0.04187224805355072,-0.09269094467163086,,,,,,,,
3756,COMPASS,40.443986185809806,-79.94450636203635,286.10628509521484,83.7826919555664,15.379400253295898,0,98.12809753417969,-1.0,-1.0,N/A,-0.0048370361328125,-0.973968505859375,-0.327484130859375,0.22607973217964172,0.008285094052553177,-0.04400474205613136,-9.622451782226562,-97.590087890625,-295.6329345703125,0.00483709666877985,0.04191964864730835,-0.04040846228599548,1.2925972212601717,-0.034956160584940776,0.005411058330988772,-0.009597856551408768,-0.9615515470504761,-0.27445653080940247,0.011326695792376995,0.04187224805355072,-0.09269094467163086,,,,,,,,
3901,Magnetometer,40.443986185809806,-79.94450636203635,286.10628509521484,83.7826919555664,15.379400253295898,0,98.12809753417969,-1.0,-1.0,N/A,-0.0048370361328125,-0.973968505859375,-0.327484130859375,0.22607973217964172,0.008285094052553177,-0.04400474205613136,6.0630950927734375,-92.34500122070312,-289.1202392578125,0.00483709666877985,0.04191964864730835,-0.04040846228599548,1.2925972212601717,-0.034956160584940776,0.005411058330988772,-0.009597856551408768,-0.9615515470504761,-0.27445653080940247,0.011326695792376995,0.04187224805355072,-0.09269094467163086,,,,,,,,
3928,Gyrometer,40.443986185809806,-79.94450636203635,286.10628509521484,83.7826919555664,15.379400253295898,0,98.12809753417969,-1.0,-1.0,N/A,-0.0048370361328125,-0.973968505859375,-0.327484130859375,-0.0998682752251625,0.02021712064743042,-0.015467639081180096,6.0630950927734375,-92.34500122070312,-289.1202392578125,0.00483709666877985,0.04191964864730835,-0.04040846228599548,1.2925972212601717,-0.034956160584940776,0.005411058330988772,-0.009597856551408768,-0.9615515470504761,-0.27445653080940247,0.011326695792376995,0.04187224805355072,-0.09269094467163086,,,,,,,,
3961,Accelerometer,40.443986185809806,-79.94450636203635,286.10628509521484,83.7826919555664,15.379400253295898,0,98.12809753417969,-1.0,-1.0,N/A,0.0058135986328125,-0.894195556640625,-0.278289794921875,-0.0998682752251625,0.02021712064743042,-0.015467639081180096,6.0630950927734375,-92.34500122070312,-289.1202392578125,0.00483709666877985,0.04191964864730835,-0.04040846228599548,1.2925972212601717,-0.034956160584940776,0.005411058330988772,-0.009597856551408768,-0.9615515470504761,-0.27445653080940247,0.011326695792376995,0.04187224805355072,-0.09269094467163086,,,,,,,,
3986,Device Motion,40.443986185809806,-79.94450636203635,286.10628509521484,83.7826919555664,15.379400253295898,0,98.12809753417969,-1.0,-1.0,N/A,0.0058135986328125,-0.894195556640625,-0.278289794921875,-0.0998682752251625,0.02021712064743042,-0.015467639081180096,6.0630950927734375,-92.34500122070312,-289.1202392578125,-0.0011822879314422607,0.044608473777770996,0.03689134120941162,1.2691755992755105,0.05820230836446678,-0.08639631165375629,0.017280302941799164,-0.954856276512146,-0.29656532406806946,-0.08013571798801422,0.11435502022504807,-0.06343071907758713,,,,,,,,
4048,Altimeter,40.443986185809806,-79.94450636203635,286.10628509521484,83.7826919555664,15.379400253295898,-0.0079345703125,98.12819671630859,-1.0,-1.0,N/A,0.0058135986328125,-0.894195556640625,-0.278289794921875,-0.0998682752251625,0.02021712064743042,-0.015467639081180096,6.0630950927734375,-92.34500122070312,-289.1202392578125,-0.0011822879314422607,0.044608473777770996,0.03689134120941162,1.2691755992755105,0.05820230836446678,-0.08639631165375629,0.017280302941799164,-0.954856276512146,-0.29656532406806946,-0.08013571798801422,0.11435502022504807,-0.06343071907758713,,,,,,,,
4154,COMPASS,40.443986185809806,-79.94450636203635,286.10628509521484,82.68773651123047,15.382675170898438,-0.0079345703125,98.12819671630859,-1.0,-1.0,N/A,0.0058135986328125,-0.894195556640625,-0.278289794921875,-0.0998682752251625,0.02021712064743042,-0.015467639081180096,6.0630950927734375,-92.34500122070312,-289.1202392578125,-0.0011822879314422607,0.044608473777770996,0.03689134120941162,1.2691755992755105,0.05820230836446678,-0.08639631165375629,0.017280302941799164,-0.954856276512146,-0.29656532406806946,-0.08013571798801422,0.11435502022504807,-0.06343071907758713,,,,,,,,
4200,Magnetometer,40.443986185809806,-79.94450636203635,286.10628509521484,82.68773651123047,15.382675170898438,-0.0079345703125,98.12819671630859,-1.0,-1.0,N/A,0.0058135986328125,-0.894195556640625,-0.278289794921875,-0.0998682752251625,0.02021712064743042,-0.015467639081180096,26.865707397460938,-86.21992492675781,-290.1437072753906,-0.0011822879314422607,0.044608473777770996,0.03689134120941162,1.2691755992755105,0.05820230836446678,-0.08639631165375629,0.017280302941799164,-0.954856276512146,-0.29656532406806946,-0.08013571798801422,0.11435502022504807,-0.06343071907758713,,,,,,,,
4228,Gyrometer,40.443986185809806,-79.94450636203635,286.10628509521484,82.68773651123047,15.382675170898438,-0.0079345703125,98.12819671630859,-1.0,-1.0,N/A,0.0058135986328125,-0.894195556640625,-0.278289794921875,-0.07377861440181732,0.2999108135700226,0.09009446948766708,26.865707397460938,-86.21992492675781,-290.1437072753906,-0.0011822879314422607,0.044608473777770996,0.03689134120941162,1.2691755992755105,0.05820230836446678,-0.08639631165375629,0.017280302941799164,-0.954856276512146,-0.29656532406806946,-0.08013571798801422,0.11435502022504807,-0.06343071907758713,,,,,,,,
4253,COMPASS,40.443986185809806,-79.94450636203635,286.10628509521484,81.4444808959961,15.38333511352539,-0.0079345703125,98.12819671630859,-1.0,-1.0,N/A,0.0058135986328125,-0.894195556640625,-0.278289794921875,-0.07377861440181732,0.2999108135700226,0.09009446948766708,26.865707397460938,-86.21992492675781,-290.1437072753906,-0.0011822879314422607,0.044608473777770996,0.03689134120941162,1.2691755992755105,0.05820230836446678,-0.08639631165375629,0.017280302941799164,-0.954856276512146,-0.29656532406806946,-0.08013571798801422,0.11435502022504807,-0.06343071907758713,,,,,,,,
4279,Accelerometer,40.443986185809806,-79.94450636203635,286.10628509521484,81.4444808959961,15.38333511352539,-0.0079345703125,98.12819671630859,-1.0,-1.0,N/A,0.0537109375,-1.076629638671875,-0.34161376953125,-0.07377861440181732,0.2999108135700226,0.09009446948766708,26.865707397460938,-86.21992492675781,-290.1437072753906,-0.0011822879314422607,0.044608473777770996,0.03689134120941162,1.2691755992755105,0.05820230836446678,-0.08639631165375629,0.017280302941799164,-0.954856276512146,-0.29656532406806946,-0.08013571798801422,0.11435502022504807,-0.06343071907758713,,,,,,,,
4305,COMPASS,40.443986185809806,-79.94450636203635,286.10628509521484,80.36305236816406,15.383896827697754,-0.0079345703125,98.12819671630859,-1.0,-1.0,N/A,0.0537109375,-1.076629638671875,-0.34161376953125,-0.07377861440181732,0.2999108135700226,0.09009446948766708,26.865707397460938,-86.21992492675781,-290.1437072753906,-0.0011822879314422607,0.044608473777770996,0.03689134120941162,1.2691755992755105,0.05820230836446678,-0.08639631165375629,0.017280302941799164,-0.954856276512146,-0.29656532406806946,-0.08013571798801422,0.11435502022504807,-0.06343071907758713,,,,,,,,
4331,Device Motion,40.443986185809806,-79.94450636203635,286.10628509521484,80.36305236816406,15.383896827697754,-0.0079345703125,98.12819671630859,-1.0,-1.0,N/A,0.0537109375,-1.076629638671875,-0.34161376953125,-0.07377861440181732,0.2999108135700226,0.09009446948766708,26.865707397460938,-86.21992492675781,-290.1437072753906,0.06925511360168457,-0.10066252946853638,-0.05328255891799927,1.26613533097676,0.008815283580917141,0.013016515764934606,0.0026442864909768105,-0.9539486765861511,-0.29995837807655334,-0.15894654393196106,0.15725739300251007,0.17626728117465973,,,,,,,,
4374,COMPASS,40.443986185809806,-79.94450636203635,286.10628509521484,79.01811981201172,15.384622573852539,-0.0079345703125,98.12819671630859,-1.0,-1.0,N/A,0.0537109375,-1.076629638671875,-0.34161376953125,-0.07377861440181732,0.2999108135700226,0.09009446948766708,26.865707397460938,-86.21992492675781,-290.1437072753906,0.06925511360168457,-0.10066252946853638,-0.05328255891799927,1.26613533097676,0.008815283580917141,0.013016515764934606,0.0026442864909768105,-0.9539486765861511,-0.29995837807655334,-0.15894654393196106,0.15725739300251007,0.17626728117465973,,,,,,,,
4453,COMPASS,40.443986185809806,-79.94450636203635,286.10628509521484,77.65865325927734,15.385353088378906,-0.0079345703125,98.12819671630859,-1.0,-1.0,N/A,0.0537109375,-1.076629638671875,-0.34161376953125,-0.07377861440181732,0.2999108135700226,0.09009446948766708,26.865707397460938,-86.21992492675781,-290.1437072753906,0.06925511360168457,-0.10066252946853638,-0.05328255891799927,1.26613533097676,0.008815283580917141,0.013016515764934606,0.0026442864909768105,-0.9539486765861511,-0.29995837807655334,-0.15894654393196106,0.15725739300251007,0.17626728117465973,,,,,,,,
4500,Magnetometer,40.443986185809806,-79.94450636203635,286.10628509521484,77.65865325927734,15.385353088378906,-0.0079345703125,98.12819671630859,-1.0,-1.0,N/A,0.0537109375,-1.076629638671875,-0.34161376953125,-0.07377861440181732,0.2999108135700226,0.09009446948766708,41.82275390625,-78.11824035644531,-304.49029541015625,0.06925511360168457,-0.10066252946853638,-0.05328255891799927,1.26613533097676,0.008815283580917141,0.013016515764934606,0.0026442864909768105,-0.9539486765861511,-0.29995837807655334,-0.15894654393196106,0.15725739300251007,0.17626728117465973,,,,,,,,
4526,Gyrometer,40.443986185809806,-79.94450636203635,286.10628509521484,77.65865325927734,15.385353088378906,-0.0079345703125,98.12819671630859,-1.0,-1.0,N/A,0.0537109375,-1.076629638671875,-0.34161376953125,-0.19364483654499054,0.1988379955291748,0.10447101294994354,41.82275390625,-78.11824035644531,-304.49029541015625,0.06925511360168457,-0.10066252946853638,-0.05328255891799927,1.26613533097676,0.008815283580917141,0.013016515764934606,0.0026442864909768105,-0.9539486765861511,-0.29995837807655334,-0.15894654393196106,0.15725739300251007,0.17626728117465973,,,,,,,,
4551,COMPASS,40.443986185809806,-79.94450636203635,286.10628509521484,76.46273803710938,15.386090278625488,-0.0079345703125,98.12819671630859,-1.0,-1.0,N/A,0.0537109375,-1.076629638671875,-0.34161376953125,-0.19364483654499054,0.1988379955291748,0.10447101294994354,41.82275390625,-78.11824035644531,-304.49029541015625,0.06925511360168457,-0.10066252946853638,-0.05328255891799927,1.26613533097676,0.008815283580917141,0.013016515764934606,0.0026442864909768105,-0.9539486765861511,-0.29995837807655334,-0.15894654393196106,0.15725739300251007,0.17626728117465973,,,,,,,,
4578,Accelerometer,40.443986185809806,-79.94450636203635,286.10628509521484,76.46273803710938,15.386090278625488,-0.0079345703125,98.12819671630859,-1.0,-1.0,N/A,-0.0283660888671875,-0.81622314453125,-0.2942657470703125,-0.19364483654499054,0.1988379955291748,0.10447101294994354,41.82275390625,-78.11824035644531,-304.49029541015625,0.06925511360168457,-0.10066252946853638,-0.05328255891799927,1.26613533097676,0.008815283580917141,0.013016515764934606,0.0026442864909768105,-0.9539486765861511,-0.29995837807655334,-0.15894654393196106,0.15725739300251007,0.17626728117465973,,,,,,,,
4603,Device Motion,40.443986185809806,-79.94450636203635,286.10628509521484,76.46273803710938,15.386090278625488,-0.0079345703125,98.12819671630859,-1.0,-1.0,N/A,-0.0283660888671875,-0.81622314453125,-0.2942657470703125,-0.19364483654499054,0.1988379955291748,0.10447101294994354,41.82275390625,-78.11824035644531,-304.49029541015625,-0.007036684080958366,0.13169485330581665,0.03172275424003601,1.2427760216687291,-0.06653881521741713,0.14632528538188255,-0.021420961245894432,-0.9466819763183594,-0.32145655155181885,-0.05400283262133598,0.17607693374156952,0.06944622844457626,,,,,,,,
4752,COMPASS,40.443986185809806,-79.94450636203635,286.10628509521484,77.46690368652344,15.388107299804688,-0.0079345703125,98.12819671630859,-1.0,-1.0,N/A,-0.0283660888671875,-0.81622314453125,-0.2942657470703125,-0.19364483654499054,0.1988379955291748,0.10447101294994354,41.82275390625,-78.11824035644531,-304.49029541015625,-0.007036684080958366,0.13169485330581665,0.03172275424003601,1.2427760216687291,-0.06653881521741713,0.14632528538188255,-0.021420961245894432,-0.9466819763183594,-0.32145655155181885,-0.05400283262133598,0.17607693374156952,0.06944622844457626,,,,,,,,
4800,Magnetometer,40.443986185809806,-79.94450636203635,286.10628509521484,77.46690368652344,15.388107299804688,-0.0079345703125,98.12819671630859,-1.0,-1.0,N/A,-0.0283660888671875,-0.81622314453125,-0.2942657470703125,-0.19364483654499054,0.1988379955291748,0.10447101294994354,44.101318359375,-67.8875732421875,-334.00750732421875,-0.007036684080958366,0.13169485330581665,0.03172275424003601,1.2427760216687291,-0.06653881521741713,0.14632528538188255,-0.021420961245894432,-0.9466819763183594,-0.32145655155181885,-0.05400283262133598,0.17607693374156952,0.06944622844457626,,,,,,,,
4827,COMPASS,40.443986185809806,-79.94450636203635,286.10628509521484,78.57805633544922,15.388602256774902,-0.0079345703125,98.12819671630859,-1.0,-1.0,N/A,-0.0283660888671875,-0.81622314453125,-0.2942657470703125,-0.19364483654499054,0.1988379955291748,0.10447101294994354,44.101318359375,-67.8875732421875,-334.00750732421875,-0.007036684080958366,0.13169485330581665,0.03172275424003601,1.2427760216687291,-0.06653881521741713,0.14632528538188255,-0.021420961245894432,-0.9466819763183594,-0.32145655155181885,-0.05400283262133598,0.17607693374156952,0.06944622844457626,,,,,,,,
4852,Gyrometer,40.443986185809806,-79.94450636203635,286.10628509521484,78.57805633544922,15.388602256774902,-0.0079345703125,98.12819671630859,-1.0,-1.0,N/A,-0.0283660888671875,-0.81622314453125,-0.2942657470703125,0.21466995775699615,-0.28553852438926697,-0.12146703898906708,44.101318359375,-67.8875732421875,-334.00750732421875,-0.007036684080958366,0.13169485330581665,0.03172275424003601,1.2427760216687291,-0.06653881521741713,0.14632528538188255,-0.021420961245894432,-0.9466819763183594,-0.32145655155181885,-0.05400283262133598,0.17607693374156952,0.06944622844457626,,,,,,,,
4878,COMPASS,40.443986185809806,-79.94450636203635,286.10628509521484,79.8094253540039,15.389159202575684,-0.0079345703125,98.12819671630859,-1.0,-1.0,N/A,-0.0283660888671875,-0.81622314453125,-0.2942657470703125,0.21466995775699615,-0.28553852438926697,-0.12146703898906708,44.101318359375,-67.8875732421875,-334.00750732421875,-0.007036684080958366,0.13169485330581665,0.03172275424003601,1.2427760216687291,-0.06653881521741713,0.14632528538188255,-0.021420961245894432,-0.9466819763183594,-0.32145655155181885,-0.05400283262133598,0.17607693374156952,0.06944622844457626,,,,,,,,
4904,Accelerometer,40.443986185809806,-79.94450636203635,286.10628509521484,79.8094253540039,15.389159202575684,-0.0079345703125,98.12819671630859,-1.0,-1.0,N/A,-0.05523681640625,-1.116058349609375,-0.350128173828125,0.21466995775699615,-0.28553852438926697,-0.12146703898906708,44.101318359375,-67.8875732421875,-334.00750732421875,-0.007036684080958366,0.13169485330581665,0.03172275424003601,1.2427760216687291,-0.06653881521741713,0.14632528538188255,-0.021420961245894432,-0.9466819763183594,-0.32145655155181885,-0.05400283262133598,0.17607693374156952,0.06944622844457626,,,,,,,,
4930,COMPASS,40.443986185809806,-79.94450636203635,286.10628509521484,80.81907653808594,15.389519691467285,-0.0079345703125,98.12819671630859,-1.0,-1.0,N/A,-0.05523681640625,-1.116058349609375,-0.350128173828125,0.21466995775699615,-0.28553852438926697,-0.12146703898906708,44.101318359375,-67.8875732421875,-334.00750732421875,-0.007036684080958366,0.13169485330581665,0.03172275424003601,1.2427760216687291,-0.06653881521741713,0.14632528538188255,-0.021420961245894432,-0.9466819763183594,-0.32145655155181885,-0.05400283262133598,0.17607693374156952,0.06944622844457626,,,,,,,,
4955,COMPASS,40.443986185809806,-79.94450636203635,286.10628509521484,81.91576385498047,15.389867782592773,-0.0079345703125,98.12819671630859,-1.0,-1.0,N/A,-0.05523681640625,-1.116058349609375,-0.350128173828125,0.21466995775699615,-0.28553852438926697,-0.12146703898906708,44.101318359375,-67.8875732421875,-334.00750732421875,-0.007036684080958366,0.13169485330581665,0.03172275424003601,1.2427760216687291,-0.06653881521741713,0.14632528538188255,-0.021420961245894432,-0.9466819763183594,-0.32145655155181885,-0.05400283262133598,0.17607693374156952,0.06944622844457626,,,,,,,,
