Timestamp (ms),Triggering Sensor,Latitude,Longitude,Altitude,Heading (degrees),Heading accuracy (degrees),Relative Altitude (m),Pressure (kPa),Speed (m/s),Speed Accuracy (m/s),Floor,Acceleration - X axis,Acceleration - Y axis,Acceleration - Z axis,Gyrometer - X axis,Gyrometer - Y axis,Gyrometer - Z axis,Magnetometer - X axis,Magnetometer - Y axis,Magnetometer - Z axis,User acceleration - X axis,User acceleration - Y axis,User acceleration - Z axis,Attitude Pitch,Attitude Roll,Attitude Yaw,Gravity - X axis,Gravity - Y axis,Gravity - Z axis,Rotation Rate - X axis,Rotation Rate - Y axis,Rotation Rate - Z axis,Activity Type,Number of Steps,Distance,Floors Ascended,Floors Descended,Current Pace,Current Cadence,Average Active Pace
11,Gyrometer,,,,,,,,,,,,,,-0.02774640917778015,-0.030362166464328766,0.031016506254673004,,,,,,,,,,,,,,,,,,,,,,,
43,Accelerometer,,,,,,,,,,,0.0312042236328125,-0.9777374267578125,-0.1240081787109375,-0.02774640917778015,-0.030362166464328766,0.031016506254673004,,,,,,,,,,,,,,,,,,,,,,,
75,COMPASS,,,,188.19674682617188,17.01898765563965,,,,,,0.0312042236328125,-0.9777374267578125,-0.1240081787109375,-0.02774640917778015,-0.030362166464328766,0.031016506254673004,,,,,,,,,,,,,,,,,,,,,,,
105,Magnetometer,,,,188.19674682617188,17.01898765563965,,,,,,0.0312042236328125,-0.9777374267578125,-0.1240081787109375,-0.02774640917778015,-0.030362166464328766,0.031016506254673004,-25.368072509765625,-113.84989929199219,-308.89447021484375,,,,,,,,,,,,,,,,,,,,
135,Activity Manager,,,,188.19674682617188,17.01898765563965,,,,,,0.0312042236328125,-0.9777374267578125,-0.1240081787109375,-0.02774640917778015,-0.030362166464328766,0.031016506254673004,-25.368072509765625,-113.84989929199219,-308.89447021484375,,,,,,,,,,,,,Walking,,,,,,,
281,Activity Manager,,,,188.19674682617188,17.01898765563965,,,,,,0.0312042236328125,-0.9777374267578125,-0.1240081787109375,-0.02774640917778015,-0.030362166464328766,0.031016506254673004,-25.368072509765625,-113.84989929199219,-308.89447021484375,,,,,,,,,,,,,Stationary,,,,,,,
319,Device Motion,,,,188.19674682617188,17.01898765563965,,,,,,0.0312042236328125,-0.9777374267578125,-0.1240081787109375,-0.02774640917778015,-0.030362166464328766,0.031016506254673004,-25.368072509765625,-113.84989929199219,-308.89447021484375,-0.003054022789001465,0.009170591831207275,0.011732995510101318,1.4237774330485966,0.15858954958027682,-0.13690708895365336,0.023134605959057808,-0.989212155342102,-0.14465221762657166,-0.002766498364508152,-0.011206721886992455,0.010408608242869377,Stationary,,,,,,,
352,Gyrometer,,,,188.19674682617188,17.01898765563965,,,,,,0.0312042236328125,-0.9777374267578125,-0.1240081787109375,0.020024042576551437,0.011121094226837158,-0.01661546155810356,-25.368072509765625,-113.84989929199219,-308.89447021484375,-0.003054022789001465,0.009170591831207275,0.011732995510101318,1.4237774330485966,0.15858954958027682,-0.13690708895365336,0.023134605959057808,-0.989212155342102,-0.14465221762657166,-0.002766498364508152,-0.011206721886992455,0.010408608242869377,Stationary,,,,,,,
383,Accelerometer,,,,188.19674682617188,17.01898765563965,,,,,,0.0186309814453125,-0.97308349609375,-0.125,0.020024042576551437,0.011121094226837158,-0.01661546155810356,-25.368072509765625,-113.84989929199219,-308.89447021484375,-0.003054022789001465,0.009170591831207275,0.011732995510101318,1.4237774330485966,0.15858954958027682,-0.13690708895365336,0.023134605959057808,-0.989212155342102,-0.14465221762657166,-0.002766498364508152,-0.011206721886992455,0.010408608242869377,Stationary,,,,,,,
415,Magnetometer,,,,188.19674682617188,17.01898765563965,,,,,,0.0186309814453125,-0.97308349609375,-0.125,0.020024042576551437,0.011121094226837158,-0.01661546155810356,-24.960830688476562,-113.98976135253906,-308.321044921875,-0.003054022789001465,0.009170591831207275,0.011732995510101318,1.4237774330485966,0.15858954958027682,-0.13690708895365336,0.023134605959057808,-0.989212155342102,-0.14465221762657166,-0.002766498364508152,-0.011206721886992455,0.010408608242869377,Stationary,,,,,,,
579,COMPASS,,,,187.14801025390625,17.018583297729492,,,,,,0.0186309814453125,-0.97308349609375,-0.125,0.020024042576551437,0.011121094226837158,-0.01661546155810356,-24.960830688476562,-113.98976135253906,-308.321044921875,-0.003054022789001465,0.009170591831207275,0.011732995510101318,1.4237774330485966,0.15858954958027682,-0.13690708895365336,0.023134605959057808,-0.989212155342102,-0.14465221762657166,-0.002766498364508152,-0.011206721886992455,0.010408608242869377,Stationary,,,,,,,
614,Device Motion,,,,187.14801025390625,17.018583297729492,,,,,,0.0186309814453125,-0.97308349609375,-0.125,0.020024042576551437,0.011121094226837158,-0.01661546155810356,-24.960830688476562,-113.98976135253906,-308.321044921875,-0.011079668998718262,0.01152646541595459,0.005960345268249512,1.424759515275574,0.12047043749374615,-0.08688612947463648,0.01748836040496826,-0.9893555641174316,-0.14446426928043365,-0.008503158576786518,0.0625123456120491,0.03946324437856674,Stationary,,,,,,,
646,Activity Manager,,,,187.14801025390625,17.018583297729492,,,,,,0.0186309814453125,-0.97308349609375,-0.125,0.020024042576551437,0.011121094226837158,-0.01661546155810356,-24.960830688476562,-113.98976135253906,-308.321044921875,-0.011079668998718262,0.01152646541595459,0.005960345268249512,1.424759515275574,0.12047043749374615,-0.08688612947463648,0.01748836040496826,-0.9893555641174316,-0.14446426928043365,-0.008503158576786518,0.0625123456120491,0.03946324437856674,Walking,,,,,,,
676,Gyrometer,,,,187.14801025390625,17.018583297729492,,,,,,0.0186309814453125,-0.97308349609375,-0.125,0.013224991969764233,0.10188215970993042,0.048533182591199875,-24.960830688476562,-113.98976135253906,-308.321044921875,-0.011079668998718262,0.01152646541595459,0.005960345268249512,1.424759515275574,0.12047043749374615,-0.08688612947463648,0.01748836040496826,-0.9893555641174316,-0.14446426928043365,-0.008503158576786518,0.0625123456120491,0.03946324437856674,Walking,,,,,,,
705,Magnetometer,,,,187.14801025390625,17.018583297729492,,,,,,0.0186309814453125,-0.97308349609375,-0.125,0.013224991969764233,0.10188215970993042,0.048533182591199875,-25.54541015625,-114.18719482421875,-308.5089416503906,-0.011079668998718262,0.01152646541595459,0.005960345268249512,1.424759515275574,0.12047043749374615,-0.08688612947463648,0.01748836040496826,-0.9893555641174316,-0.14446426928043365,-0.008503158576786518,0.0625123456120491,0.03946324437856674,Walking,,,,,,,
737,COMPASS,,,,186.1449432373047,17.018821716308594,,,,,,0.0186309814453125,-0.97308349609375,-0.125,0.013224991969764233,0.10188215970993042,0.048533182591199875,-25.54541015625,-114.18719482421875,-308.5089416503906,-0.011079668998718262,0.01152646541595459,0.005960345268249512,1.424759515275574,0.12047043749374615,-0.08688612947463648,0.01748836040496826,-0.9893555641174316,-0.14446426928043365,-0.008503158576786518,0.0625123456120491,0.03946324437856674,Walking,,,,,,,
766,Accelerometer,,,,186.1449432373047,17.018821716308594,,,,,,0.0024871826171875,-0.972137451171875,-0.1441192626953125,0.013224991969764233,0.10188215970993042,0.048533182591199875,-25.54541015625,-114.18719482421875,-308.5089416503906,-0.011079668998718262,0.01152646541595459,0.005960345268249512,1.424759515275574,0.12047043749374615,-0.08688612947463648,0.01748836040496826,-0.9893555641174316,-0.14446426928043365,-0.008503158576786518,0.0625123456120491,0.03946324437856674,Walking,,,,,,,
878,COMPASS,,,,185.1437225341797,17.019079208374023,,,,,,0.0024871826171875,-0.972137451171875,-0.1441192626953125,0.013224991969764233,0.10188215970993042,0.048533182591199875,-25.54541015625,-114.18719482421875,-308.5089416503906,-0.011079668998718262,0.01152646541595459,0.005960345268249512,1.424759515275574,0.12047043749374615,-0.08688612947463648,0.01748836040496826,-0.9893555641174316,-0.14446426928043365,-0.008503158576786518,0.0625123456120491,0.03946324437856674,Walking,,,,,,,
914,Device Motion,,,,185.1437225341797,17.019079208374023,,,,,,0.0024871826171875,-0.972137451171875,-0.1441192626953125,0.013224991969764233,0.10188215970993042,0.048533182591199875,-25.54541015625,-114.18719482421875,-308.5089416503906,0.013289599679410458,-0.011526226997375488,0.030744925141334534,1.4169163111280603,0.04232804455351194,0.015530091389059713,0.006485803052783012,-0.9881837964057922,-0.15313556790351868,-0.11220279335975647,0.01818571612238884,0.04109017923474312,Walking,,,,,,,
948,Gyrometer,,,,185.1437225341797,17.019079208374023,,,,,,0.0024871826171875,-0.972137451171875,-0.1441192626953125,-0.09780725091695786,0.03689543530344963,0.02111540548503399,-25.54541015625,-114.18719482421875,-308.5089416503906,0.013289599679410458,-0.011526226997375488,0.030744925141334534,1.4169163111280603,0.04232804455351194,0.015530091389059713,0.006485803052783012,-0.9881837964057922,-0.15313556790351868,-0.11220279335975647,0.01818571612238884,0.04109017923474312,Walking,,,,,,,
978,Magnetometer,,,,185.1437225341797,17.019079208374023,,,,,,0.0024871826171875,-0.972137451171875,-0.1441192626953125,-0.09780725091695786,0.03689543530344963,0.02111540548503399,-26.887283325195312,-114.90664672851562,-309.41717529296875,0.013289599679410458,-0.011526226997375488,0.030744925141334534,1.4169163111280603,0.04232804455351194,0.015530091389059713,0.006485803052783012,-0.9881837964057922,-0.15313556790351868,-0.11220279335975647,0.01818571612238884,0.04109017923474312,Walking,,,,,,,
1007,Accelerometer,,,,185.1437225341797,17.019079208374023,,,,,,0.0044708251953125,-0.9967803955078125,-0.1529541015625,-0.09780725091695786,0.03689543530344963,0.02111540548503399,-26.887283325195312,-114.90664672851562,-309.41717529296875,0.013289599679410458,-0.011526226997375488,0.030744925141334534,1.4169163111280603,0.04232804455351194,0.015530091389059713,0.006485803052783012,-0.9881837964057922,-0.15313556790351868,-0.11220279335975647,0.01818571612238884,0.04109017923474312,Walking,,,,,,,
1032,Altimeter,,,,185.1437225341797,17.019079208374023,0,98.14635467529297,,,,0.0044708251953125,-0.9967803955078125,-0.1529541015625,-0.09780725091695786,0.03689543530344963,0.02111540548503399,-26.887283325195312,-114.90664672851562,-309.41717529296875,0.013289599679410458,-0.011526226997375488,0.030744925141334534,1.4169163111280603,0.04232804455351194,0.015530091389059713,0.006485803052783012,-0.9881837964057922,-0.15313556790351868,-0.11220279335975647,0.01818571612238884,0.04109017923474312,Walking,,,,,,,
1186,Device Motion,,,,185.1437225341797,17.019079208374023,0,98.14635467529297,,,,0.0044708251953125,-0.9967803955078125,-0.1529541015625,-0.09780725091695786,0.03689543530344963,0.02111540548503399,-26.887283325195312,-114.90664672851562,-309.41717529296875,0.029398620128631592,-0.014883816242218018,0.04744793474674225,1.400012667067778,0.03442281895106354,0.024325508710420395,0.005849156994372606,-0.985451877117157,-0.1698537915945053,-0.0675199031829834,-0.03368889540433884,-0.03546919673681259,Walking,,,,,,,
1208,Gyrometer,,,,185.1437225341797,17.019079208374023,0,98.14635467529297,,,,0.0044708251953125,-0.9967803955078125,-0.1529541015625,0.016699351370334625,-0.09507910907268524,-0.05463741347193718,-26.887283325195312,-114.90664672851562,-309.41717529296875,0.029398620128631592,-0.014883816242218018,0.04744793474674225,1.400012667067778,0.03442281895106354,0.024325508710420395,0.005849156994372606,-0.985451877117157,-0.1698537915945053,-0.0675199031829834,-0.03368889540433884,-0.03546919673681259,Walking,,,,,,,
1238,Magnetometer,,,,185.1437225341797,17.019079208374023,0,98.14635467529297,,,,0.0044708251953125,-0.9967803955078125,-0.1529541015625,0.016699351370334625,-0.09507910907268524,-0.05463741347193718,-26.506118774414062,-114.64852905273438,-310.5396423339844,0.029398620128631592,-0.014883816242218018,0.04744793474674225,1.400012667067778,0.03442281895106354,0.024325508710420395,0.005849156994372606,-0.985451877117157,-0.1698537915945053,-0.0675199031829834,-0.03368889540433884,-0.03546919673681259,Walking,,,,,,,
1268,Accelerometer,,,,185.1437225341797,17.019079208374023,0,98.14635467529297,,,,0.0178070068359375,-0.991912841796875,-0.1108551025390625,0.016699351370334625,-0.09507910907268524,-0.05463741347193718,-26.506118774414062,-114.64852905273438,-310.5396423339844,0.029398620128631592,-0.014883816242218018,0.04744793474674225,1.400012667067778,0.03442281895106354,0.024325508710420395,0.005849156994372606,-0.985451877117157,-0.1698537915945053,-0.0675199031829834,-0.03368889540433884,-0.03546919673681259,Walking,,,,,,,
1485,Device Motion,,,,185.1437225341797,17.019079208374023,0,98.14635467529297,,,,0.0178070068359375,-0.991912841796875,-0.1108551025390625,0.016699351370334625,-0.09507910907268524,-0.05463741347193718,-26.506118774414062,-114.64852905273438,-310.5396423339844,-0.0076822638511657715,-0.04987293481826782,0.02633000910282135,1.4158165616120795,0.017840117481534797,0.01821210715089415,0.0027536621782928705,-0.9880146384239197,-0.1543358713388443,-0.06683261692523956,-0.1646747589111328,-0.011818316765129566,Walking,,,,,,,
1520,COMPASS,,,,186.25485229492188,17.02018928527832,0,98.14635467529297,,,,0.0178070068359375,-0.991912841796875,-0.1108551025390625,0.016699351370334625,-0.09507910907268524,-0.05463741347193718,-26.506118774414062,-114.64852905273438,-310.5396423339844,-0.0076822638511657715,-0.04987293481826782,0.02633000910282135,1.4158165616120795,0.017840117481534797,0.01821210715089415,0.0027536621782928705,-0.9880146384239197,-0.1543358713388443,-0.06683261692523956,-0.1646747589111328,-0.011818316765129566,Walking,,,,,,,
1551,Gyrometer,,,,186.25485229492188,17.02018928527832,0,98.14635467529297,,,,0.0178070068359375,-0.991912841796875,-0.1108551025390625,-0.12288358062505722,-0.15990763902664185,-0.017373930662870407,-26.506118774414062,-114.64852905273438,-310.5396423339844,-0.0076822638511657715,-0.04987293481826782,0.02633000910282135,1.4158165616120795,0.017840117481534797,0.01821210715089415,0.0027536621782928705,-0.9880146384239197,-0.1543358713388443,-0.06683261692523956,-0.1646747589111328,-0.011818316765129566,Walking,,,,,,,
1586,Magnetometer,,,,186.25485229492188,17.02018928527832,0,98.14635467529297,,,,0.0178070068359375,-0.991912841796875,-0.1108551025390625,-0.12288358062505722,-0.15990763902664185,-0.017373930662870407,-26.2747802734375,-114.62960815429688,-310.1256408691406,-0.0076822638511657715,-0.04987293481826782,0.02633000910282135,1.4158165616120795,0.017840117481534797,0.01821210715089415,0.0027536621782928705,-0.9880146384239197,-0.1543358713388443,-0.06683261692523956,-0.1646747589111328,-0.011818316765129566,Walking,,,,,,,
1616,Accelerometer,,,,186.25485229492188,17.02018928527832,0,98.14635467529297,,,,-0.001190185546875,-1.061614990234375,-0.226654052734375,-0.12288358062505722,-0.15990763902664185,-0.017373930662870407,-26.2747802734375,-114.62960815429688,-310.1256408691406,-0.0076822638511657715,-0.04987293481826782,0.02633000910282135,1.4158165616120795,0.017840117481534797,0.01821210715089415,0.0027536621782928705,-0.9880146384239197,-0.1543358713388443,-0.06683261692523956,-0.1646747589111328,-0.011818316765129566,Walking,,,,,,,
1784,Device Motion,,,,186.25485229492188,17.02018928527832,0,98.14635467529297,,,,-0.001190185546875,-1.061614990234375,-0.226654052734375,-0.12288358062505722,-0.15990763902664185,-0.017373930662870407,-26.2747802734375,-114.62960815429688,-310.1256408691406,0.01941266655921936,-0.006262481212615967,-0.09126003086566925,1.420949000092167,-0.03938452730687957,0.06597778400031608,-0.005878133233636618,-0.9887939095497131,-0.14917263388633728,0.05763450264930725,-0.0810369923710823,0.014333000406622887,Walking,,,,,,,
1820,Gyrometer,,,,186.25485229492188,17.02018928527832,0,98.14635467529297,,,,-0.001190185546875,-1.061614990234375,-0.226654052734375,0.04885595664381981,-0.04273255169391632,0.01378079317510128,-26.2747802734375,-114.62960815429688,-310.1256408691406,0.01941266655921936,-0.006262481212615967,-0.09126003086566925,1.420949000092167,-0.03938452730687957,0.06597778400031608,-0.005878133233636618,-0.9887939095497131,-0.14917263388633728,0.05763450264930725,-0.0810369923710823,0.014333000406622887,Walking,,,,,,,
1852,Magnetometer,,,,186.25485229492188,17.02018928527832,0,98.14635467529297,,,,-0.001190185546875,-1.061614990234375,-0.226654052734375,0.04885595664381981,-0.04273255169391632,0.01378079317510128,-26.619888305664062,-114.01252746582031,-310.21478271484375,0.01941266655921936,-0.006262481212615967,-0.09126003086566925,1.420949000092167,-0.03938452730687957,0.06597778400031608,-0.005878133233636618,-0.9887939095497131,-0.14917263388633728,0.05763450264930725,-0.0810369923710823,0.014333000406622887,Walking,,,,,,,
1882,Accelerometer,,,,186.25485229492188,17.02018928527832,0,98.14635467529297,,,,-0.0209197998046875,-0.9669647216796875,-0.20013427734375,0.04885595664381981,-0.04273255169391632,0.01378079317510128,-26.619888305664062,-114.01252746582031,-310.21478271484375,0.01941266655921936,-0.006262481212615967,-0.09126003086566925,1.420949000092167,-0.03938452730687957,0.06597778400031608,-0.005878133233636618,-0.9887939095497131,-0.14917263388633728,0.05763450264930725,-0.0810369923710823,0.014333000406622887,Walking,,,,,,,
2029,Altimeter,,,,186.25485229492188,17.02018928527832,-0.023773193359375,98.14661407470703,,,,-0.0209197998046875,-0.9669647216796875,-0.20013427734375,0.04885595664381981,-0.04273255169391632,0.01378079317510128,-26.619888305664062,-114.01252746582031,-310.21478271484375,0.01941266655921936,-0.006262481212615967,-0.09126003086566925,1.420949000092167,-0.03938452730687957,0.06597778400031608,-0.005878133233636618,-0.9887939095497131,-0.14917263388633728,0.05763450264930725,-0.0810369923710823,0.014333000406622887,Walking,,,,,,,
2083,Device Motion,,,,186.25485229492188,17.02018928527832,-0.023773193359375,98.14661407470703,,,,-0.0209197998046875,-0.9669647216796875,-0.20013427734375,0.04885595664381981,-0.04273255169391632,0.01378079317510128,-26.619888305664062,-114.01252746582031,-310.21478271484375,-0.010780065320432186,0.02097940444946289,-0.0064726322889328,1.411082206722732,-0.09065029264379429,0.09457166437640363,-0.01439694408327341,-0.9872727990150452,-0.15838323533535004,-0.030440788716077805,-0.029695026576519012,-0.01638941280543804,Walking,,,,,,,
2118,Gyrometer,,,,186.25485229492188,17.02018928527832,-0.023773193359375,98.14661407470703,,,,-0.0209197998046875,-0.9669647216796875,-0.20013427734375,0.043354399502277374,0.03425650671124458,-0.06047666072845459,-26.619888305664062,-114.01252746582031,-310.21478271484375,-0.010780065320432186,0.02097940444946289,-0.0064726322889328,1.411082206722732,-0.09065029264379429,0.09457166437640363,-0.01439694408327341,-0.9872727990150452,-0.15838323533535004,-0.030440788716077805,-0.029695026576519012,-0.01638941280543804,Walking,,,,,,,
2149,Magnetometer,,,,186.25485229492188,17.02018928527832,-0.023773193359375,98.14661407470703,,,,-0.0209197998046875,-0.9669647216796875,-0.20013427734375,0.043354399502277374,0.03425650671124458,-0.06047666072845459,-26.644515991210938,-113.71791076660156,-311.5361022949219,-0.010780065320432186,0.02097940444946289,-0.0064726322889328,1.411082206722732,-0.09065029264379429,0.09457166437640363,-0.01439694408327341,-0.9872727990150452,-0.15838323533535004,-0.030440788716077805,-0.029695026576519012,-0.01638941280543804,Walking,,,,,,,
2181,Accelerometer,,,,186.25485229492188,17.02018928527832,-0.023773193359375,98.14661407470703,,,,-0.008514404296875,-0.958953857421875,-0.1655731201171875,0.043354399502277374,0.03425650671124458,-0.06047666072845459,-26.644515991210938,-113.71791076660156,-311.5361022949219,-0.010780065320432186,0.02097940444946289,-0.0064726322889328,1.411082206722732,-0.09065029264379429,0.09457166437640363,-0.01439694408327341,-0.9872727990150452,-0.15838323533535004,-0.030440788716077805,-0.029695026576519012,-0.01638941280543804,Walking,,,,,,,
2382,Device Motion,,,,186.25485229492188,17.02018928527832,-0.023773193359375,98.14661407470703,,,,-0.008514404296875,-0.958953857421875,-0.1655731201171875,0.043354399502277374,0.03425650671124458,-0.06047666072845459,-26.644515991210938,-113.71791076660156,-311.5361022949219,-0.014921545051038265,-0.0074353814125061035,0.0652923732995987,1.399040084859004,-0.04805918508846632,0.06775095324440279,-0.008210760541260242,-0.9852861166000366,-0.1707153022289276,-0.026303064078092575,0.11354472488164902,-0.015668442472815514,Walking,,,,,,,
2420,Gyrometer,,,,186.25485229492188,17.02018928527832,-0.023773193359375,98.14661407470703,,,,-0.008514404296875,-0.958953857421875,-0.1655731201171875,0.01775689236819744,0.11078909784555435,0.0104150902479887,-26.644515991210938,-113.71791076660156,-311.5361022949219,-0.014921545051038265,-0.0074353814125061035,0.0652923732995987,1.399040084859004,-0.04805918508846632,0.06775095324440279,-0.008210760541260242,-0.9852861166000366,-0.1707153022289276,-0.026303064078092575,0.11354472488164902,-0.015668442472815514,Walking,,,,,,,
2453,Magnetometer,,,,186.25485229492188,17.02018928527832,-0.023773193359375,98.14661407470703,,,,-0.008514404296875,-0.958953857421875,-0.1655731201171875,0.01775689236819744,0.11078909784555435,0.0104150902479887,-27.00146484375,-113.21575927734375,-312.4179992675781,-0.014921545051038265,-0.0074353814125061035,0.0652923732995987,1.399040084859004,-0.04805918508846632,0.06775095324440279,-0.008210760541260242,-0.9852861166000366,-0.1707153022289276,-0.026303064078092575,0.11354472488164902,-0.015668442472815514,Walking,,,,,,,
2485,Accelerometer,,,,186.25485229492188,17.02018928527832,-0.023773193359375,98.14661407470703,,,,-0.0360565185546875,-1.01226806640625,-0.1299285888671875,0.01775689236819744,0.11078909784555435,0.0104150902479887,-27.00146484375,-113.21575927734375,-312.4179992675781,-0.014921545051038265,-0.0074353814125061035,0.0652923732995987,1.399040084859004,-0.04805918508846632,0.06775095324440279,-0.008210760541260242,-0.9852861166000366,-0.1707153022289276,-0.026303064078092575,0.11354472488164902,-0.015668442472815514,Walking,,,,,,,
2672,COMPASS,,,,185.2428741455078,17.025508880615234,-0.023773193359375,98.14661407470703,,,,-0.0360565185546875,-1.01226806640625,-0.1299285888671875,0.01775689236819744,0.11078909784555435,0.0104150902479887,-27.00146484375,-113.21575927734375,-312.4179992675781,-0.014921545051038265,-0.0074353814125061035,0.0652923732995987,1.399040084859004,-0.04805918508846632,0.06775095324440279,-0.008210760541260242,-0.9852861166000366,-0.1707153022289276,-0.026303064078092575,0.11354472488164902,-0.015668442472815514,Walking,,,,,,,
2710,Device Motion,,,,185.2428741455078,17.025508880615234,-0.023773193359375,98.14661407470703,,,,-0.0360565185546875,-1.01226806640625,-0.1299285888671875,0.01775689236819744,0.11078909784555435,0.0104150902479887,-27.00146484375,-113.21575927734375,-312.4179992675781,-0.005782813299447298,0.007724463939666748,-0.01267985999584198,1.4132385182118998,0.028106435883352685,0.026563894040826756,0.004409519489854574,-0.9876134395599365,-0.15684515237808228,0.12184634804725647,0.11160475760698318,0.021702831611037254,Walking,,,,,,,
2740,Gyrometer,,,,185.2428741455078,17.025508880615234,-0.023773193359375,98.14661407470703,,,,-0.0360565185546875,-1.01226806640625,-0.1299285888671875,0.12080338597297668,0.0920843854546547,0.043043605983257294,-27.00146484375,-113.21575927734375,-312.4179992675781,-0.005782813299447298,0.007724463939666748,-0.01267985999584198,1.4132385182118998,0.028106435883352685,0.026563894040826756,0.004409519489854574,-0.9876134395599365,-0.15684515237808228,0.12184634804725647,0.11160475760698318,0.021702831611037254,Walking,,,,,,,
2770,Magnetometer,,,,185.2428741455078,17.025508880615234,-0.023773193359375,98.14661407470703,,,,-0.0360565185546875,-1.01226806640625,-0.1299285888671875,0.12080338597297668,0.0920843854546547,0.043043605983257294,-27.095703125,-113.45619201660156,-310.872802734375,-0.005782813299447298,0.007724463939666748,-0.01267985999584198,1.4132385182118998,0.028106435883352685,0.026563894040826756,0.004409519489854574,-0.9876134395599365,-0.15684515237808228,0.12184634804725647,0.11160475760698318,0.021702831611037254,Walking,,,,,,,
2801,Accelerometer,,,,185.2428741455078,17.025508880615234,-0.023773193359375,98.14661407470703,,,,0.009124755859375,-0.9415130615234375,-0.1668853759765625,0.12080338597297668,0.0920843854546547,0.043043605983257294,-27.095703125,-113.45619201660156,-310.872802734375,-0.005782813299447298,0.007724463939666748,-0.01267985999584198,1.4132385182118998,0.028106435883352685,0.026563894040826756,0.004409519489854574,-0.9876134395599365,-0.15684515237808228,0.12184634804725647,0.11160475760698318,0.021702831611037254,Walking,,,,,,,
2831,COMPASS,,,,184.14630126953125,17.02661895751953,-0.023773193359375,98.14661407470703,,,,0.009124755859375,-0.9415130615234375,-0.1668853759765625,0.12080338597297668,0.0920843854546547,0.043043605983257294,-27.095703125,-113.45619201660156,-310.872802734375,-0.005782813299447298,0.007724463939666748,-0.01267985999584198,1.4132385182118998,0.028106435883352685,0.026563894040826756,0.004409519489854574,-0.9876134395599365,-0.15684515237808228,0.12184634804725647,0.11160475760698318,0.021702831611037254,Walking,,,,,,,
2981,Device Motion,,,,184.14630126953125,17.02661895751953,-0.023773193359375,98.14661407470703,,,,0.009124755859375,-0.9415130615234375,-0.1668853759765625,0.12080338597297668,0.0920843854546547,0.043043605983257294,-27.095703125,-113.45619201660156,-310.872802734375,0.010294200852513313,0.019177019596099854,-0.041418880224227905,1.4246938699339013,-0.06845791296919262,0.13545204769668134,-0.009958511218428612,-0.9893460273742676,-0.14524178206920624,-0.06356289982795715,-0.02520621381700039,0.0423111617565155,Walking,,,,,,,
3018,Magnetometer,,,,184.14630126953125,17.02661895751953,-0.023773193359375,98.14661407470703,,,,0.009124755859375,-0.9415130615234375,-0.1668853759765625,0.12080338597297668,0.0920843854546547,0.043043605983257294,-28.465240478515625,-112.97097778320312,-310.33050537109375,0.010294200852513313,0.019177019596099854,-0.041418880224227905,1.4246938699339013,-0.06845791296919262,0.13545204769668134,-0.009958511218428612,-0.9893460273742676,-0.14524178206920624,-0.06356289982795715,-0.02520621381700039,0.0423111617565155,Walking,,,,,,,
3049,Gyrometer,,,,184.14630126953125,17.02661895751953,-0.023773193359375,98.14661407470703,,,,0.009124755859375,-0.9415130615234375,-0.1668853759765625,-0.08418837934732437,-0.00347542529925704,0.06088678538799286,-28.465240478515625,-112.97097778320312,-310.33050537109375,0.010294200852513313,0.019177019596099854,-0.041418880224227905,1.4246938699339013,-0.06845791296919262,0.13545204769668134,-0.009958511218428612,-0.9893460273742676,-0.14524178206920624,-0.06356289982795715,-0.02520621381700039,0.0423111617565155,Walking,,,,,,,
3079,Altimeter,,,,184.14630126953125,17.02661895751953,-0.044921875,98.14687347412109,,,,0.009124755859375,-0.9415130615234375,-0.1668853759765625,-0.08418837934732437,-0.00347542529925704,0.06088678538799286,-28.465240478515625,-112.97097778320312,-310.33050537109375,0.010294200852513313,0.019177019596099854,-0.041418880224227905,1.4246938699339013,-0.06845791296919262,0.13545204769668134,-0.009958511218428612,-0.9893460273742676,-0.14524178206920624,-0.06356289982795715,-0.02520621381700039,0.0423111617565155,Walking,,,,,,,
3108,Accelerometer,,,,184.14630126953125,17.02661895751953,-0.044921875,98.14687347412109,,,,-0.00701904296875,-1.0025634765625,-0.1808624267578125,-0.08418837934732437,-0.00347542529925704,0.06088678538799286,-28.465240478515625,-112.97097778320312,-310.33050537109375,0.010294200852513313,0.019177019596099854,-0.041418880224227905,1.4246938699339013,-0.06845791296919262,0.13545204769668134,-0.009958511218428612,-0.9893460273742676,-0.14524178206920624,-0.06356289982795715,-0.02520621381700039,0.0423111617565155,Walking,,,,,,,
3280,Device Motion,,,,184.14630126953125,17.02661895751953,-0.044921875,98.14687347412109,,,,-0.00701904296875,-1.0025634765625,-0.1808624267578125,-0.08418837934732437,-0.00347542529925704,0.06088678538799286,-28.465240478515625,-112.97097778320312,-310.33050537109375,0.009941965341567993,-0.0008456707000732422,0.021647155284881592,1.3992965083453623,-0.09900941509752599,0.15698939596470968,-0.016869444400072098,-0.9853299260139465,-0.16982512176036835,-0.0622212179005146,-0.0717160701751709,0.05874619260430336,Walking,,,,,,,
3317,Magnetometer,,,,184.14630126953125,17.02661895751953,-0.044921875,98.14687347412109,,,,-0.00701904296875,-1.0025634765625,-0.1808624267578125,-0.08418837934732437,-0.00347542529925704,0.06088678538799286,-28.34454345703125,-112.78115844726562,-311.6087646484375,0.009941965341567993,-0.0008456707000732422,0.021647155284881592,1.3992965083453623,-0.09900941509752599,0.15698939596470968,-0.016869444400072098,-0.9853299260139465,-0.16982512176036835,-0.0622212179005146,-0.0717160701751709,0.05874619260430336,Walking,,,,,,,
3349,Gyrometer,,,,184.14630126953125,17.02661895751953,-0.044921875,98.14687347412109,,,,-0.00701904296875,-1.0025634765625,-0.1808624267578125,-0.03581791743636131,-0.03104713186621666,0.016151806339621544,-28.34454345703125,-112.78115844726562,-311.6087646484375,0.009941965341567993,-0.0008456707000732422,0.021647155284881592,1.3992965083453623,-0.09900941509752599,0.15698939596470968,-0.016869444400072098,-0.9853299260139465,-0.16982512176036835,-0.0622212179005146,-0.0717160701751709,0.05874619260430336,Walking,,,,,,,
3380,Accelerometer,,,,184.14630126953125,17.02661895751953,-0.044921875,98.14687347412109,,,,0.0067901611328125,-0.9736480712890625,-0.1338653564453125,-0.03581791743636131,-0.03104713186621666,0.016151806339621544,-28.34454345703125,-112.78115844726562,-311.6087646484375,0.009941965341567993,-0.0008456707000732422,0.021647155284881592,1.3992965083453623,-0.09900941509752599,0.15698939596470968,-0.016869444400072098,-0.9853299260139465,-0.16982512176036835,-0.0622212179005146,-0.0717160701751709,0.05874619260430336,Walking,,,,,,,
3579,Device Motion,,,,184.14630126953125,17.02661895751953,-0.044921875,98.14687347412109,,,,0.0067901611328125,-0.9736480712890625,-0.1338653564453125,-0.03581791743636131,-0.03104713186621666,0.016151806339621544,-28.34454345703125,-112.78115844726562,-311.6087646484375,-0.033569782972335815,-0.05060255527496338,-0.004367709159851074,1.4052213502240731,-0.13333496954991675,0.1656872726515971,-0.021911172196269035,-0.9863237738609314,-0.16335676610469818,0.03036002814769745,-0.06640579551458359,0.02593575417995453,Walking,,,,,,,
3616,Magnetometer,,,,184.14630126953125,17.02661895751953,-0.044921875,98.14687347412109,,,,0.0067901611328125,-0.9736480712890625,-0.1338653564453125,-0.03581791743636131,-0.03104713186621666,0.016151806339621544,-28.620559692382812,-112.69105529785156,-312.0710754394531,-0.033569782972335815,-0.05060255527496338,-0.004367709159851074,1.4052213502240731,-0.13333496954991675,0.1656872726515971,-0.021911172196269035,-0.9863237738609314,-0.16335676610469818,0.03036002814769745,-0.06640579551458359,0.02593575417995453,Walking,,,,,,,
3649,Gyrometer,,,,184.14630126953125,17.02661895751953,-0.044921875,98.14687347412109,,,,0.0067901611328125,-0.9736480712890625,-0.1338653564453125,0.05666008219122887,-0.10726547241210938,0.08116728812456131,-28.620559692382812,-112.69105529785156,-312.0710754394531,-0.033569782972335815,-0.05060255527496338,-0.004367709159851074,1.4052213502240731,-0.13333496954991675,0.1656872726515971,-0.021911172196269035,-0.9863237738609314,-0.16335676610469818,0.03036002814769745,-0.06640579551458359,0.02593575417995453,Walking,,,,,,,
3679,Accelerometer,,,,184.14630126953125,17.02661895751953,-0.044921875,98.14687347412109,,,,-0.0430755615234375,-0.9865264892578125,-0.1922607421875,0.05666008219122887,-0.10726547241210938,0.08116728812456131,-28.620559692382812,-112.69105529785156,-312.0710754394531,-0.033569782972335815,-0.05060255527496338,-0.004367709159851074,1.4052213502240731,-0.13333496954991675,0.1656872726515971,-0.021911172196269035,-0.9863237738609314,-0.16335676610469818,0.03036002814769745,-0.06640579551458359,0.02593575417995453,Walking,,,,,,,
3709,COMPASS,,,,185.22439575195312,17.02912712097168,-0.044921875,98.14687347412109,,,,-0.0430755615234375,-0.9865264892578125,-0.1922607421875,0.05666008219122887,-0.10726547241210938,0.08116728812456131,-28.620559692382812,-112.69105529785156,-312.0710754394531,-0.033569782972335815,-0.05060255527496338,-0.004367709159851074,1.4052213502240731,-0.13333496954991675,0.1656872726515971,-0.021911172196269035,-0.9863237738609314,-0.16335676610469818,0.03036002814769745,-0.06640579551458359,0.02593575417995453,Walking,,,,,,,
3829,COMPASS,,,,186.3727264404297,17.029502868652344,-0.044921875,98.14687347412109,,,,-0.0430755615234375,-0.9865264892578125,-0.1922607421875,0.05666008219122887,-0.10726547241210938,0.08116728812456131,-28.620559692382812,-112.69105529785156,-312.0710754394531,-0.033569782972335815,-0.05060255527496338,-0.004367709159851074,1.4052213502240731,-0.13333496954991675,0.1656872726515971,-0.021911172196269035,-0.9863237738609314,-0.16335676610469818,0.03036002814769745,-0.06640579551458359,0.02593575417995453,Walking,,,,,,,
3878,Device Motion,,,,186.3727264404297,17.029502868652344,-0.044921875,98.14687347412109,,,,-0.0430755615234375,-0.9865264892578125,-0.1922607421875,0.05666008219122887,-0.10726547241210938,0.08116728812456131,-28.620559692382812,-112.69105529785156,-312.0710754394531,-0.009637176990509033,0.043909549713134766,-0.04447746276855469,1.4245766081716476,-0.17775871434765558,0.17726826690594205,-0.025763221085071564,-0.989328920841217,-0.14340388774871826,-0.047542672604322433,-0.0739506408572197,-0.06195336952805519,Walking,,,,,,,
3914,Magnetometer,,,,186.3727264404297,17.029502868652344,-0.044921875,98.14687347412109,,,,-0.0430755615234375,-0.9865264892578125,-0.1922607421875,0.05666008219122887,-0.10726547241210938,0.08116728812456131,-27.816436767578125,-112.37541198730469,-311.2353820800781,-0.009637176990509033,0.043909549713134766,-0.04447746276855469,1.4245766081716476,-0.17775871434765558,0.17726826690594205,-0.025763221085071564,-0.989328920841217,-0.14340388774871826,-0.047542672604322433,-0.0739506408572197,-0.06195336952805519,Walking,,,,,,,
3946,Gyrometer,,,,186.3727264404297,17.029502868652344,-0.044921875,98.14687347412109,,,,-0.0430755615234375,-0.9865264892578125,-0.1922607421875,-0.06837479770183563,-0.023846477270126343,-0.02099369838833809,-27.816436767578125,-112.37541198730469,-311.2353820800781,-0.009637176990509033,0.043909549713134766,-0.04447746276855469,1.4245766081716476,-0.17775871434765558,0.17726826690594205,-0.025763221085071564,-0.989328920841217,-0.14340388774871826,-0.047542672604322433,-0.0739506408572197,-0.06195336952805519,Walking,,,,,,,
3974,Accelerometer,,,,186.3727264404297,17.029502868652344,-0.044921875,98.14687347412109,,,,-0.04046630859375,-0.946014404296875,-0.179473876953125,-0.06837479770183563,-0.023846477270126343,-0.02099369838833809,-27.816436767578125,-112.37541198730469,-311.2353820800781,-0.009637176990509033,0.043909549713134766,-0.04447746276855469,1.4245766081716476,-0.17775871434765558,0.17726826690594205,-0.025763221085071564,-0.989328920841217,-0.14340388774871826,-0.047542672604322433,-0.0739506408572197,-0.06195336952805519,Walking,,,,,,,
4034,Altimeter,,,,186.3727264404297,17.029502868652344,-0.044921875,98.14687347412109,,,,-0.04046630859375,-0.946014404296875,-0.179473876953125,-0.06837479770183563,-0.023846477270126343,-0.02099369838833809,-27.816436767578125,-112.37541198730469,-311.2353820800781,-0.009637176990509033,0.043909549713134766,-0.04447746276855469,1.4245766081716476,-0.17775871434765558,0.17726826690594205,-0.025763221085071564,-0.989328920841217,-0.14340388774871826,-0.047542672604322433,-0.0739506408572197,-0.06195336952805519,Walking,,,,,,,
4109,COMPASS,,,,187.37449645996094,17.030929565429688,-0.044921875,98.14687347412109,,,,-0.04046630859375,-0.946014404296875,-0.179473876953125,-0.06837479770183563,-0.023846477270126343,-0.02099369838833809,-27.816436767578125,-112.37541198730469,-311.2353820800781,-0.009637176990509033,0.043909549713134766,-0.04447746276855469,1.4245766081716476,-0.17775871434765558,0.17726826690594205,-0.025763221085071564,-0.989328920841217,-0.14340388774871826,-0.047542672604322433,-0.0739506408572197,-0.06195336952805519,Walking,,,,,,,
4177,Device Motion,,,,187.37449645996094,17.030929565429688,-0.044921875,98.14687347412109,,,,-0.04046630859375,-0.946014404296875,-0.179473876953125,-0.06837479770183563,-0.023846477270126343,-0.02099369838833809,-27.816436767578125,-112.37541198730469,-311.2353820800781,-0.011395633220672607,0.02357637882232666,0.0059607625007629395,1.407119667775182,-0.1336676557418036,0.11959930742909756,-0.02171594277024269,-0.9866348505020142,-0.1614934802055359,0.03682512044906616,0.02182801254093647,-0.11807925254106522,Walking,,,,,,,
4209,Magnetometer,,,,187.37449645996094,17.030929565429688,-0.044921875,98.14687347412109,,,,-0.04046630859375,-0.946014404296875,-0.179473876953125,-0.06837479770183563,-0.023846477270126343,-0.02099369838833809,-27.02740478515625,-112.66993713378906,-312.5077209472656,-0.011395633220672607,0.02357637882232666,0.0059607625007629395,1.407119667775182,-0.1336676557418036,0.11959930742909756,-0.02171594277024269,-0.9866348505020142,-0.1614934802055359,0.03682512044906616,0.02182801254093647,-0.11807925254106522,Walking,,,,,,,
4242,Gyrometer,,,,187.37449645996094,17.030929565429688,-0.044921875,98.14687347412109,,,,-0.04046630859375,-0.946014404296875,-0.179473876953125,-0.0057132793590426445,0.004727110732346773,-0.04749321565032005,-27.02740478515625,-112.66993713378906,-312.5077209472656,-0.011395633220672607,0.02357637882232666,0.0059607625007629395,1.407119667775182,-0.1336676557418036,0.11959930742909756,-0.02171594277024269,-0.9866348505020142,-0.1614934802055359,0.03682512044906616,0.02182801254093647,-0.11807925254106522,Walking,,,,,,,
4271,Accelerometer,,,,187.37449645996094,17.030929565429688,-0.044921875,98.14687347412109,,,,-0.019989013671875,-0.9668426513671875,-0.126800537109375,-0.0057132793590426445,0.004727110732346773,-0.04749321565032005,-27.02740478515625,-112.66993713378906,-312.5077209472656,-0.011395633220672607,0.02357637882232666,0.0059607625007629395,1.407119667775182,-0.1336676557418036,0.11959930742909756,-0.02171594277024269,-0.9866348505020142,-0.1614934802055359,0.03682512044906616,0.02182801254093647,-0.11807925254106522,Walking,,,,,,,
4476,Device Motion,,,,187.37449645996094,17.030929565429688,-0.044921875,98.14687347412109,,,,-0.019989013671875,-0.9668426513671875,-0.126800537109375,-0.0057132793590426445,0.004727110732346773,-0.04749321565032005,-27.02740478515625,-112.66993713378906,-312.5077209472656,-0.026528358459472656,-0.022566795349121094,0.040113985538482666,1.4042387469065192,-0.12238678665467284,0.13013783310745825,-0.0202398169785738,-0.9861613512039185,-0.164549320936203,0.15265780687332153,0.10504288971424103,-0.03422298654913902,Walking,,,,,,,
4510,Magnetometer,,,,187.37449645996094,17.030929565429688,-0.044921875,98.14687347412109,,,,-0.019989013671875,-0.9668426513671875,-0.126800537109375,-0.0057132793590426445,0.004727110732346773,-0.04749321565032005,-27.302520751953125,-113.21015930175781,-312.44244384765625,-0.026528358459472656,-0.022566795349121094,0.040113985538482666,1.4042387469065192,-0.12238678665467284,0.13013783310745825,-0.0202398169785738,-0.9861613512039185,-0.164549320936203,0.15265780687332153,0.10504288971424103,-0.03422298654913902,Walking,,,,,,,
4543,COMPASS,,,,186.26707458496094,17.03196907043457,-0.044921875,98.14687347412109,,,,-0.019989013671875,-0.9668426513671875,-0.126800537109375,-0.0057132793590426445,0.004727110732346773,-0.04749321565032005,-27.302520751953125,-113.21015930175781,-312.44244384765625,-0.026528358459472656,-0.022566795349121094,0.040113985538482666,1.4042387469065192,-0.12238678665467284,0.13013783310745825,-0.0202398169785738,-0.9861613512039185,-0.164549320936203,0.15265780687332153,0.10504288971424103,-0.03422298654913902,Walking,,,,,,,
4573,Gyrometer,,,,186.26707458496094,17.03196907043457,-0.044921875,98.14687347412109,,,,-0.019989013671875,-0.9668426513671875,-0.126800537109375,0.03380776569247246,0.11595829576253891,0.026074742898344994,-27.302520751953125,-113.21015930175781,-312.44244384765625,-0.026528358459472656,-0.022566795349121094,0.040113985538482666,1.4042387469065192,-0.12238678665467284,0.13013783310745825,-0.0202398169785738,-0.9861613512039185,-0.164549320936203,0.15265780687332153,0.10504288971424103,-0.03422298654913902,Walking,,,,,,,
4602,Accelerometer,,,,186.26707458496094,17.03196907043457,-0.044921875,98.14687347412109,,,,-0.0398712158203125,-1.0353851318359375,-0.162109375,0.03380776569247246,0.11595829576253891,0.026074742898344994,-27.302520751953125,-113.21015930175781,-312.44244384765625,-0.026528358459472656,-0.022566795349121094,0.040113985538482666,1.4042387469065192,-0.12238678665467284,0.13013783310745825,-0.0202398169785738,-0.9861613512039185,-0.164549320936203,0.15265780687332153,0.10504288971424103,-0.03422298654913902,Walking,,,,,,,
4767,COMPASS,,,,185.02719116210938,17.033876419067383,-0.044921875,98.14687347412109,,,,-0.0398712158203125,-1.0353851318359375,-0.162109375,0.03380776569247246,0.11595829576253891,0.026074742898344994,-27.302520751953125,-113.21015930175781,-312.44244384765625,-0.026528358459472656,-0.022566795349121094,0.040113985538482666,1.4042387469065192,-0.12238678665467284,0.13013783310745825,-0.0202398169785738,-0.9861613512039185,-0.164549320936203,0.15265780687332153,0.10504288971424103,-0.03422298654913902,Walking,,,,,,,
4803,Device Motion,,,,185.02719116210938,17.033876419067383,-0.044921875,98.14687347412109,,,,-0.0398712158203125,-1.0353851318359375,-0.162109375,0.03380776569247246,0.11595829576253891,0.026074742898344994,-27.302520751953125,-113.21015930175781,-312.44244384765625,0.01433432288467884,0.05800938606262207,-0.09910069406032562,1.434217177110234,-0.1720238812297505,0.205562626483061,-0.023306500166654587,-0.9906875491142273,-0.13414502143859863,0.17814511060714722,0.13498270511627197,0.07526715099811554,Walking,,,,,,,
4833,Magnetometer,,,,185.02719116210938,17.033876419067383,-0.044921875,98.14687347412109,,,,-0.0398712158203125,-1.0353851318359375,-0.162109375,0.03380776569247246,0.11595829576253891,0.026074742898344994,-27.89349365234375,-113.52104187011719,-311.00543212890625,0.01433432288467884,0.05800938606262207,-0.09910069406032562,1.434217177110234,-0.1720238812297505,0.205562626483061,-0.023306500166654587,-0.9906875491142273,-0.13414502143859863,0.17814511060714722,0.13498270511627197,0.07526715099811554,Walking,,,,,,,
4864,Gyrometer,,,,185.02719116210938,17.033876419067383,-0.044921875,98.14687347412109,,,,-0.0398712158203125,-1.0353851318359375,-0.162109375,0.06618780642747879,0.07416584342718124,-0.002975017298012972,-27.89349365234375,-113.52104187011719,-311.00543212890625,0.01433432288467884,0.05800938606262207,-0.09910069406032562,1.434217177110234,-0.1720238812297505,0.205562626483061,-0.023306500166654587,-0.9906875491142273,-0.13414502143859863,0.17814511060714722,0.13498270511627197,0.07526715099811554,Walking,,,,,,,
4891,Accelerometer,,,,185.02719116210938,17.033876419067383,-0.044921875,98.14687347412109,,,,-0.000213623046875,-0.9332427978515625,-0.18438720703125,0.06618780642747879,0.07416584342718124,-0.002975017298012972,-27.89349365234375,-113.52104187011719,-311.00543212890625,0.01433432288467884,0.05800938606262207,-0.09910069406032562,1.434217177110234,-0.1720238812297505,0.205562626483061,-0.023306500166654587,-0.9906875491142273,-0.13414502143859863,0.17814511060714722,0.13498270511627197,0.07526715099811554,Walking,,,,,,,
5031,Altimeter,,,,185.02719116210938,17.033876419067383,-0.03436279296875,98.14675903320312,,,,-0.000213623046875,-0.9332427978515625,-0.18438720703125,0.06618780642747879,0.07416584342718124,-0.002975017298012972,-27.89349365234375,-113.52104187011719,-311.00543212890625,0.01433432288467884,0.05800938606262207,-0.09910069406032562,1.434217177110234,-0.1720238812297505,0.205562626483061,-0.023306500166654587,-0.9906875491142273,-0.13414502143859863,0.17814511060714722,0.13498270511627197,0.07526715099811554,Walking,,,,,,,
5075,Device Motion,,,,185.02719116210938,17.033876419067383,-0.03436279296875,98.14675903320312,,,,-0.000213623046875,-0.9332427978515625,-0.18438720703125,0.06618780642747879,0.07416584342718124,-0.002975017298012972,-27.89349365234375,-113.52104187011719,-311.00543212890625,0.020690709352493286,0.003755927085876465,0.005812287330627441,1.4056327876201975,-0.12356057535908539,0.15230227537605426,-0.02026347443461418,-0.9863914847373962,-0.16316084563732147,-0.19294163584709167,-0.05345404893159866,0.004221733659505844,Walking,,,,,,,
5110,Magnetometer,,,,185.02719116210938,17.033876419067383,-0.03436279296875,98.14675903320312,,,,-0.000213623046875,-0.9332427978515625,-0.18438720703125,0.06618780642747879,0.07416584342718124,-0.002975017298012972,-27.681655883789062,-113.425537109375,-312.69171142578125,0.020690709352493286,0.003755927085876465,0.005812287330627441,1.4056327876201975,-0.12356057535908539,0.15230227537605426,-0.02026347443461418,-0.9863914847373962,-0.16316084563732147,-0.19294163584709167,-0.05345404893159866,0.004221733659505844,Walking,,,,,,,
5142,Gyrometer,,,,185.02719116210938,17.033876419067383,-0.03436279296875,98.14675903320312,,,,-0.000213623046875,-0.9332427978515625,-0.18438720703125,-0.12737633287906647,-0.04903412237763405,-0.033909495919942856,-27.681655883789062,-113.425537109375,-312.69171142578125,0.020690709352493286,0.003755927085876465,0.005812287330627441,1.4056327876201975,-0.12356057535908539,0.15230227537605426,-0.02026347443461418,-0.9863914847373962,-0.16316084563732147,-0.19294163584709167,-0.05345404893159866,0.004221733659505844,Walking,,,,,,,
5170,Accelerometer,,,,185.02719116210938,17.033876419067383,-0.03436279296875,98.14675903320312,,,,-0.0020294189453125,-1.010406494140625,-0.14520263671875,-0.12737633287906647,-0.04903412237763405,-0.033909495919942856,-27.681655883789062,-113.425537109375,-312.69171142578125,0.020690709352493286,0.003755927085876465,0.005812287330627441,1.4056327876201975,-0.12356057535908539,0.15230227537605426,-0.02026347443461418,-0.9863914847373962,-0.16316084563732147,-0.19294163584709167,-0.05345404893159866,0.004221733659505844,Walking,,,,,,,
5225,COMPASS,,,,186.06805419921875,17.036317825317383,-0.03436279296875,98.14675903320312,,,,-0.0020294189453125,-1.010406494140625,-0.14520263671875,-0.12737633287906647,-0.04903412237763405,-0.033909495919942856,-27.681655883789062,-113.425537109375,-312.69171142578125,0.020690709352493286,0.003755927085876465,0.005812287330627441,1.4056327876201975,-0.12356057535908539,0.15230227537605426,-0.02026347443461418,-0.9863914847373962,-0.16316084563732147,-0.19294163584709167,-0.05345404893159866,0.004221733659505844,Walking,,,,,,,
5374,Device Motion,,,,186.06805419921875,17.036317825317383,-0.03436279296875,98.14675903320312,,,,-0.0020294189453125,-1.010406494140625,-0.14520263671875,-0.12737633287906647,-0.04903412237763405,-0.033909495919942856,-27.681655883789062,-113.425537109375,-312.69171142578125,0.013772577047348022,-0.04438424110412598,0.040009260177612305,1.4030620071424662,-0.1284560988035481,0.13601202255200717,-0.02138672210276127,-0.9859655499458313,-0.16557376086711884,0.10844264924526215,-0.07423584163188934,-0.00465314881876111,Walking,,,,,,,
5411,Magnetometer,,,,186.06805419921875,17.036317825317383,-0.03436279296875,98.14675903320312,,,,-0.0020294189453125,-1.010406494140625,-0.14520263671875,-0.12737633287906647,-0.04903412237763405,-0.033909495919942856,-27.508941650390625,-113.51351928710938,-312.46551513671875,0.013772577047348022,-0.04438424110412598,0.040009260177612305,1.4030620071424662,-0.1284560988035481,0.13601202255200717,-0.02138672210276127,-0.9859655499458313,-0.16557376086711884,0.10844264924526215,-0.07423584163188934,-0.00465314881876111,Walking,,,,,,,
5439,Gyrometer,,,,186.06805419921875,17.036317825317383,-0.03436279296875,98.14675903320312,,,,-0.0020294189453125,-1.010406494140625,-0.14520263671875,0.05523635819554329,-0.11380220204591751,0.04372217878699303,-27.508941650390625,-113.51351928710938,-312.46551513671875,0.013772577047348022,-0.04438424110412598,0.040009260177612305,1.4030620071424662,-0.1284560988035481,0.13601202255200717,-0.02138672210276127,-0.9859655499458313,-0.16557376086711884,0.10844264924526215,-0.07423584163188934,-0.00465314881876111,Walking,,,,,,,
5469,Accelerometer,,,,186.06805419921875,17.036317825317383,-0.03436279296875,98.14675903320312,,,,-0.0365142822265625,-1.0052490234375,-0.147369384765625,0.05523635819554329,-0.11380220204591751,0.04372217878699303,-27.508941650390625,-113.51351928710938,-312.46551513671875,0.013772577047348022,-0.04438424110412598,0.040009260177612305,1.4030620071424662,-0.1284560988035481,0.13601202255200717,-0.02138672210276127,-0.9859655499458313,-0.16557376086711884,0.10844264924526215,-0.07423584163188934,-0.00465314881876111,Walking,,,,,,,
5643,COMPASS,,,,187.1399688720703,17.03736114501953,-0.03436279296875,98.14675903320312,,,,-0.0365142822265625,-1.0052490234375,-0.147369384765625,0.05523635819554329,-0.11380220204591751,0.04372217878699303,-27.508941650390625,-113.51351928710938,-312.46551513671875,0.013772577047348022,-0.04438424110412598,0.040009260177612305,1.4030620071424662,-0.1284560988035481,0.13601202255200717,-0.02138672210276127,-0.9859655499458313,-0.16557376086711884,0.10844264924526215,-0.07423584163188934,-0.00465314881876111,Walking,,,,,,,
5675,Device Motion,,,,187.1399688720703,17.03736114501953,-0.03436279296875,98.14675903320312,,,,-0.0365142822265625,-1.0052490234375,-0.147369384765625,0.05523635819554329,-0.11380220204591751,0.04372217878699303,-27.508941650390625,-113.51351928710938,-312.46551513671875,-0.029292970895767212,0.02843308448791504,-0.04869246482849121,1.423401083690718,-0.1420130543288576,0.133856161970158,-0.020786354318261147,-0.98915696144104,-0.1453840136528015,0.10257098078727722,-0.08330994844436646,-0.09519726037979126,Walking,,,,,,,
5708,Magnetometer,,,,187.1399688720703,17.03736114501953,-0.03436279296875,98.14675903320312,,,,-0.0365142822265625,-1.0052490234375,-0.147369384765625,0.05523635819554329,-0.11380220204591751,0.04372217878699303,-26.983734130859375,-113.08451843261719,-312.29541015625,-0.029292970895767212,0.02843308448791504,-0.04869246482849121,1.423401083690718,-0.1420130543288576,0.133856161970158,-0.020786354318261147,-0.98915696144104,-0.1453840136528015,0.10257098078727722,-0.08330994844436646,-0.09519726037979126,Walking,,,,,,,
5743,Gyrometer,,,,187.1399688720703,17.03736114501953,-0.03436279296875,98.14675903320312,,,,-0.0365142822265625,-1.0052490234375,-0.147369384765625,0.08329382538795471,-0.0332154780626297,-0.1637071669101715,-26.983734130859375,-113.08451843261719,-312.29541015625,-0.029292970895767212,0.02843308448791504,-0.04869246482849121,1.423401083690718,-0.1420130543288576,0.133856161970158,-0.020786354318261147,-0.98915696144104,-0.1453840136528015,0.10257098078727722,-0.08330994844436646,-0.09519726037979126,Walking,,,,,,,
5776,COMPASS,,,,188.1708526611328,17.037887573242188,-0.03436279296875,98.14675903320312,,,,-0.0365142822265625,-1.0052490234375,-0.147369384765625,0.08329382538795471,-0.0332154780626297,-0.1637071669101715,-26.983734130859375,-113.08451843261719,-312.29541015625,-0.029292970895767212,0.02843308448791504,-0.04869246482849121,1.423401083690718,-0.1420130543288576,0.133856161970158,-0.020786354318261147,-0.98915696144104,-0.1453840136528015,0.10257098078727722,-0.08330994844436646,-0.09519726037979126,Walking,,,,,,,
5810,Accelerometer,,,,188.1708526611328,17.037887573242188,-0.03436279296875,98.14675903320312,,,,-0.031982421875,-0.9601287841796875,-0.213165283203125,0.08329382538795471,-0.0332154780626297,-0.1637071669101715,-26.983734130859375,-113.08451843261719,-312.29541015625,-0.029292970895767212,0.02843308448791504,-0.04869246482849121,1.423401083690718,-0.1420130543288576,0.133856161970158,-0.020786354318261147,-0.98915696144104,-0.1453840136528015,0.10257098078727722,-0.08330994844436646,-0.09519726037979126,Walking,,,,,,,
5972,Device Motion,,,,188.1708526611328,17.037887573242188,-0.03436279296875,98.14675903320312,,,,-0.031982421875,-0.9601287841796875,-0.213165283203125,0.08329382538795471,-0.0332154780626297,-0.1637071669101715,-26.983734130859375,-113.08451843261719,-312.29541015625,-0.01948121190071106,0.051124393939971924,0.024828672409057617,1.4125844284255473,-0.06709646327243449,0.04997450385621443,-0.010563327930867672,-0.9875105619430542,-0.15719862282276154,-0.10004617273807526,0.0853159949183464,0.025121266022324562,Walking,,,,,,,
6003,Magnetometer,,,,188.1708526611328,17.037887573242188,-0.03436279296875,98.14675903320312,,,,-0.031982421875,-0.9601287841796875,-0.213165283203125,0.08329382538795471,-0.0332154780626297,-0.1637071669101715,-26.792877197265625,-113.70866394042969,-312.22821044921875,-0.01948121190071106,0.051124393939971924,0.024828672409057617,1.4125844284255473,-0.06709646327243449,0.04997450385621443,-0.010563327930867672,-0.9875105619430542,-0.15719862282276154,-0.10004617273807526,0.0853159949183464,0.025121266022324562,Walking,,,,,,,
6034,Gyrometer,,,,188.1708526611328,17.037887573242188,-0.03436279296875,98.14675903320312,,,,-0.031982421875,-0.9601287841796875,-0.213165283203125,-0.09814813733100891,0.1129651665687561,0.022464562207460403,-26.792877197265625,-113.70866394042969,-312.22821044921875,-0.01948121190071106,0.051124393939971924,0.024828672409057617,1.4125844284255473,-0.06709646327243449,0.04997450385621443,-0.010563327930867672,-0.9875105619430542,-0.15719862282276154,-0.10004617273807526,0.0853159949183464,0.025121266022324562,Walking,,,,,,,
6063,Altimeter,,,,188.1708526611328,17.037887573242188,-0.03436279296875,98.14675903320312,,,,-0.031982421875,-0.9601287841796875,-0.213165283203125,-0.09814813733100891,0.1129651665687561,0.022464562207460403,-26.792877197265625,-113.70866394042969,-312.22821044921875,-0.01948121190071106,0.051124393939971924,0.024828672409057617,1.4125844284255473,-0.06709646327243449,0.04997450385621443,-0.010563327930867672,-0.9875105619430542,-0.15719862282276154,-0.10004617273807526,0.0853159949183464,0.025121266022324562,Walking,,,,,,,
6090,Accelerometer,,,,188.1708526611328,17.037887573242188,-0.03436279296875,98.14675903320312,,,,-0.0424346923828125,-0.955596923828125,-0.1520233154296875,-0.09814813733100891,0.1129651665687561,0.022464562207460403,-26.792877197265625,-113.70866394042969,-312.22821044921875,-0.01948121190071106,0.051124393939971924,0.024828672409057617,1.4125844284255473,-0.06709646327243449,0.04997450385621443,-0.010563327930867672,-0.9875105619430542,-0.15719862282276154,-0.10004617273807526,0.0853159949183464,0.025121266022324562,Walking,,,,,,,
6222,COMPASS,,,,187.09664916992188,17.039363861083984,-0.03436279296875,98.14675903320312,,,,-0.0424346923828125,-0.955596923828125,-0.1520233154296875,-0.09814813733100891,0.1129651665687561,0.022464562207460403,-26.792877197265625,-113.70866394042969,-312.22821044921875,-0.01948121190071106,0.051124393939971924,0.024828672409057617,1.4125844284255473,-0.06709646327243449,0.04997450385621443,-0.010563327930867672,-0.9875105619430542,-0.15719862282276154,-0.10004617273807526,0.0853159949183464,0.025121266022324562,Walking,,,,,,,
6271,Device Motion,,,,187.09664916992188,17.039363861083984,-0.03436279296875,98.14675903320312,,,,-0.0424346923828125,-0.955596923828125,-0.1520233154296875,-0.09814813733100891,0.1129651665687561,0.022464562207460403,-26.792877197265625,-113.70866394042969,-312.22821044921875,-0.009709922596812248,-0.023830294609069824,0.03580774366855621,1.3856758223456058,-0.07639535805601685,0.08947082744111559,-0.014048028737306595,-0.9829140901565552,-0.18352802097797394,-0.020485222339630127,0.1462264508008957,0.05635356530547142,Walking,,,,,,,
6306,Magnetometer,,,,187.09664916992188,17.039363861083984,-0.03436279296875,98.14675903320312,,,,-0.0424346923828125,-0.955596923828125,-0.1520233154296875,-0.09814813733100891,0.1129651665687561,0.022464562207460403,-27.34893798828125,-113.42445373535156,-313.2105712890625,-0.009709922596812248,-0.023830294609069824,0.03580774366855621,1.3856758223456058,-0.07639535805601685,0.08947082744111559,-0.014048028737306595,-0.9829140901565552,-0.18352802097797394,-0.020485222339630127,0.1462264508008957,0.05635356530547142,Walking,,,,,,,
6338,Gyrometer,,,,187.09664916992188,17.039363861083984,-0.03436279296875,98.14675903320312,,,,-0.0424346923828125,-0.955596923828125,-0.1520233154296875,0.09460560232400894,0.14374864101409912,0.026308303698897362,-27.34893798828125,-113.42445373535156,-313.2105712890625,-0.009709922596812248,-0.023830294609069824,0.03580774366855621,1.3856758223456058,-0.07639535805601685,0.08947082744111559,-0.014048028737306595,-0.9829140901565552,-0.18352802097797394,-0.020485222339630127,0.1462264508008957,0.05635356530547142,Walking,,,,,,,
6367,COMPASS,,,,185.99066162109375,17.039236068725586,-0.03436279296875,98.14675903320312,,,,-0.0424346923828125,-0.955596923828125,-0.1520233154296875,0.09460560232400894,0.14374864101409912,0.026308303698897362,-27.34893798828125,-113.42445373535156,-313.2105712890625,-0.009709922596812248,-0.023830294609069824,0.03580774366855621,1.3856758223456058,-0.07639535805601685,0.08947082744111559,-0.014048028737306595,-0.9829140901565552,-0.18352802097797394,-0.020485222339630127,0.1462264508008957,0.05635356530547142,Walking,,,,,,,
6396,Accelerometer,,,,185.99066162109375,17.039236068725586,-0.03436279296875,98.14675903320312,,,,-0.052154541015625,-1.0480499267578125,-0.1103973388671875,0.09460560232400894,0.14374864101409912,0.026308303698897362,-27.34893798828125,-113.42445373535156,-313.2105712890625,-0.009709922596812248,-0.023830294609069824,0.03580774366855621,1.3856758223456058,-0.07639535805601685,0.08947082744111559,-0.014048028737306595,-0.9829140901565552,-0.18352802097797394,-0.020485222339630127,0.1462264508008957,0.05635356530547142,Walking,,,,,,,
6502,COMPASS,,,,184.8730926513672,17.040546417236328,-0.03436279296875,98.14675903320312,,,,-0.052154541015625,-1.0480499267578125,-0.1103973388671875,0.09460560232400894,0.14374864101409912,0.026308303698897362,-27.34893798828125,-113.42445373535156,-313.2105712890625,-0.009709922596812248,-0.023830294609069824,0.03580774366855621,1.3856758223456058,-0.07639535805601685,0.08947082744111559,-0.014048028737306595,-0.9829140901565552,-0.18352802097797394,-0.020485222339630127,0.1462264508008957,0.05635356530547142,Walking,,,,,,,
6570,Device Motion,,,,184.8730926513672,17.040546417236328,-0.03436279296875,98.14675903320312,,,,-0.052154541015625,-1.0480499267578125,-0.1103973388671875,0.09460560232400894,0.14374864101409912,0.026308303698897362,-27.34893798828125,-113.42445373535156,-313.2105712890625,-0.010271729901432991,0.019712626934051514,-0.041935816407203674,1.4170442240115237,-0.09988314692581911,0.155658031973478,-0.015271490439772606,-0.9882034063339233,-0.15238477289676666,0.12162787467241287,0.08987074345350266,0.1431509256362915,Walking,,,,,,,
6605,COMPASS,,,,183.68719482421875,17.041175842285156,-0.03436279296875,98.14675903320312,,,,-0.052154541015625,-1.0480499267578125,-0.1103973388671875,0.09460560232400894,0.14374864101409912,0.026308303698897362,-27.34893798828125,-113.42445373535156,-313.2105712890625,-0.010271729901432991,0.019712626934051514,-0.041935816407203674,1.4170442240115237,-0.09988314692581911,0.155658031973478,-0.015271490439772606,-0.9882034063339233,-0.15238477289676666,0.12162787467241287,0.08987074345350266,0.1431509256362915,Walking,,,,,,,
