Timestamp (ms),Triggering Sensor,Latitude,Longitude,Altitude,Heading (degrees),Heading accuracy (degrees),Relative Altitude (m),Pressure (kPa),Speed (m/s),Speed Accuracy (m/s),Floor,Acceleration - X axis,Acceleration - Y axis,Acceleration - Z axis,Gyrometer - X axis,Gyrometer - Y axis,Gyrometer - Z axis,Magnetometer - X axis,Magnetometer - Y axis,Magnetometer - Z axis,User acceleration - X axis,User acceleration - Y axis,User acceleration - Z axis,Attitude Pitch,Attitude Roll,Attitude Yaw,Gravity - X axis,Gravity - Y axis,Gravity - Z axis,Rotation Rate - X axis,Rotation Rate - Y axis,Rotation Rate - Z axis,Activity Type,Number of Steps,Distance,Floors Ascended,Floors Descended,Current Pace,Current Cadence,Average Active Pace
19,Activity Manager,,,,,,,,,,,,,,,,,,,,,,,,,,,,,,,,,,,,,,,
65,COMPASS,,,,105.01570129394531,16.7142391204834,,,,,,,,,,,,,,,,,,,,,,,,,,,,,,,,,,
85,Gyrometer,,,,105.01570129394531,16.7142391204834,,,,,,,,,0.0004724447790067643,0.0821412056684494,-0.011864382773637772,,,,,,,,,,,,,,,,,,,,,,,
105,Accelerometer,,,,105.01570129394531,16.7142391204834,,,,,,0.0246429443359375,-0.9946441650390625,-0.194000244140625,0.0004724447790067643,0.0821412056684494,-0.011864382773637772,,,,,,,,,,,,,,,,,,,,,,,
126,Magnetometer,,,,105.01570129394531,16.7142391204834,,,,,,0.0246429443359375,-0.9946441650390625,-0.194000244140625,0.0004724447790067643,0.0821412056684494,-0.011864382773637772,-67.06614685058594,-108.18194580078125,-314.9647216796875,,,,,,,,,,,,,,,,,,,,
325,Gyrometer,,,,105.01570129394531,16.7142391204834,,,,,,0.0246429443359375,-0.9946441650390625,-0.194000244140625,-0.0366019532084465,0.03344184532761574,-0.017527062445878983,-67.06614685058594,-108.18194580078125,-314.9647216796875,,,,,,,,,,,,,,,,,,,,
350,Device Motion,,,,105.01570129394531,16.7142391204834,,,,,,0.0246429443359375,-0.9946441650390625,-0.194000244140625,-0.0366019532084465,0.03344184532761574,-0.017527062445878983,-67.06614685058594,-108.18194580078125,-314.9647216796875,-0.002624824643135071,0.0002957582473754883,0.029285550117492676,1.359857837968322,0.07593913508121818,-0.06141030610491832,0.01588471047580242,-0.9778348207473755,-0.2087746262550354,-0.043027546256780624,0.021261224523186684,-0.008067985996603966,,,,,,,,
374,Accelerometer,,,,105.01570129394531,16.7142391204834,,,,,,0.012664794921875,-0.96405029296875,-0.1786956787109375,-0.0366019532084465,0.03344184532761574,-0.017527062445878983,-67.06614685058594,-108.18194580078125,-314.9647216796875,-0.002624824643135071,0.0002957582473754883,0.029285550117492676,1.359857837968322,0.07593913508121818,-0.06141030610491832,0.01588471047580242,-0.9778348207473755,-0.2087746262550354,-0.043027546256780624,0.021261224523186684,-0.008067985996603966,,,,,,,,
400,Magnetometer,,,,105.01570129394531,16.7142391204834,,,,,,0.012664794921875,-0.96405029296875,-0.1786956787109375,-0.0366019532084465,0.03344184532761574,-0.017527062445878983,-66.61985778808594,-108.29341125488281,-315.41180419921875,-0.002624824643135071,0.0002957582473754883,0.029285550117492676,1.359857837968322,0.07593913508121818,-0.06141030610491832,0.01588471047580242,-0.9778348207473755,-0.2087746262550354,-0.043027546256780624,0.021261224523186684,-0.008067985996603966,,,,,,,,
625,Gyrometer,,,,105.01570129394531,16.7142391204834,,,,,,0.012664794921875,-0.96405029296875,-0.1786956787109375,-0.02610989660024643,0.0010524812387302518,0.08523127436637878,-66.61985778808594,-108.29341125488281,-315.41180419921875,-0.002624824643135071,0.0002957582473754883,0.029285550117492676,1.359857837968322,0.07593913508121818,-0.06141030610491832,0.01588471047580242,-0.9778348207473755,-0.2087746262550354,-0.043027546256780624,0.021261224523186684,-0.008067985996603966,,,,,,,,
651,Device Motion,,,,105.01570129394531,16.7142391204834,,,,,,0.012664794921875,-0.96405029296875,-0.1786956787109375,-0.02610989660024643,0.0010524812387302518,0.08523127436637878,-66.61985778808594,-108.29341125488281,-315.41180419921875,-0.0029040873050689697,-0.006980955600738525,0.04397982358932495,1.3539711911350658,0.05779044967865269,-0.045639963761032326,0.012425572611391544,-0.9765853881835938,-0.21477141976356506,-0.03904689475893974,0.0017598583362996578,0.08823338150978088,,,,,,,,
676,Accelerometer,,,,105.01570129394531,16.7142391204834,,,,,,0.01617431640625,-0.99053955078125,-0.1859130859375,-0.02610989660024643,0.0010524812387302518,0.08523127436637878,-66.61985778808594,-108.29341125488281,-315.41180419921875,-0.0029040873050689697,-0.006980955600738525,0.04397982358932495,1.3539711911350658,0.05779044967865269,-0.045639963761032326,0.012425572611391544,-0.9765853881835938,-0.21477141976356506,-0.03904689475893974,0.0017598583362996578,0.08823338150978088,,,,,,,,
700,Magnetometer,,,,105.01570129394531,16.7142391204834,,,,,,0.01617431640625,-0.99053955078125,-0.1859130859375,-0.02610989660024643,0.0010524812387302518,0.08523127436637878,-67.63172912597656,-108.40385437011719,-315.679443359375,-0.0029040873050689697,-0.006980955600738525,0.04397982358932495,1.3539711911350658,0.05779044967865269,-0.045639963761032326,0.012425572611391544,-0.9765853881835938,-0.21477141976356506,-0.03904689475893974,0.0017598583362996578,0.08823338150978088,,,,,,,,
762,COMPASS,,,,103.9798812866211,16.708385467529297,,,,,,0.01617431640625,-0.99053955078125,-0.1859130859375,-0.02610989660024643,0.0010524812387302518,0.08523127436637878,-67.63172912597656,-108.40385437011719,-315.679443359375,-0.0029040873050689697,-0.006980955600738525,0.04397982358932495,1.3539711911350658,0.05779044967865269,-0.045639963761032326,0.012425572611391544,-0.9765853881835938,-0.21477141976356506,-0.03904689475893974,0.0017598583362996578,0.08823338150978088,,,,,,,,
925,Gyrometer,,,,103.9798812866211,16.708385467529297,,,,,,0.01617431640625,-0.99053955078125,-0.1859130859375,-0.07501112669706345,0.053466420620679855,-0.0057564228773117065,-67.63172912597656,-108.40385437011719,-315.679443359375,-0.0029040873050689697,-0.006980955600738525,0.04397982358932495,1.3539711911350658,0.05779044967865269,-0.045639963761032326,0.012425572611391544,-0.9765853881835938,-0.21477141976356506,-0.03904689475893974,0.0017598583362996578,0.08823338150978088,,,,,,,,
950,Device Motion,,,,103.9798812866211,16.708385467529297,,,,,,0.01617431640625,-0.99053955078125,-0.1859130859375,-0.07501112669706345,0.053466420620679855,-0.0057564228773117065,-67.63172912597656,-108.40385437011719,-315.679443359375,0.013593949377536774,-0.026410281658172607,0.036466315388679504,1.3485532080172913,0.024862309450794103,0.001876851985516524,0.005479537416249514,-0.9754054546356201,-0.22034993767738342,-0.07368852943181992,0.04460945725440979,-0.010495679453015327,,,,,,,,
977,Accelerometer,,,,103.9798812866211,16.708385467529297,,,,,,0.0349273681640625,-0.988616943359375,-0.170989990234375,-0.07501112669706345,0.053466420620679855,-0.0057564228773117065,-67.63172912597656,-108.40385437011719,-315.679443359375,0.013593949377536774,-0.026410281658172607,0.036466315388679504,1.3485532080172913,0.024862309450794103,0.001876851985516524,0.005479537416249514,-0.9754054546356201,-0.22034993767738342,-0.07368852943181992,0.04460945725440979,-0.010495679453015327,,,,,,,,
1001,Magnetometer,,,,103.9798812866211,16.708385467529297,,,,,,0.0349273681640625,-0.988616943359375,-0.170989990234375,-0.07501112669706345,0.053466420620679855,-0.0057564228773117065,-67.91256713867188,-108.86190795898438,-317.05419921875,0.013593949377536774,-0.026410281658172607,0.036466315388679504,1.3485532080172913,0.024862309450794103,0.001876851985516524,0.005479537416249514,-0.9754054546356201,-0.22034993767738342,-0.07368852943181992,0.04460945725440979,-0.010495679453015327,,,,,,,,
1079,Altimeter,,,,103.9798812866211,16.708385467529297,0,98.22060394287109,,,,0.0349273681640625,-0.988616943359375,-0.170989990234375,-0.07501112669706345,0.053466420620679855,-0.0057564228773117065,-67.91256713867188,-108.86190795898438,-317.05419921875,0.013593949377536774,-0.026410281658172607,0.036466315388679504,1.3485532080172913,0.024862309450794103,0.001876851985516524,0.005479537416249514,-0.9754054546356201,-0.22034993767738342,-0.07368852943181992,0.04460945725440979,-0.010495679453015327,,,,,,,,
1226,Gyrometer,,,,103.9798812866211,16.708385467529297,0,98.22060394287109,,,,0.0349273681640625,-0.988616943359375,-0.170989990234375,0.005564142484217882,-0.10339216887950897,0.000904409505892545,-67.91256713867188,-108.86190795898438,-317.05419921875,0.013593949377536774,-0.026410281658172607,0.036466315388679504,1.3485532080172913,0.024862309450794103,0.001876851985516524,0.005479537416249514,-0.9754054546356201,-0.22034993767738342,-0.07368852943181992,0.04460945725440979,-0.010495679453015327,,,,,,,,
1251,Device Motion,,,,103.9798812866211,16.708385467529297,0,98.22060394287109,,,,0.0349273681640625,-0.988616943359375,-0.170989990234375,0.005564142484217882,-0.10339216887950897,0.000904409505892545,-67.91256713867188,-108.86190795898438,-317.05419921875,0.025098003447055817,-0.003532886505126953,0.06556019186973572,1.3493360073133998,0.048171828789935534,-0.03651332568632391,0.010577047243714333,-0.975577712059021,-0.21939927339553833,0.002576509490609169,-0.10309328883886337,0.0003931084065698087,,,,,,,,
1277,Magnetometer,,,,103.9798812866211,16.708385467529297,0,98.22060394287109,,,,0.0349273681640625,-0.988616943359375,-0.170989990234375,0.005564142484217882,-0.10339216887950897,0.000904409505892545,-68.14869689941406,-109.92854309082031,-316.82794189453125,0.025098003447055817,-0.003532886505126953,0.06556019186973572,1.3493360073133998,0.048171828789935534,-0.03651332568632391,0.010577047243714333,-0.975577712059021,-0.21939927339553833,0.002576509490609169,-0.10309328883886337,0.0003931084065698087,,,,,,,,
1303,COMPASS,,,,105.10563659667969,16.70509147644043,0,98.22060394287109,,,,0.0349273681640625,-0.988616943359375,-0.170989990234375,0.005564142484217882,-0.10339216887950897,0.000904409505892545,-68.14869689941406,-109.92854309082031,-316.82794189453125,0.025098003447055817,-0.003532886505126953,0.06556019186973572,1.3493360073133998,0.048171828789935534,-0.03651332568632391,0.010577047243714333,-0.975577712059021,-0.21939927339553833,0.002576509490609169,-0.10309328883886337,0.0003931084065698087,,,,,,,,
1328,Accelerometer,,,,105.10563659667969,16.70509147644043,0,98.22060394287109,,,,0.039398193359375,-0.9967803955078125,-0.178192138671875,0.005564142484217882,-0.10339216887950897,0.000904409505892545,-68.14869689941406,-109.92854309082031,-316.82794189453125,0.025098003447055817,-0.003532886505126953,0.06556019186973572,1.3493360073133998,0.048171828789935534,-0.03651332568632391,0.010577047243714333,-0.975577712059021,-0.21939927339553833,0.002576509490609169,-0.10309328883886337,0.0003931084065698087,,,,,,,,
1419,COMPASS,,,,106.1480484008789,16.704593658447266,0,98.22060394287109,,,,0.039398193359375,-0.9967803955078125,-0.178192138671875,0.005564142484217882,-0.10339216887950897,0.000904409505892545,-68.14869689941406,-109.92854309082031,-316.82794189453125,0.025098003447055817,-0.003532886505126953,0.06556019186973572,1.3493360073133998,0.048171828789935534,-0.03651332568632391,0.010577047243714333,-0.975577712059021,-0.21939927339553833,0.002576509490609169,-0.10309328883886337,0.0003931084065698087,,,,,,,,
1526,Gyrometer,,,,106.1480484008789,16.704593658447266,0,98.22060394287109,,,,0.039398193359375,-0.9967803955078125,-0.178192138671875,-0.04620318114757538,-0.1143670529127121,0.08670240640640259,-68.14869689941406,-109.92854309082031,-316.82794189453125,0.025098003447055817,-0.003532886505126953,0.06556019186973572,1.3493360073133998,0.048171828789935534,-0.03651332568632391,0.010577047243714333,-0.975577712059021,-0.21939927339553833,0.002576509490609169,-0.10309328883886337,0.0003931084065698087,,,,,,,,
1552,Device Motion,,,,106.1480484008789,16.704593658447266,0,98.22060394287109,,,,0.039398193359375,-0.9967803955078125,-0.178192138671875,-0.04620318114757538,-0.1143670529127121,0.08670240640640259,-68.14869689941406,-109.92854309082031,-316.82794189453125,0.029724817723035812,-0.00749814510345459,-0.009631305932998657,1.3617765919362608,0.05554490063105396,-0.07750556938236806,0.011519686318933964,-0.9782347679138184,-0.20718079805374146,-0.0510903038084507,-0.11946059763431549,0.09210752695798874,,,,,,,,
1577,Magnetometer,,,,106.1480484008789,16.704593658447266,0,98.22060394287109,,,,0.039398193359375,-0.9967803955078125,-0.178192138671875,-0.04620318114757538,-0.1143670529127121,0.08670240640640259,-68.99330139160156,-110.39389038085938,-316.8919677734375,0.029724817723035812,-0.00749814510345459,-0.009631305932998657,1.3617765919362608,0.05554490063105396,-0.07750556938236806,0.011519686318933964,-0.9782347679138184,-0.20718079805374146,-0.0510903038084507,-0.11946059763431549,0.09210752695798874,,,,,,,,
1601,Accelerometer,,,,106.1480484008789,16.704593658447266,0,98.22060394287109,,,,-0.017852783203125,-0.94940185546875,-0.19293212890625,-0.04620318114757538,-0.1143670529127121,0.08670240640640259,-68.99330139160156,-110.39389038085938,-316.8919677734375,0.029724817723035812,-0.00749814510345459,-0.009631305932998657,1.3617765919362608,0.05554490063105396,-0.07750556938236806,0.011519686318933964,-0.9782347679138184,-0.20718079805374146,-0.0510903038084507,-0.11946059763431549,0.09210752695798874,,,,,,,,
1658,COMPASS,,,,107.16718292236328,16.70420265197754,0,98.22060394287109,,,,-0.017852783203125,-0.94940185546875,-0.19293212890625,-0.04620318114757538,-0.1143670529127121,0.08670240640640259,-68.99330139160156,-110.39389038085938,-316.8919677734375,0.029724817723035812,-0.00749814510345459,-0.009631305932998657,1.3617765919362608,0.05554490063105396,-0.07750556938236806,0.011519686318933964,-0.9782347679138184,-0.20718079805374146,-0.0510903038084507,-0.11946059763431549,0.09210752695798874,,,,,,,,
1738,COMPASS,,,,108.29167938232422,16.704092025756836,0,98.22060394287109,,,,-0.017852783203125,-0.94940185546875,-0.19293212890625,-0.04620318114757538,-0.1143670529127121,0.08670240640640259,-68.99330139160156,-110.39389038085938,-316.8919677734375,0.029724817723035812,-0.00749814510345459,-0.009631305932998657,1.3617765919362608,0.05554490063105396,-0.07750556938236806,0.011519686318933964,-0.9782347679138184,-0.20718079805374146,-0.0510903038084507,-0.11946059763431549,0.09210752695798874,,,,,,,,
1827,Gyrometer,,,,108.29167938232422,16.704092025756836,0,98.22060394287109,,,,-0.017852783203125,-0.94940185546875,-0.19293212890625,-0.11112039536237717,-0.01902402564883232,0.019215771928429604,-68.99330139160156,-110.39389038085938,-316.8919677734375,0.029724817723035812,-0.00749814510345459,-0.009631305932998657,1.3617765919362608,0.05554490063105396,-0.07750556938236806,0.011519686318933964,-0.9782347679138184,-0.20718079805374146,-0.0510903038084507,-0.11946059763431549,0.09210752695798874,,,,,,,,
1853,Device Motion,,,,108.29167938232422,16.704092025756836,0,98.22060394287109,,,,-0.017852783203125,-0.94940185546875,-0.19293212890625,-0.11112039536237717,-0.01902402564883232,0.019215771928429604,-68.99330139160156,-110.39389038085938,-316.8919677734375,-0.019644416868686676,0.026540696620941162,-0.016923367977142334,1.3769362188654621,0.05836126033615474,-0.11742964504800116,0.011236821301281452,-0.9812679290771484,-0.19232039153575897,-0.11731316149234772,-0.024289224296808243,0.020409783348441124,,,,,,,,
1877,Magnetometer,,,,108.29167938232422,16.704092025756836,0,98.22060394287109,,,,-0.017852783203125,-0.94940185546875,-0.19293212890625,-0.11112039536237717,-0.01902402564883232,0.019215771928429604,-69.33653259277344,-111.25556945800781,-317.114990234375,-0.019644416868686676,0.026540696620941162,-0.016923367977142334,1.3769362188654621,0.05836126033615474,-0.11742964504800116,0.011236821301281452,-0.9812679290771484,-0.19232039153575897,-0.11731316149234772,-0.024289224296808243,0.020409783348441124,,,,,,,,
1902,Accelerometer,,,,108.29167938232422,16.704092025756836,0,98.22060394287109,,,,0.0403594970703125,-0.954803466796875,-0.191162109375,-0.11112039536237717,-0.01902402564883232,0.019215771928429604,-69.33653259277344,-111.25556945800781,-317.114990234375,-0.019644416868686676,0.026540696620941162,-0.016923367977142334,1.3769362188654621,0.05836126033615474,-0.11742964504800116,0.011236821301281452,-0.9812679290771484,-0.19232039153575897,-0.11731316149234772,-0.024289224296808243,0.020409783348441124,,,,,,,,
2085,Altimeter,,,,108.29167938232422,16.704092025756836,0.029083251953125,98.22027587890625,,,,0.0403594970703125,-0.954803466796875,-0.191162109375,-0.11112039536237717,-0.01902402564883232,0.019215771928429604,-69.33653259277344,-111.25556945800781,-317.114990234375,-0.019644416868686676,0.026540696620941162,-0.016923367977142334,1.3769362188654621,0.05836126033615474,-0.11742964504800116,0.011236821301281452,-0.9812679290771484,-0.19232039153575897,-0.11731316149234772,-0.024289224296808243,0.020409783348441124,,,,,,,,
2126,Device Motion,,,,108.29167938232422,16.704092025756836,0.029083251953125,98.22027587890625,,,,0.0403594970703125,-0.954803466796875,-0.191162109375,-0.11112039536237717,-0.01902402564883232,0.019215771928429604,-69.33653259277344,-111.25556945800781,-317.114990234375,-0.008161589503288269,0.005839884281158447,0.018035292625427246,1.3643015266179166,0.03847653342581174,-0.09774789055925313,0.007886930368840694,-0.9787555932998657,-0.20487910509109497,0.0027855494990944862,0.0344393365085125,-0.043300751596689224,,,,,,,,
2150,Gyrometer,,,,108.29167938232422,16.704092025756836,0.029083251953125,98.22027587890625,,,,0.0403594970703125,-0.954803466796875,-0.191162109375,0.009576993063092232,0.037094637751579285,-0.04394002631306648,-69.33653259277344,-111.25556945800781,-317.114990234375,-0.008161589503288269,0.005839884281158447,0.018035292625427246,1.3643015266179166,0.03847653342581174,-0.09774789055925313,0.007886930368840694,-0.9787555932998657,-0.20487910509109497,0.0027855494990944862,0.0344393365085125,-0.043300751596689224,,,,,,,,
2176,Magnetometer,,,,108.29167938232422,16.704092025756836,0.029083251953125,98.22027587890625,,,,0.0403594970703125,-0.954803466796875,-0.191162109375,0.009576993063092232,0.037094637751579285,-0.04394002631306648,-70.40940856933594,-111.41632080078125,-318.7388916015625,-0.008161589503288269,0.005839884281158447,0.018035292625427246,1.3643015266179166,0.03847653342581174,-0.09774789055925313,0.007886930368840694,-0.9787555932998657,-0.20487910509109497,0.0027855494990944862,0.0344393365085125,-0.043300751596689224,,,,,,,,
2200,Accelerometer,,,,108.29167938232422,16.704092025756836,0.029083251953125,98.22027587890625,,,,-0.011749267578125,-0.9873809814453125,-0.156890869140625,0.009576993063092232,0.037094637751579285,-0.04394002631306648,-70.40940856933594,-111.41632080078125,-318.7388916015625,-0.008161589503288269,0.005839884281158447,0.018035292625427246,1.3643015266179166,0.03847653342581174,-0.09774789055925313,0.007886930368840694,-0.9787555932998657,-0.20487910509109497,0.0027855494990944862,0.0344393365085125,-0.043300751596689224,,,,,,,,
2396,COMPASS,,,,107.13886260986328,16.701940536499023,0.029083251953125,98.22027587890625,,,,-0.011749267578125,-0.9873809814453125,-0.156890869140625,0.009576993063092232,0.037094637751579285,-0.04394002631306648,-70.40940856933594,-111.41632080078125,-318.7388916015625,-0.008161589503288269,0.005839884281158447,0.018035292625427246,1.3643015266179166,0.03847653342581174,-0.09774789055925313,0.007886930368840694,-0.9787555932998657,-0.20487910509109497,0.0027855494990944862,0.0344393365085125,-0.043300751596689224,,,,,,,,
2425,Device Motion,,,,107.13886260986328,16.701940536499023,0.029083251953125,98.22027587890625,,,,-0.011749267578125,-0.9873809814453125,-0.156890869140625,0.009576993063092232,0.037094637751579285,-0.04394002631306648,-70.40940856933594,-111.41632080078125,-318.7388916015625,-0.021881457418203354,-0.01267153024673462,-0.01916596293449402,1.3780623184965424,0.08278625312214906,-0.1023365585810649,0.015838976949453354,-0.9814842343330383,-0.1908864676952362,-0.1158669963479042,0.17317728698253632,0.056697964668273926,,,,,,,,
2450,Gyrometer,,,,107.13886260986328,16.701940536499023,0.029083251953125,98.22027587890625,,,,-0.011749267578125,-0.9873809814453125,-0.156890869140625,-0.108714759349823,0.18377116322517395,0.04574272036552429,-70.40940856933594,-111.41632080078125,-318.7388916015625,-0.021881457418203354,-0.01267153024673462,-0.01916596293449402,1.3780623184965424,0.08278625312214906,-0.1023365585810649,0.015838976949453354,-0.9814842343330383,-0.1908864676952362,-0.1158669963479042,0.17317728698253632,0.056697964668273926,,,,,,,,
2475,Magnetometer,,,,107.13886260986328,16.701940536499023,0.029083251953125,98.22027587890625,,,,-0.011749267578125,-0.9873809814453125,-0.156890869140625,-0.108714759349823,0.18377116322517395,0.04574272036552429,-70.50894165039062,-111.87283325195312,-321.3858642578125,-0.021881457418203354,-0.01267153024673462,-0.01916596293449402,1.3780623184965424,0.08278625312214906,-0.1023365585810649,0.015838976949453354,-0.9814842343330383,-0.1908864676952362,-0.1158669963479042,0.17317728698253632,0.056697964668273926,,,,,,,,
2499,Accelerometer,,,,107.13886260986328,16.701940536499023,0.029083251953125,98.22027587890625,,,,0.0193634033203125,-0.982696533203125,-0.2486724853515625,-0.108714759349823,0.18377116322517395,0.04574272036552429,-70.50894165039062,-111.87283325195312,-321.3858642578125,-0.021881457418203354,-0.01267153024673462,-0.01916596293449402,1.3780623184965424,0.08278625312214906,-0.1023365585810649,0.015838976949453354,-0.9814842343330383,-0.1908864676952362,-0.1158669963479042,0.17317728698253632,0.056697964668273926,,,,,,,,
2535,COMPASS,,,,106.03459167480469,16.701828002929688,0.029083251953125,98.22027587890625,,,,0.0193634033203125,-0.982696533203125,-0.2486724853515625,-0.108714759349823,0.18377116322517395,0.04574272036552429,-70.50894165039062,-111.87283325195312,-321.3858642578125,-0.021881457418203354,-0.01267153024673462,-0.01916596293449402,1.3780623184965424,0.08278625312214906,-0.1023365585810649,0.015838976949453354,-0.9814842343330383,-0.1908864676952362,-0.1158669963479042,0.17317728698253632,0.056697964668273926,,,,,,,,
2635,COMPASS,,,,104.9173583984375,16.701452255249023,0.029083251953125,98.22027587890625,,,,0.0193634033203125,-0.982696533203125,-0.2486724853515625,-0.108714759349823,0.18377116322517395,0.04574272036552429,-70.50894165039062,-111.87283325195312,-321.3858642578125,-0.021881457418203354,-0.01267153024673462,-0.01916596293449402,1.3780623184965424,0.08278625312214906,-0.1023365585810649,0.015838976949453354,-0.9814842343330383,-0.1908864676952362,-0.1158669963479042,0.17317728698253632,0.056697964668273926,,,,,,,,
2724,Device Motion,,,,104.9173583984375,16.701452255249023,0.029083251953125,98.22027587890625,,,,0.0193634033203125,-0.982696533203125,-0.2486724853515625,-0.108714759349823,0.18377116322517395,0.04574272036552429,-70.50894165039062,-111.87283325195312,-321.3858642578125,0.013734138570725918,0.0519070029258728,-0.006303176283836365,1.3879708047311987,0.048606638404068064,-0.033034999843030814,0.008833609521389008,-0.9833338856697083,-0.18159355223178864,-0.2035037726163864,0.09363240003585815,0.057555925101041794,,,,,,,,
2745,Gyrometer,,,,104.9173583984375,16.701452255249023,0.029083251953125,98.22027587890625,,,,0.0193634033203125,-0.982696533203125,-0.2486724853515625,-0.19271059334278107,0.10293756425380707,0.04507054015994072,-70.50894165039062,-111.87283325195312,-321.3858642578125,0.013734138570725918,0.0519070029258728,-0.006303176283836365,1.3879708047311987,0.048606638404068064,-0.033034999843030814,0.008833609521389008,-0.9833338856697083,-0.18159355223178864,-0.2035037726163864,0.09363240003585815,0.057555925101041794,,,,,,,,
2774,Magnetometer,,,,104.9173583984375,16.701452255249023,0.029083251953125,98.22027587890625,,,,0.0193634033203125,-0.982696533203125,-0.2486724853515625,-0.19271059334278107,0.10293756425380707,0.04507054015994072,-70.28738403320312,-111.14079284667969,-322.7896728515625,0.013734138570725918,0.0519070029258728,-0.006303176283836365,1.3879708047311987,0.048606638404068064,-0.033034999843030814,0.008833609521389008,-0.9833338856697083,-0.18159355223178864,-0.2035037726163864,0.09363240003585815,0.057555925101041794,,,,,,,,
2794,Accelerometer,,,,104.9173583984375,16.701452255249023,0.029083251953125,98.22027587890625,,,,0.030853271484375,-0.9840240478515625,-0.2184906005859375,-0.19271059334278107,0.10293756425380707,0.04507054015994072,-70.28738403320312,-111.14079284667969,-322.7896728515625,0.013734138570725918,0.0519070029258728,-0.006303176283836365,1.3879708047311987,0.048606638404068064,-0.033034999843030814,0.008833609521389008,-0.9833338856697083,-0.18159355223178864,-0.2035037726163864,0.09363240003585815,0.057555925101041794,,,,,,,,
3023,Device Motion,,,,104.9173583984375,16.701452255249023,0.029083251953125,98.22027587890625,,,,0.030853271484375,-0.9840240478515625,-0.2184906005859375,-0.19271059334278107,0.10293756425380707,0.04507054015994072,-70.28738403320312,-111.14079284667969,-322.7896728515625,0.035295940935611725,0.011540532112121582,0.014838874340057373,1.3678739653815344,0.03520239356321528,-0.03612602916054111,0.007092975080013275,-0.9794818162918091,-0.2014080435037613,0.030770251527428627,-0.11801334470510483,-0.01746552623808384,,,,,,,,
3047,Gyrometer,,,,104.9173583984375,16.701452255249023,0.029083251953125,98.22027587890625,,,,0.030853271484375,-0.9840240478515625,-0.2184906005859375,0.056052085012197495,-0.11022717505693436,-0.03574920818209648,-70.28738403320312,-111.14079284667969,-322.7896728515625,0.035295940935611725,0.011540532112121582,0.014838874340057373,1.3678739653815344,0.03520239356321528,-0.03612602916054111,0.007092975080013275,-0.9794818162918091,-0.2014080435037613,0.030770251527428627,-0.11801334470510483,-0.01746552623808384,,,,,,,,
3073,Magnetometer,,,,104.9173583984375,16.701452255249023,0.029083251953125,98.22027587890625,,,,0.030853271484375,-0.9840240478515625,-0.2184906005859375,0.056052085012197495,-0.11022717505693436,-0.03574920818209648,-68.43746948242188,-111.39199829101562,-322.81121826171875,0.035295940935611725,0.011540532112121582,0.014838874340057373,1.3678739653815344,0.03520239356321528,-0.03612602916054111,0.007092975080013275,-0.9794818162918091,-0.2014080435037613,0.030770251527428627,-0.11801334470510483,-0.01746552623808384,,,,,,,,
3098,Altimeter,,,,104.9173583984375,16.701452255249023,0.055511474609375,98.21995544433594,,,,0.030853271484375,-0.9840240478515625,-0.2184906005859375,0.056052085012197495,-0.11022717505693436,-0.03574920818209648,-68.43746948242188,-111.39199829101562,-322.81121826171875,0.035295940935611725,0.011540532112121582,0.014838874340057373,1.3678739653815344,0.03520239356321528,-0.03612602916054111,0.007092975080013275,-0.9794818162918091,-0.2014080435037613,0.030770251527428627,-0.11801334470510483,-0.01746552623808384,,,,,,,,
3117,COMPASS,,,,105.99129486083984,16.700702667236328,0.055511474609375,98.21995544433594,,,,0.030853271484375,-0.9840240478515625,-0.2184906005859375,0.056052085012197495,-0.11022717505693436,-0.03574920818209648,-68.43746948242188,-111.39199829101562,-322.81121826171875,0.035295940935611725,0.011540532112121582,0.014838874340057373,1.3678739653815344,0.03520239356321528,-0.03612602916054111,0.007092975080013275,-0.9794818162918091,-0.2014080435037613,0.030770251527428627,-0.11801334470510483,-0.01746552623808384,,,,,,,,
3127,Accelerometer,,,,105.99129486083984,16.700702667236328,0.055511474609375,98.21995544433594,,,,0.0536956787109375,-0.978485107421875,-0.1429290771484375,0.056052085012197495,-0.11022717505693436,-0.03574920818209648,-68.43746948242188,-111.39199829101562,-322.81121826171875,0.035295940935611725,0.011540532112121582,0.014838874340057373,1.3678739653815344,0.03520239356321528,-0.03612602916054111,0.007092975080013275,-0.9794818162918091,-0.2014080435037613,0.030770251527428627,-0.11801334470510483,-0.01746552623808384,,,,,,,,
3322,Device Motion,,,,105.99129486083984,16.700702667236328,0.055511474609375,98.21995544433594,,,,0.0536956787109375,-0.978485107421875,-0.1429290771484375,0.056052085012197495,-0.11022717505693436,-0.03574920818209648,-68.43746948242188,-111.39199829101562,-322.81121826171875,0.005000188946723938,-0.04709416627883911,0.0053667426109313965,1.3769571422706979,0.038452603796236,-0.06757916392947676,0.007405208423733711,-0.9812719225883484,-0.19248522818088531,-0.10373129695653915,-0.09570774435997009,-0.08577007055282593,,,,,,,,
3348,Gyrometer,,,,105.99129486083984,16.700702667236328,0.055511474609375,98.21995544433594,,,,0.0536956787109375,-0.978485107421875,-0.1429290771484375,-0.1092202290892601,-0.06894604116678238,-0.09741843491792679,-68.43746948242188,-111.39199829101562,-322.81121826171875,0.005000188946723938,-0.04709416627883911,0.0053667426109313965,1.3769571422706979,0.038452603796236,-0.06757916392947676,0.007405208423733711,-0.9812719225883484,-0.19248522818088531,-0.10373129695653915,-0.09570774435997009,-0.08577007055282593,,,,,,,,
3357,COMPASS,,,,107.13436889648438,16.700281143188477,0.055511474609375,98.21995544433594,,,,0.0536956787109375,-0.978485107421875,-0.1429290771484375,-0.1092202290892601,-0.06894604116678238,-0.09741843491792679,-68.43746948242188,-111.39199829101562,-322.81121826171875,0.005000188946723938,-0.04709416627883911,0.0053667426109313965,1.3769571422706979,0.038452603796236,-0.06757916392947676,0.007405208423733711,-0.9812719225883484,-0.19248522818088531,-0.10373129695653915,-0.09570774435997009,-0.08577007055282593,,,,,,,,
3383,Magnetometer,,,,107.13436889648438,16.700281143188477,0.055511474609375,98.21995544433594,,,,0.0536956787109375,-0.978485107421875,-0.1429290771484375,-0.1092202290892601,-0.06894604116678238,-0.09741843491792679,-65.99127197265625,-111.37977600097656,-321.0802001953125,0.005000188946723938,-0.04709416627883911,0.0053667426109313965,1.3769571422706979,0.038452603796236,-0.06757916392947676,0.007405208423733711,-0.9812719225883484,-0.19248522818088531,-0.10373129695653915,-0.09570774435997009,-0.08577007055282593,,,,,,,,
3407,Accelerometer,,,,107.13436889648438,16.700281143188477,0.055511474609375,98.21995544433594,,,,0.000152587890625,-0.979400634765625,-0.212982177734375,-0.1092202290892601,-0.06894604116678238,-0.09741843491792679,-65.99127197265625,-111.37977600097656,-321.0802001953125,0.005000188946723938,-0.04709416627883911,0.0053667426109313965,1.3769571422706979,0.038452603796236,-0.06757916392947676,0.007405208423733711,-0.9812719225883484,-0.19248522818088531,-0.10373129695653915,-0.09570774435997009,-0.08577007055282593,,,,,,,,
3514,COMPASS,,,,108.16948699951172,16.700111389160156,0.055511474609375,98.21995544433594,,,,0.000152587890625,-0.979400634765625,-0.212982177734375,-0.1092202290892601,-0.06894604116678238,-0.09741843491792679,-65.99127197265625,-111.37977600097656,-321.0802001953125,0.005000188946723938,-0.04709416627883911,0.0053667426109313965,1.3769571422706979,0.038452603796236,-0.06757916392947676,0.007405208423733711,-0.9812719225883484,-0.19248522818088531,-0.10373129695653915,-0.09570774435997009,-0.08577007055282593,,,,,,,,
3613,COMPASS,,,,109.20227813720703,16.700002670288086,0.055511474609375,98.21995544433594,,,,0.000152587890625,-0.979400634765625,-0.212982177734375,-0.1092202290892601,-0.06894604116678238,-0.09741843491792679,-65.99127197265625,-111.37977600097656,-321.0802001953125,0.005000188946723938,-0.04709416627883911,0.0053667426109313965,1.3769571422706979,0.038452603796236,-0.06757916392947676,0.007405208423733711,-0.9812719225883484,-0.19248522818088531,-0.10373129695653915,-0.09570774435997009,-0.08577007055282593,,,,,,,,
3637,Device Motion,,,,109.20227813720703,16.700002670288086,0.055511474609375,98.21995544433594,,,,0.000152587890625,-0.979400634765625,-0.212982177734375,-0.1092202290892601,-0.06894604116678238,-0.09741843491792679,-65.99127197265625,-111.37977600097656,-321.0802001953125,-0.053846798837184906,0.022070646286010742,-0.009335696697235107,1.3897970603484964,0.09933011265273217,-0.1594284394213107,0.017851315438747406,-0.9836642742156982,-0.1791256070137024,-0.059368908405303955,-0.10997666418552399,0.09362876415252686,,,,,,,,
3662,Gyrometer,,,,109.20227813720703,16.700002670288086,0.055511474609375,98.21995544433594,,,,0.000152587890625,-0.979400634765625,-0.212982177734375,-0.05269969627261162,-0.080825075507164,0.10163501650094986,-65.99127197265625,-111.37977600097656,-321.0802001953125,-0.053846798837184906,0.022070646286010742,-0.009335696697235107,1.3897970603484964,0.09933011265273217,-0.1594284394213107,0.017851315438747406,-0.9836642742156982,-0.1791256070137024,-0.059368908405303955,-0.10997666418552399,0.09362876415252686,,,,,,,,
3686,Magnetometer,,,,109.20227813720703,16.700002670288086,0.055511474609375,98.21995544433594,,,,0.000152587890625,-0.979400634765625,-0.212982177734375,-0.05269969627261162,-0.080825075507164,0.10163501650094986,-63.7318115234375,-110.19609069824219,-319.54144287109375,-0.053846798837184906,0.022070646286010742,-0.009335696697235107,1.3897970603484964,0.09933011265273217,-0.1594284394213107,0.017851315438747406,-0.9836642742156982,-0.1791256070137024,-0.059368908405303955,-0.10997666418552399,0.09362876415252686,,,,,,,,
3712,Accelerometer,,,,109.20227813720703,16.700002670288086,0.055511474609375,98.21995544433594,,,,0.022918701171875,-0.943145751953125,-0.1796112060546875,-0.05269969627261162,-0.080825075507164,0.10163501650094986,-63.7318115234375,-110.19609069824219,-319.54144287109375,-0.053846798837184906,0.022070646286010742,-0.009335696697235107,1.3897970603484964,0.09933011265273217,-0.1594284394213107,0.017851315438747406,-0.9836642742156982,-0.1791256070137024,-0.059368908405303955,-0.10997666418552399,0.09362876415252686,,,,,,,,
3921,Device Motion,,,,109.20227813720703,16.700002670288086,0.055511474609375,98.21995544433594,,,,0.022918701171875,-0.943145751953125,-0.1796112060546875,-0.05269969627261162,-0.080825075507164,0.10163501650094986,-63.7318115234375,-110.19609069824219,-319.54144287109375,0.0015265196561813354,0.0007340908050537109,0.03653997182846069,1.3687686035794504,0.04700957098095049,-0.10608873389576255,0.00942929182201624,-0.9796617031097412,-0.2004345953464508,-0.05234498903155327,0.060998983681201935,0.012341812252998352,,,,,,,,
3946,Gyrometer,,,,109.20227813720703,16.700002670288086,0.055511474609375,98.21995544433594,,,,0.022918701171875,-0.943145751953125,-0.1796112060546875,-0.043348271399736404,0.056652892380952835,0.0020868529099971056,-63.7318115234375,-110.19609069824219,-319.54144287109375,0.0015265196561813354,0.0007340908050537109,0.03653997182846069,1.3687686035794504,0.04700957098095049,-0.10608873389576255,0.00942929182201624,-0.9796617031097412,-0.2004345953464508,-0.05234498903155327,0.060998983681201935,0.012341812252998352,,,,,,,,
3972,Magnetometer,,,,109.20227813720703,16.700002670288086,0.055511474609375,98.21995544433594,,,,0.022918701171875,-0.943145751953125,-0.1796112060546875,-0.043348271399736404,0.056652892380952835,0.0020868529099971056,-62.737884521484375,-109.39974975585938,-318.9267578125,0.0015265196561813354,0.0007340908050537109,0.03653997182846069,1.3687686035794504,0.04700957098095049,-0.10608873389576255,0.00942929182201624,-0.9796617031097412,-0.2004345953464508,-0.05234498903155327,0.060998983681201935,0.012341812252998352,,,,,,,,
4005,Accelerometer,,,,109.20227813720703,16.700002670288086,0.055511474609375,98.21995544433594,,,,-0.0133819580078125,-1.037017822265625,-0.174774169921875,-0.043348271399736404,0.056652892380952835,0.0020868529099971056,-62.737884521484375,-109.39974975585938,-318.9267578125,0.0015265196561813354,0.0007340908050537109,0.03653997182846069,1.3687686035794504,0.04700957098095049,-0.10608873389576255,0.00942929182201624,-0.9796617031097412,-0.2004345953464508,-0.05234498903155327,0.060998983681201935,0.012341812252998352,,,,,,,,
4031,COMPASS,,,,108.05280303955078,16.699748992919922,0.055511474609375,98.21995544433594,,,,-0.0133819580078125,-1.037017822265625,-0.174774169921875,-0.043348271399736404,0.056652892380952835,0.0020868529099971056,-62.737884521484375,-109.39974975585938,-318.9267578125,0.0015265196561813354,0.0007340908050537109,0.03653997182846069,1.3687686035794504,0.04700957098095049,-0.10608873389576255,0.00942929182201624,-0.9796617031097412,-0.2004345953464508,-0.05234498903155327,0.060998983681201935,0.012341812252998352,,,,,,,,
4080,Altimeter,,,,108.05280303955078,16.699748992919922,0.113616943359375,98.21928405761719,,,,-0.0133819580078125,-1.037017822265625,-0.174774169921875,-0.043348271399736404,0.056652892380952835,0.0020868529099971056,-62.737884521484375,-109.39974975585938,-318.9267578125,0.0015265196561813354,0.0007340908050537109,0.03653997182846069,1.3687686035794504,0.04700957098095049,-0.10608873389576255,0.00942929182201624,-0.9796617031097412,-0.2004345953464508,-0.05234498903155327,0.060998983681201935,0.012341812252998352,,,,,,,,
4171,COMPASS,,,,106.9100112915039,16.699737548828125,0.113616943359375,98.21928405761719,,,,-0.0133819580078125,-1.037017822265625,-0.174774169921875,-0.043348271399736404,0.056652892380952835,0.0020868529099971056,-62.737884521484375,-109.39974975585938,-318.9267578125,0.0015265196561813354,0.0007340908050537109,0.03653997182846069,1.3687686035794504,0.04700957098095049,-0.10608873389576255,0.00942929182201624,-0.9796617031097412,-0.2004345953464508,-0.05234498903155327,0.060998983681201935,0.012341812252998352,,,,,,,,
4220,Device Motion,,,,106.9100112915039,16.699737548828125,0.113616943359375,98.21928405761719,,,,-0.0133819580078125,-1.037017822265625,-0.174774169921875,-0.043348271399736404,0.056652892380952835,0.0020868529099971056,-62.737884521484375,-109.39974975585938,-318.9267578125,0.027950366958975792,0.00810229778289795,-0.08890601992607117,1.370438766710683,0.04872339896621482,-0.06466574042355464,0.00969306193292141,-0.9799954891204834,-0.19878314435482025,0.03499319404363632,0.04341089352965355,0.07324777543544769,,,,,,,,
4244,Gyrometer,,,,106.9100112915039,16.699737548828125,0.113616943359375,98.21928405761719,,,,-0.0133819580078125,-1.037017822265625,-0.174774169921875,0.064761683344841,0.021046696230769157,0.042577020823955536,-62.737884521484375,-109.39974975585938,-318.9267578125,0.027950366958975792,0.00810229778289795,-0.08890601992607117,1.370438766710683,0.04872339896621482,-0.06466574042355464,0.00969306193292141,-0.9799954891204834,-0.19878314435482025,0.03499319404363632,0.04341089352965355,0.07324777543544769,,,,,,,,
4272,Magnetometer,,,,106.9100112915039,16.699737548828125,0.113616943359375,98.21928405761719,,,,-0.0133819580078125,-1.037017822265625,-0.174774169921875,0.064761683344841,0.021046696230769157,0.042577020823955536,-61.941070556640625,-108.89993286132812,-318.3857116699219,0.027950366958975792,0.00810229778289795,-0.08890601992607117,1.370438766710683,0.04872339896621482,-0.06466574042355464,0.00969306193292141,-0.9799954891204834,-0.19878314435482025,0.03499319404363632,0.04341089352965355,0.07324777543544769,,,,,,,,
4308,Accelerometer,,,,106.9100112915039,16.699737548828125,0.113616943359375,98.21928405761719,,,,-0.009490966796875,-0.9476318359375,-0.2080078125,0.064761683344841,0.021046696230769157,0.042577020823955536,-61.941070556640625,-108.89993286132812,-318.3857116699219,0.027950366958975792,0.00810229778289795,-0.08890601992607117,1.370438766710683,0.04872339896621482,-0.06466574042355464,0.00969306193292141,-0.9799954891204834,-0.19878314435482025,0.03499319404363632,0.04341089352965355,0.07324777543544769,,,,,,,,
4332,COMPASS,,,,105.72920989990234,16.69977378845215,0.113616943359375,98.21928405761719,,,,-0.009490966796875,-0.9476318359375,-0.2080078125,0.064761683344841,0.021046696230769157,0.042577020823955536,-61.941070556640625,-108.89993286132812,-318.3857116699219,0.027950366958975792,0.00810229778289795,-0.08890601992607117,1.370438766710683,0.04872339896621482,-0.06466574042355464,0.00969306193292141,-0.9799954891204834,-0.19878314435482025,0.03499319404363632,0.04341089352965355,0.07324777543544769,,,,,,,,
4519,Device Motion,,,,105.72920989990234,16.69977378845215,0.113616943359375,98.21928405761719,,,,-0.009490966796875,-0.9476318359375,-0.2080078125,0.064761683344841,0.021046696230769157,0.042577020823955536,-61.941070556640625,-108.89993286132812,-318.3857116699219,0.011904388666152954,0.03400200605392456,-0.013075590133666992,1.3739478942077041,0.008257073159625171,-0.009261872767025565,0.001614897744730115,-0.9806878566741943,-0.19557306170463562,-0.020489152520895004,0.039850447326898575,0.02603415958583355,,,,,,,,
4544,Gyrometer,,,,105.72920989990234,16.69977378845215,0.113616943359375,98.21928405761719,,,,-0.009490966796875,-0.9476318359375,-0.2080078125,0.03243890032172203,0.023058447986841202,0.02359081245958805,-61.941070556640625,-108.89993286132812,-318.3857116699219,0.011904388666152954,0.03400200605392456,-0.013075590133666992,1.3739478942077041,0.008257073159625171,-0.009261872767025565,0.001614897744730115,-0.9806878566741943,-0.19557306170463562,-0.020489152520895004,0.039850447326898575,0.02603415958583355,,,,,,,,
4571,Magnetometer,,,,105.72920989990234,16.69977378845215,0.113616943359375,98.21928405761719,,,,-0.009490966796875,-0.9476318359375,-0.2080078125,0.03243890032172203,0.023058447986841202,0.02359081245958805,-62.02360534667969,-107.75732421875,-318.068603515625,0.011904388666152954,0.03400200605392456,-0.013075590133666992,1.3739478942077041,0.008257073159625171,-0.009261872767025565,0.001614897744730115,-0.9806878566741943,-0.19557306170463562,-0.020489152520895004,0.039850447326898575,0.02603415958583355,,,,,,,,
4611,Accelerometer,,,,105.72920989990234,16.69977378845215,0.113616943359375,98.21928405761719,,,,0.0099945068359375,-0.9299163818359375,-0.2012786865234375,0.03243890032172203,0.023058447986841202,0.02359081245958805,-62.02360534667969,-107.75732421875,-318.068603515625,0.011904388666152954,0.03400200605392456,-0.013075590133666992,1.3739478942077041,0.008257073159625171,-0.009261872767025565,0.001614897744730115,-0.9806878566741943,-0.19557306170463562,-0.020489152520895004,0.039850447326898575,0.02603415958583355,,,,,,,,
4818,Device Motion,,,,105.72920989990234,16.69977378845215,0.113616943359375,98.21928405761719,,,,0.0099945068359375,-0.9299163818359375,-0.2012786865234375,0.03243890032172203,0.023058447986841202,0.02359081245958805,-62.02360534667969,-107.75732421875,-318.068603515625,0.01795479655265808,-0.016081631183624268,0.039130717515945435,1.3692224162822753,-0.009502847023445485,-0.016270829257817414,-0.0019025509245693684,-0.9797526597976685,-0.20020249485969543,-0.05927978456020355,-0.11373521387577057,0.012234424240887165,,,,,,,,
4842,Gyrometer,,,,105.72920989990234,16.69977378845215,0.113616943359375,98.21928405761719,,,,0.0099945068359375,-0.9299163818359375,-0.2012786865234375,-0.06097546964883804,-0.08566856384277344,-0.019758524373173714,-62.02360534667969,-107.75732421875,-318.068603515625,0.01795479655265808,-0.016081631183624268,0.039130717515945435,1.3692224162822753,-0.009502847023445485,-0.016270829257817414,-0.0019025509245693684,-0.9797526597976685,-0.20020249485969543,-0.05927978456020355,-0.11373521387577057,0.012234424240887165,,,,,,,,
4872,Magnetometer,,,,105.72920989990234,16.69977378845215,0.113616943359375,98.21928405761719,,,,0.0099945068359375,-0.9299163818359375,-0.2012786865234375,-0.06097546964883804,-0.08566856384277344,-0.019758524373173714,-61.86763000488281,-106.43659973144531,-316.44805908203125,0.01795479655265808,-0.016081631183624268,0.039130717515945435,1.3692224162822753,-0.009502847023445485,-0.016270829257817414,-0.0019025509245693684,-0.9797526597976685,-0.20020249485969543,-0.05927978456020355,-0.11373521387577057,0.012234424240887165,,,,,,,,
4909,COMPASS,,,,106.83232879638672,16.6993465423584,0.113616943359375,98.21928405761719,,,,0.0099945068359375,-0.9299163818359375,-0.2012786865234375,-0.06097546964883804,-0.08566856384277344,-0.019758524373173714,-61.86763000488281,-106.43659973144531,-316.44805908203125,0.01795479655265808,-0.016081631183624268,0.039130717515945435,1.3692224162822753,-0.009502847023445485,-0.016270829257817414,-0.0019025509245693684,-0.9797526597976685,-0.20020249485969543,-0.05927978456020355,-0.11373521387577057,0.012234424240887165,,,,,,,,
4934,Accelerometer,,,,106.83232879638672,16.6993465423584,0.113616943359375,98.21928405761719,,,,0.0241546630859375,-1.038299560546875,-0.158935546875,-0.06097546964883804,-0.08566856384277344,-0.019758524373173714,-61.86763000488281,-106.43659973144531,-316.44805908203125,0.01795479655265808,-0.016081631183624268,0.039130717515945435,1.3692224162822753,-0.009502847023445485,-0.016270829257817414,-0.0019025509245693684,-0.9797526597976685,-0.20020249485969543,-0.05927978456020355,-0.11373521387577057,0.012234424240887165,,,,,,,,
5087,Altimeter,,,,106.83232879638672,16.6993465423584,0.163818359375,98.21868896484375,,,,0.0241546630859375,-1.038299560546875,-0.158935546875,-0.06097546964883804,-0.08566856384277344,-0.019758524373173714,-61.86763000488281,-106.43659973144531,-316.44805908203125,0.01795479655265808,-0.016081631183624268,0.039130717515945435,1.3692224162822753,-0.009502847023445485,-0.016270829257817414,-0.0019025509245693684,-0.9797526597976685,-0.20020249485969543,-0.05927978456020355,-0.11373521387577057,0.012234424240887165,,,,,,,,
5117,Device Motion,,,,106.83232879638672,16.6993465423584,0.163818359375,98.21868896484375,,,,0.0241546630859375,-1.038299560546875,-0.158935546875,-0.06097546964883804,-0.08566856384277344,-0.019758524373173714,-61.86763000488281,-106.43659973144531,-316.44805908203125,0.009613946080207825,0.026129305362701416,0.014048710465431213,1.3630163698189788,-0.026044263300538866,-0.0301352046070118,-0.005372007377445698,-0.9784913063049316,-0.20621788501739502,0.1019129827618599,-0.021461253985762596,-0.020005742087960243,,,,,,,,
5140,Gyrometer,,,,106.83232879638672,16.6993465423584,0.163818359375,98.21868896484375,,,,0.0241546630859375,-1.038299560546875,-0.158935546875,0.0907546728849411,-0.03139733895659447,-0.017669009044766426,-61.86763000488281,-106.43659973144531,-316.44805908203125,0.009613946080207825,0.026129305362701416,0.014048710465431213,1.3630163698189788,-0.026044263300538866,-0.0301352046070118,-0.005372007377445698,-0.9784913063049316,-0.20621788501739502,0.1019129827618599,-0.021461253985762596,-0.020005742087960243,,,,,,,,
5164,COMPASS,,,,107.84852600097656,16.699365615844727,0.163818359375,98.21868896484375,,,,0.0241546630859375,-1.038299560546875,-0.158935546875,0.0907546728849411,-0.03139733895659447,-0.017669009044766426,-61.86763000488281,-106.43659973144531,-316.44805908203125,0.009613946080207825,0.026129305362701416,0.014048710465431213,1.3630163698189788,-0.026044263300538866,-0.0301352046070118,-0.005372007377445698,-0.9784913063049316,-0.20621788501739502,0.1019129827618599,-0.021461253985762596,-0.020005742087960243,,,,,,,,
5190,Magnetometer,,,,107.84852600097656,16.699365615844727,0.163818359375,98.21868896484375,,,,0.0241546630859375,-1.038299560546875,-0.158935546875,0.0907546728849411,-0.03139733895659447,-0.017669009044766426,-62.39117431640625,-105.07467651367188,-315.85308837890625,0.009613946080207825,0.026129305362701416,0.014048710465431213,1.3630163698189788,-0.026044263300538866,-0.0301352046070118,-0.005372007377445698,-0.9784913063049316,-0.20621788501739502,0.1019129827618599,-0.021461253985762596,-0.020005742087960243,,,,,,,,
5217,Accelerometer,,,,107.84852600097656,16.699365615844727,0.163818359375,98.21868896484375,,,,-0.0285186767578125,-0.9381103515625,-0.260528564453125,0.0907546728849411,-0.03139733895659447,-0.017669009044766426,-62.39117431640625,-105.07467651367188,-315.85308837890625,0.009613946080207825,0.026129305362701416,0.014048710465431213,1.3630163698189788,-0.026044263300538866,-0.0301352046070118,-0.005372007377445698,-0.9784913063049316,-0.20621788501739502,0.1019129827618599,-0.021461253985762596,-0.020005742087960243,,,,,,,,
5248,COMPASS,,,,108.96478271484375,16.699241638183594,0.163818359375,98.21868896484375,,,,-0.0285186767578125,-0.9381103515625,-0.260528564453125,0.0907546728849411,-0.03139733895659447,-0.017669009044766426,-62.39117431640625,-105.07467651367188,-315.85308837890625,0.009613946080207825,0.026129305362701416,0.014048710465431213,1.3630163698189788,-0.026044263300538866,-0.0301352046070118,-0.005372007377445698,-0.9784913063049316,-0.20621788501739502,0.1019129827618599,-0.021461253985762596,-0.020005742087960243,,,,,,,,
5416,Device Motion,,,,108.96478271484375,16.699241638183594,0.163818359375,98.21868896484375,,,,-0.0285186767578125,-0.9381103515625,-0.260528564453125,0.0907546728849411,-0.03139733895659447,-0.017669009044766426,-62.39117431640625,-105.07467651367188,-315.85308837890625,0.00545211136341095,0.013135552406311035,-0.028268963098526,1.3667812741641656,0.007884720599126894,-0.08891777091262863,0.0015974498819559813,-0.979261040687561,-0.2025965005159378,-0.031402163207530975,-0.026010388508439064,-0.041722822934389114,,,,,,,,
5441,Gyrometer,,,,108.96478271484375,16.699241638183594,0.163818359375,98.21868896484375,,,,-0.0285186767578125,-0.9381103515625,-0.260528564453125,-0.046733416616916656,-0.04368383064866066,-0.014603976160287857,-62.39117431640625,-105.07467651367188,-315.85308837890625,0.00545211136341095,0.013135552406311035,-0.028268963098526,1.3667812741641656,0.007884720599126894,-0.08891777091262863,0.0015974498819559813,-0.979261040687561,-0.2025965005159378,-0.031402163207530975,-0.026010388508439064,-0.041722822934389114,,,,,,,,
5470,Magnetometer,,,,108.96478271484375,16.699241638183594,0.163818359375,98.21868896484375,,,,-0.0285186767578125,-0.9381103515625,-0.260528564453125,-0.046733416616916656,-0.04368383064866066,-0.014603976160287857,-62.00325012207031,-104.650146484375,-314.99652099609375,0.00545211136341095,0.013135552406311035,-0.028268963098526,1.3667812741641656,0.007884720599126894,-0.08891777091262863,0.0015974498819559813,-0.979261040687561,-0.2025965005159378,-0.031402163207530975,-0.026010388508439064,-0.041722822934389114,,,,,,,,
5520,Accelerometer,,,,108.96478271484375,16.699241638183594,0.163818359375,98.21868896484375,,,,-0.0320892333984375,-0.95947265625,-0.19781494140625,-0.046733416616916656,-0.04368383064866066,-0.014603976160287857,-62.00325012207031,-104.650146484375,-314.99652099609375,0.00545211136341095,0.013135552406311035,-0.028268963098526,1.3667812741641656,0.007884720599126894,-0.08891777091262863,0.0015974498819559813,-0.979261040687561,-0.2025965005159378,-0.031402163207530975,-0.026010388508439064,-0.041722822934389114,,,,,,,,
5545,Activity Manager,,,,108.96478271484375,16.699241638183594,0.163818359375,98.21868896484375,,,,-0.0320892333984375,-0.95947265625,-0.19781494140625,-0.046733416616916656,-0.04368383064866066,-0.014603976160287857,-62.00325012207031,-104.650146484375,-314.99652099609375,0.00545211136341095,0.013135552406311035,-0.028268963098526,1.3667812741641656,0.007884720599126894,-0.08891777091262863,0.0015974498819559813,-0.979261040687561,-0.2025965005159378,-0.031402163207530975,-0.026010388508439064,-0.041722822934389114,,,,,,,,
5715,Device Motion,,,,108.96478271484375,16.699241638183594,0.163818359375,98.21868896484375,,,,-0.0320892333984375,-0.95947265625,-0.19781494140625,-0.046733416616916656,-0.04368383064866066,-0.014603976160287857,-62.00325012207031,-104.650146484375,-314.99652099609375,-0.026409417390823364,-0.027107417583465576,0.04079049825668335,1.3601573024389706,0.018520730889313587,-0.07772765961057955,0.003872185479849577,-0.9778975248336792,-0.20904913544654846,0.031470607966184616,0.2305099070072174,-0.010557468049228191,,,,,,,,
5740,Gyrometer,,,,108.96478271484375,16.699241638183594,0.163818359375,98.21868896484375,,,,-0.0320892333984375,-0.95947265625,-0.19781494140625,0.050874099135398865,0.23598402738571167,0.041367147117853165,-62.00325012207031,-104.650146484375,-314.99652099609375,-0.026409417390823364,-0.027107417583465576,0.04079049825668335,1.3601573024389706,0.018520730889313587,-0.07772765961057955,0.003872185479849577,-0.9778975248336792,-0.20904913544654846,0.031470607966184616,0.2305099070072174,-0.010557468049228191,,,,,,,,
5766,COMPASS,,,,107.73310852050781,16.69883155822754,0.163818359375,98.21868896484375,,,,-0.0320892333984375,-0.95947265625,-0.19781494140625,0.050874099135398865,0.23598402738571167,0.041367147117853165,-62.00325012207031,-104.650146484375,-314.99652099609375,-0.026409417390823364,-0.027107417583465576,0.04079049825668335,1.3601573024389706,0.018520730889313587,-0.07772765961057955,0.003872185479849577,-0.9778975248336792,-0.20904913544654846,0.031470607966184616,0.2305099070072174,-0.010557468049228191,,,,,,,,
5791,Magnetometer,,,,107.73310852050781,16.69883155822754,0.163818359375,98.21868896484375,,,,-0.0320892333984375,-0.95947265625,-0.19781494140625,0.050874099135398865,0.23598402738571167,0.041367147117853165,-61.84014892578125,-102.75764465332031,-315.90032958984375,-0.026409417390823364,-0.027107417583465576,0.04079049825668335,1.3601573024389706,0.018520730889313587,-0.07772765961057955,0.003872185479849577,-0.9778975248336792,-0.20904913544654846,0.031470607966184616,0.2305099070072174,-0.010557468049228191,,,,,,,,
5822,Accelerometer,,,,107.73310852050781,16.69883155822754,0.163818359375,98.21868896484375,,,,-0.01361083984375,-1.05413818359375,-0.148162841796875,0.050874099135398865,0.23598402738571167,0.041367147117853165,-61.84014892578125,-102.75764465332031,-315.90032958984375,-0.026409417390823364,-0.027107417583465576,0.04079049825668335,1.3601573024389706,0.018520730889313587,-0.07772765961057955,0.003872185479849577,-0.9778975248336792,-0.20904913544654846,0.031470607966184616,0.2305099070072174,-0.010557468049228191,,,,,,,,
5846,COMPASS,,,,106.3490219116211,16.698793411254883,0.163818359375,98.21868896484375,,,,-0.01361083984375,-1.05413818359375,-0.148162841796875,0.050874099135398865,0.23598402738571167,0.041367147117853165,-61.84014892578125,-102.75764465332031,-315.90032958984375,-0.026409417390823364,-0.027107417583465576,0.04079049825668335,1.3601573024389706,0.018520730889313587,-0.07772765961057955,0.003872185479849577,-0.9778975248336792,-0.20904913544654846,0.031470607966184616,0.2305099070072174,-0.010557468049228191,,,,,,,,
5946,COMPASS,,,,105.32505798339844,16.698848724365234,0.163818359375,98.21868896484375,,,,-0.01361083984375,-1.05413818359375,-0.148162841796875,0.050874099135398865,0.23598402738571167,0.041367147117853165,-61.84014892578125,-102.75764465332031,-315.90032958984375,-0.026409417390823364,-0.027107417583465576,0.04079049825668335,1.3601573024389706,0.018520730889313587,-0.07772765961057955,0.003872185479849577,-0.9778975248336792,-0.20904913544654846,0.031470607966184616,0.2305099070072174,-0.010557468049228191,,,,,,,,
6015,Device Motion,,,,105.32505798339844,16.698848724365234,0.163818359375,98.21868896484375,,,,-0.01361083984375,-1.05413818359375,-0.148162841796875,0.050874099135398865,0.23598402738571167,0.041367147117853165,-61.84014892578125,-102.75764465332031,-315.90032958984375,0.0027497904375195503,0.023848235607147217,-0.02387617528438568,1.3686779492679124,-0.05621752267917478,0.05796548669363421,-0.011279452592134476,-0.9796435236930847,-0.20042802393436432,0.09786549210548401,0.23932509124279022,0.17471079528331757,,,,,,,,
6039,COMPASS,,,,103.92371368408203,16.698833465576172,0.163818359375,98.21868896484375,,,,-0.01361083984375,-1.05413818359375,-0.148162841796875,0.050874099135398865,0.23598402738571167,0.041367147117853165,-61.84014892578125,-102.75764465332031,-315.90032958984375,0.0027497904375195503,0.023848235607147217,-0.02387617528438568,1.3686779492679124,-0.05621752267917478,0.05796548669363421,-0.011279452592134476,-0.9796435236930847,-0.20042802393436432,0.09786549210548401,0.23932509124279022,0.17471079528331757,,,,,,,,
6065,Gyrometer,,,,103.92371368408203,16.698833465576172,0.163818359375,98.21868896484375,,,,-0.01361083984375,-1.05413818359375,-0.148162841796875,0.11726750433444977,0.2333752065896988,0.1651836335659027,-61.84014892578125,-102.75764465332031,-315.90032958984375,0.0027497904375195503,0.023848235607147217,-0.02387617528438568,1.3686779492679124,-0.05621752267917478,0.05796548669363421,-0.011279452592134476,-0.9796435236930847,-0.20042802393436432,0.09786549210548401,0.23932509124279022,0.17471079528331757,,,,,,,,
6089,COMPASS,,,,102.9052505493164,16.698810577392578,0.163818359375,98.21868896484375,,,,-0.01361083984375,-1.05413818359375,-0.148162841796875,0.11726750433444977,0.2333752065896988,0.1651836335659027,-61.84014892578125,-102.75764465332031,-315.90032958984375,0.0027497904375195503,0.023848235607147217,-0.02387617528438568,1.3686779492679124,-0.05621752267917478,0.05796548669363421,-0.011279452592134476,-0.9796435236930847,-0.20042802393436432,0.09786549210548401,0.23932509124279022,0.17471079528331757,,,,,,,,
6115,Magnetometer,,,,102.9052505493164,16.698810577392578,0.163818359375,98.21868896484375,,,,-0.01361083984375,-1.05413818359375,-0.148162841796875,0.11726750433444977,0.2333752065896988,0.1651836335659027,-62.66606140136719,-100.5968017578125,-316.8668212890625,0.0027497904375195503,0.023848235607147217,-0.02387617528438568,1.3686779492679124,-0.05621752267917478,0.05796548669363421,-0.011279452592134476,-0.9796435236930847,-0.20042802393436432,0.09786549210548401,0.23932509124279022,0.17471079528331757,,,,,,,,
6139,Altimeter,,,,102.9052505493164,16.698810577392578,0.26953125,98.21746063232422,,,,-0.01361083984375,-1.05413818359375,-0.148162841796875,0.11726750433444977,0.2333752065896988,0.1651836335659027,-62.66606140136719,-100.5968017578125,-316.8668212890625,0.0027497904375195503,0.023848235607147217,-0.02387617528438568,1.3686779492679124,-0.05621752267917478,0.05796548669363421,-0.011279452592134476,-0.9796435236930847,-0.20042802393436432,0.09786549210548401,0.23932509124279022,0.17471079528331757,,,,,,,,
6163,Accelerometer,,,,102.9052505493164,16.698810577392578,0.26953125,98.21746063232422,,,,0.0311737060546875,-0.919158935546875,-0.2068328857421875,0.11726750433444977,0.2333752065896988,0.1651836335659027,-62.66606140136719,-100.5968017578125,-316.8668212890625,0.0027497904375195503,0.023848235607147217,-0.02387617528438568,1.3686779492679124,-0.05621752267917478,0.05796548669363421,-0.011279452592134476,-0.9796435236930847,-0.20042802393436432,0.09786549210548401,0.23932509124279022,0.17471079528331757,,,,,,,,
6314,Device Motion,,,,102.9052505493164,16.698810577392578,0.26953125,98.21746063232422,,,,0.0311737060546875,-0.919158935546875,-0.2068328857421875,0.11726750433444977,0.2333752065896988,0.1651836335659027,-62.66606140136719,-100.5968017578125,-316.8668212890625,0.01654472015798092,-0.00999915599822998,0.0044769346714019775,1.363112391505679,-0.05807043112891959,0.07529405639401245,-0.011967088095843792,-0.9785110950469971,-0.20584717392921448,-0.04868820309638977,0.0007856227457523346,0.028234034776687622,,,,,,,,
6332,Gyrometer,,,,102.9052505493164,16.698810577392578,0.26953125,98.21746063232422,,,,0.0311737060546875,-0.919158935546875,-0.2068328857421875,-0.07960934191942215,-0.021145232021808624,0.07516372948884964,-62.66606140136719,-100.5968017578125,-316.8668212890625,0.01654472015798092,-0.00999915599822998,0.0044769346714019775,1.363112391505679,-0.05807043112891959,0.07529405639401245,-0.011967088095843792,-0.9785110950469971,-0.20584717392921448,-0.04868820309638977,0.0007856227457523346,0.028234034776687622,,,,,,,,
