Timestamp (ms),Triggering Sensor,Latitude,Longitude,Altitude,Heading (degrees),Heading accuracy (degrees),Relative Altitude (m),Pressure (kPa),Speed (m/s),Speed Accuracy (m/s),Floor,Acceleration - X axis,Acceleration - Y axis,Acceleration - Z axis,Gyrometer - X axis,Gyrometer - Y axis,Gyrometer - Z axis,Magnetometer - X axis,Magnetometer - Y axis,Magnetometer - Z axis,User acceleration - X axis,User acceleration - Y axis,User acceleration - Z axis,Attitude Pitch,Attitude Roll,Attitude Yaw,Gravity - X axis,Gravity - Y axis,Gravity - Z axis,Rotation Rate - X axis,Rotation Rate - Y axis,Rotation Rate - Z axis,Activity Type,Number of Steps,Distance,Floors Ascended,Floors Descended,Current Pace,Current Cadence,Average Active Pace
12,Gyrometer,,,,,,,,,,,,,,-0.054613709449768066,0.0835481584072113,-0.017423732206225395,,,,,,,,,,,,,,,,,,,,,,,
39,GPS,40.44360107649935,-79.94454034936066,289.73665618896484,,,,,-1.0,-1.0,N/A,,,,-0.054613709449768066,0.0835481584072113,-0.017423732206225395,,,,,,,,,,,,,,,,,,,,,,,
66,GPS,40.4437382834437,-79.94452279960717,289.73200607299805,,,,,-1.0,-1.0,N/A,,,,-0.054613709449768066,0.0835481584072113,-0.017423732206225395,,,,,,,,,,,,,,,,,,,,,,,
95,COMPASS,40.4437382834437,-79.94452279960717,289.73200607299805,315.0343933105469,15.676591873168945,,,-1.0,-1.0,N/A,,,,-0.054613709449768066,0.0835481584072113,-0.017423732206225395,,,,,,,,,,,,,,,,,,,,,,,
124,Accelerometer,40.4437382834437,-79.94452279960717,289.73200607299805,315.0343933105469,15.676591873168945,,,-1.0,-1.0,N/A,-0.0027313232421875,-0.9674835205078125,-0.189453125,-0.054613709449768066,0.0835481584072113,-0.017423732206225395,,,,,,,,,,,,,,,,,,,,,,,
154,Magnetometer,40.4437382834437,-79.94452279960717,289.73200607299805,315.0343933105469,15.676591873168945,,,-1.0,-1.0,N/A,-0.0027313232421875,-0.9674835205078125,-0.189453125,-0.054613709449768066,0.0835481584072113,-0.017423732206225395,-33.90850830078125,-113.41355895996094,-330.228515625,,,,,,,,,,,,,,,,,,,,
184,GPS,40.44393641088974,-79.94448086009608,289.7317008972168,315.0343933105469,15.676591873168945,,,-1.0,-1.0,N/A,-0.0027313232421875,-0.9674835205078125,-0.189453125,-0.054613709449768066,0.0835481584072113,-0.017423732206225395,-33.90850830078125,-113.41355895996094,-330.228515625,,,,,,,,,,,,,,,,,,,,
213,GPS,40.443924455444865,-79.94448087504803,289.7317008972168,315.0343933105469,15.676591873168945,,,-1.0,-1.0,N/A,-0.0027313232421875,-0.9674835205078125,-0.189453125,-0.054613709449768066,0.0835481584072113,-0.017423732206225395,-33.90850830078125,-113.41355895996094,-330.228515625,,,,,,,,,,,,,,,,,,,,
243,Activity Manager,40.443924455444865,-79.94448087504803,289.7317008972168,315.0343933105469,15.676591873168945,,,-1.0,-1.0,N/A,-0.0027313232421875,-0.9674835205078125,-0.189453125,-0.054613709449768066,0.0835481584072113,-0.017423732206225395,-33.90850830078125,-113.41355895996094,-330.228515625,,,,,,,,,,,,,,,,,,,,
272,COMPASS,40.443924455444865,-79.94448087504803,289.7317008972168,316.0465087890625,15.672579765319824,,,-1.0,-1.0,N/A,-0.0027313232421875,-0.9674835205078125,-0.189453125,-0.054613709449768066,0.0835481584072113,-0.017423732206225395,-33.90850830078125,-113.41355895996094,-330.228515625,,,,,,,,,,,,,,,,,,,,
302,Device Motion,40.443924455444865,-79.94448087504803,289.7317008972168,316.0465087890625,15.672579765319824,,,-1.0,-1.0,N/A,-0.0027313232421875,-0.9674835205078125,-0.189453125,-0.054613709449768066,0.0835481584072113,-0.017423732206225395,-33.90850830078125,-113.41355895996094,-330.228515625,-0.00012281723320484161,0.0008144974708557129,0.032484784722328186,1.3398059047741917,0.06830524626492242,-0.05411217971688781,0.01562575250864029,-0.9734401106834412,-0.22840768098831177,-0.011092807166278362,-0.05796431005001068,-0.024215050041675568,,,,,,,,
331,Gyrometer,40.443924455444865,-79.94448087504803,289.7317008972168,316.0465087890625,15.672579765319824,,,-1.0,-1.0,N/A,-0.0027313232421875,-0.9674835205078125,-0.189453125,-0.11134357005357742,-0.10906390100717545,-0.040407076478004456,-33.90850830078125,-113.41355895996094,-330.228515625,-0.00012281723320484161,0.0008144974708557129,0.032484784722328186,1.3398059047741917,0.06830524626492242,-0.05411217971688781,0.01562575250864029,-0.9734401106834412,-0.22840768098831177,-0.011092807166278362,-0.05796431005001068,-0.024215050041675568,,,,,,,,
361,Accelerometer,40.443924455444865,-79.94448087504803,289.7317008972168,316.0465087890625,15.672579765319824,,,-1.0,-1.0,N/A,0.0228118896484375,-0.9711761474609375,-0.1988067626953125,-0.11134357005357742,-0.10906390100717545,-0.040407076478004456,-33.90850830078125,-113.41355895996094,-330.228515625,-0.00012281723320484161,0.0008144974708557129,0.032484784722328186,1.3398059047741917,0.06830524626492242,-0.05411217971688781,0.01562575250864029,-0.9734401106834412,-0.22840768098831177,-0.011092807166278362,-0.05796431005001068,-0.024215050041675568,,,,,,,,
391,Magnetometer,40.443924455444865,-79.94448087504803,289.7317008972168,316.0465087890625,15.672579765319824,,,-1.0,-1.0,N/A,0.0228118896484375,-0.9711761474609375,-0.1988067626953125,-0.11134357005357742,-0.10906390100717545,-0.040407076478004456,-34.24729919433594,-113.3599853515625,-330.62310791015625,-0.00012281723320484161,0.0008144974708557129,0.032484784722328186,1.3398059047741917,0.06830524626492242,-0.05411217971688781,0.01562575250864029,-0.9734401106834412,-0.22840768098831177,-0.011092807166278362,-0.05796431005001068,-0.024215050041675568,,,,,,,,
442,COMPASS,40.443924455444865,-79.94448087504803,289.7317008972168,317.0999450683594,15.670928001403809,,,-1.0,-1.0,N/A,0.0228118896484375,-0.9711761474609375,-0.1988067626953125,-0.11134357005357742,-0.10906390100717545,-0.040407076478004456,-34.24729919433594,-113.3599853515625,-330.62310791015625,-0.00012281723320484161,0.0008144974708557129,0.032484784722328186,1.3398059047741917,0.06830524626492242,-0.05411217971688781,0.01562575250864029,-0.9734401106834412,-0.22840768098831177,-0.011092807166278362,-0.05796431005001068,-0.024215050041675568,,,,,,,,
513,Activity Manager,40.443924455444865,-79.94448087504803,289.7317008972168,317.0999450683594,15.670928001403809,,,-1.0,-1.0,N/A,0.0228118896484375,-0.9711761474609375,-0.1988067626953125,-0.11134357005357742,-0.10906390100717545,-0.040407076478004456,-34.24729919433594,-113.3599853515625,-330.62310791015625,-0.00012281723320484161,0.0008144974708557129,0.032484784722328186,1.3398059047741917,0.06830524626492242,-0.05411217971688781,0.01562575250864029,-0.9734401106834412,-0.22840768098831177,-0.011092807166278362,-0.05796431005001068,-0.024215050041675568,Walking,,,,,,,
541,GPS,40.443719406258886,-79.9443825260273,289.73182678222656,317.0999450683594,15.670928001403809,,,-1.0,-1.0,N/A,0.0228118896484375,-0.9711761474609375,-0.1988067626953125,-0.11134357005357742,-0.10906390100717545,-0.040407076478004456,-34.24729919433594,-113.3599853515625,-330.62310791015625,-0.00012281723320484161,0.0008144974708557129,0.032484784722328186,1.3398059047741917,0.06830524626492242,-0.05411217971688781,0.01562575250864029,-0.9734401106834412,-0.22840768098831177,-0.011092807166278362,-0.05796431005001068,-0.024215050041675568,Walking,,,,,,,
573,Device Motion,40.443719406258886,-79.9443825260273,289.73182678222656,317.0999450683594,15.670928001403809,,,-1.0,-1.0,N/A,0.0228118896484375,-0.9711761474609375,-0.1988067626953125,-0.11134357005357742,-0.10906390100717545,-0.040407076478004456,-34.24729919433594,-113.3599853515625,-330.62310791015625,-0.0005132835358381271,-0.0035253167152404785,0.04889914393424988,1.3289649129124734,0.07657464234353531,-0.08561442029739164,0.01832028664648533,-0.9709010124206543,-0.23877961933612823,-0.05461437255144119,-0.025933295488357544,-0.025982500985264778,Walking,,,,,,,
605,Gyrometer,40.443719406258886,-79.9443825260273,289.73182678222656,317.0999450683594,15.670928001403809,,,-1.0,-1.0,N/A,0.0228118896484375,-0.9711761474609375,-0.1988067626953125,-0.06030435115098953,-0.01605832949280739,-0.026125876232981682,-34.24729919433594,-113.3599853515625,-330.62310791015625,-0.0005132835358381271,-0.0035253167152404785,0.04889914393424988,1.3289649129124734,0.07657464234353531,-0.08561442029739164,0.01832028664648533,-0.9709010124206543,-0.23877961933612823,-0.05461437255144119,-0.025933295488357544,-0.025982500985264778,Walking,,,,,,,
636,Accelerometer,40.443719406258886,-79.9443825260273,289.73182678222656,317.0999450683594,15.670928001403809,,,-1.0,-1.0,N/A,-0.0187225341796875,-0.9580841064453125,-0.178863525390625,-0.06030435115098953,-0.01605832949280739,-0.026125876232981682,-34.24729919433594,-113.3599853515625,-330.62310791015625,-0.0005132835358381271,-0.0035253167152404785,0.04889914393424988,1.3289649129124734,0.07657464234353531,-0.08561442029739164,0.01832028664648533,-0.9709010124206543,-0.23877961933612823,-0.05461437255144119,-0.025933295488357544,-0.025982500985264778,Walking,,,,,,,
668,Magnetometer,40.443719406258886,-79.9443825260273,289.73182678222656,317.0999450683594,15.670928001403809,,,-1.0,-1.0,N/A,-0.0187225341796875,-0.9580841064453125,-0.178863525390625,-0.06030435115098953,-0.01605832949280739,-0.026125876232981682,-35.17762756347656,-112.72921752929688,-330.88983154296875,-0.0005132835358381271,-0.0035253167152404785,0.04889914393424988,1.3289649129124734,0.07657464234353531,-0.08561442029739164,0.01832028664648533,-0.9709010124206543,-0.23877961933612823,-0.05461437255144119,-0.025933295488357544,-0.025982500985264778,Walking,,,,,,,
821,Activity Manager,40.443719406258886,-79.9443825260273,289.73182678222656,317.0999450683594,15.670928001403809,,,-1.0,-1.0,N/A,-0.0187225341796875,-0.9580841064453125,-0.178863525390625,-0.06030435115098953,-0.01605832949280739,-0.026125876232981682,-35.17762756347656,-112.72921752929688,-330.88983154296875,-0.0005132835358381271,-0.0035253167152404785,0.04889914393424988,1.3289649129124734,0.07657464234353531,-0.08561442029739164,0.01832028664648533,-0.9709010124206543,-0.23877961933612823,-0.05461437255144119,-0.025933295488357544,-0.025982500985264778,Stationary,,,,,,,
856,Device Motion,40.443719406258886,-79.9443825260273,289.73182678222656,317.0999450683594,15.670928001403809,,,-1.0,-1.0,N/A,-0.0187225341796875,-0.9580841064453125,-0.178863525390625,-0.06030435115098953,-0.01605832949280739,-0.026125876232981682,-35.17762756347656,-112.72921752929688,-330.88983154296875,-0.036483585834503174,-0.0037140846252441406,0.09347158670425415,1.3064547227796985,0.08308350917250232,-0.08806444876800325,0.021682562306523323,-0.9652647376060486,-0.2603723406791687,-0.1344156414270401,-0.031091507524251938,-0.041456498205661774,Stationary,,,,,,,
906,Gyrometer,40.443719406258886,-79.9443825260273,289.73182678222656,317.0999450683594,15.670928001403809,,,-1.0,-1.0,N/A,-0.0187225341796875,-0.9580841064453125,-0.178863525390625,-0.02743189036846161,-0.008810802362859249,0.016044747084379196,-35.17762756347656,-112.72921752929688,-330.88983154296875,-0.036483585834503174,-0.0037140846252441406,0.09347158670425415,1.3064547227796985,0.08308350917250232,-0.08806444876800325,0.021682562306523323,-0.9652647376060486,-0.2603723406791687,-0.1344156414270401,-0.031091507524251938,-0.041456498205661774,Stationary,,,,,,,
940,Magnetometer,40.443719406258886,-79.9443825260273,289.73182678222656,317.0999450683594,15.670928001403809,,,-1.0,-1.0,N/A,-0.0187225341796875,-0.9580841064453125,-0.178863525390625,-0.02743189036846161,-0.008810802362859249,0.016044747084379196,-36.25129699707031,-112.34056091308594,-331.0615234375,-0.036483585834503174,-0.0037140846252441406,0.09347158670425415,1.3064547227796985,0.08308350917250232,-0.08806444876800325,0.021682562306523323,-0.9652647376060486,-0.2603723406791687,-0.1344156414270401,-0.031091507524251938,-0.041456498205661774,Stationary,,,,,,,
970,Accelerometer,40.443719406258886,-79.9443825260273,289.73182678222656,317.0999450683594,15.670928001403809,,,-1.0,-1.0,N/A,-0.010498046875,-1.0088348388671875,-0.1828765869140625,-0.02743189036846161,-0.008810802362859249,0.016044747084379196,-36.25129699707031,-112.34056091308594,-331.0615234375,-0.036483585834503174,-0.0037140846252441406,0.09347158670425415,1.3064547227796985,0.08308350917250232,-0.08806444876800325,0.021682562306523323,-0.9652647376060486,-0.2603723406791687,-0.1344156414270401,-0.031091507524251938,-0.041456498205661774,Stationary,,,,,,,
1045,Altimeter,40.443719406258886,-79.9443825260273,289.73182678222656,317.0999450683594,15.670928001403809,0,98.08045196533203,-1.0,-1.0,N/A,-0.010498046875,-1.0088348388671875,-0.1828765869140625,-0.02743189036846161,-0.008810802362859249,0.016044747084379196,-36.25129699707031,-112.34056091308594,-331.0615234375,-0.036483585834503174,-0.0037140846252441406,0.09347158670425415,1.3064547227796985,0.08308350917250232,-0.08806444876800325,0.021682562306523323,-0.9652647376060486,-0.2603723406791687,-0.1344156414270401,-0.031091507524251938,-0.041456498205661774,Stationary,,,,,,,
1130,Device Motion,40.443719406258886,-79.9443825260273,289.73182678222656,317.0999450683594,15.670928001403809,0,98.08045196533203,-1.0,-1.0,N/A,-0.010498046875,-1.0088348388671875,-0.1828765869140625,-0.02743189036846161,-0.008810802362859249,0.016044747084379196,-36.25129699707031,-112.34056091308594,-331.0615234375,-0.027730610221624374,-0.0725557804107666,0.04835662245750427,1.3343777762067746,0.10143458030582143,-0.10587025364344584,0.023717548698186874,-0.9721830487251282,-0.2330186516046524,0.19781048595905304,-0.008650949224829674,-0.07144913077354431,Stationary,,,,,,,
1166,Activity Manager,40.443719406258886,-79.9443825260273,289.73182678222656,317.0999450683594,15.670928001403809,0,98.08045196533203,-1.0,-1.0,N/A,-0.010498046875,-1.0088348388671875,-0.1828765869140625,-0.02743189036846161,-0.008810802362859249,0.016044747084379196,-36.25129699707031,-112.34056091308594,-331.0615234375,-0.027730610221624374,-0.0725557804107666,0.04835662245750427,1.3343777762067746,0.10143458030582143,-0.10587025364344584,0.023717548698186874,-0.9721830487251282,-0.2330186516046524,0.19781048595905304,-0.008650949224829674,-0.07144913077354431,Walking,,,,,,,
1206,Gyrometer,40.443719406258886,-79.9443825260273,289.73182678222656,317.0999450683594,15.670928001403809,0,98.08045196533203,-1.0,-1.0,N/A,-0.010498046875,-1.0088348388671875,-0.1828765869140625,0.35378363728523254,-0.1678856760263443,0.1375325620174408,-36.25129699707031,-112.34056091308594,-331.0615234375,-0.027730610221624374,-0.0725557804107666,0.04835662245750427,1.3343777762067746,0.10143458030582143,-0.10587025364344584,0.023717548698186874,-0.9721830487251282,-0.2330186516046524,0.19781048595905304,-0.008650949224829674,-0.07144913077354431,Walking,,,,,,,
1237,Magnetometer,40.443719406258886,-79.9443825260273,289.73182678222656,317.0999450683594,15.670928001403809,0,98.08045196533203,-1.0,-1.0,N/A,-0.010498046875,-1.0088348388671875,-0.1828765869140625,0.35378363728523254,-0.1678856760263443,0.1375325620174408,-38.36424255371094,-112.28858947753906,-326.81396484375,-0.027730610221624374,-0.0725557804107666,0.04835662245750427,1.3343777762067746,0.10143458030582143,-0.10587025364344584,0.023717548698186874,-0.9721830487251282,-0.2330186516046524,0.19781048595905304,-0.008650949224829674,-0.07144913077354431,Walking,,,,,,,
1267,Accelerometer,40.443719406258886,-79.9443825260273,289.73182678222656,317.0999450683594,15.670928001403809,0,98.08045196533203,-1.0,-1.0,N/A,0.0569305419921875,-1.0081634521484375,-0.207794189453125,0.35378363728523254,-0.1678856760263443,0.1375325620174408,-38.36424255371094,-112.28858947753906,-326.81396484375,-0.027730610221624374,-0.0725557804107666,0.04835662245750427,1.3343777762067746,0.10143458030582143,-0.10587025364344584,0.023717548698186874,-0.9721830487251282,-0.2330186516046524,0.19781048595905304,-0.008650949224829674,-0.07144913077354431,Walking,,,,,,,
1429,Device Motion,40.443719406258886,-79.9443825260273,289.73182678222656,317.0999450683594,15.670928001403809,0,98.08045196533203,-1.0,-1.0,N/A,0.0569305419921875,-1.0081634521484375,-0.207794189453125,0.35378363728523254,-0.1678856760263443,0.1375325620174408,-38.36424255371094,-112.28858947753906,-326.81396484375,0.06278017163276672,0.04598742723464966,0.03837837278842926,1.400215125353095,-0.04814057177131379,0.03403812175479326,-0.008168941363692284,-0.9854862689971924,-0.16955822706222534,0.04980812594294548,0.10738801956176758,0.22306345403194427,Walking,,,,,,,
1466,COMPASS,40.443719406258886,-79.9443825260273,289.73182678222656,315.54949951171875,15.67529582977295,0,98.08045196533203,-1.0,-1.0,N/A,0.0569305419921875,-1.0081634521484375,-0.207794189453125,0.35378363728523254,-0.1678856760263443,0.1375325620174408,-38.36424255371094,-112.28858947753906,-326.81396484375,0.06278017163276672,0.04598742723464966,0.03837837278842926,1.400215125353095,-0.04814057177131379,0.03403812175479326,-0.008168941363692284,-0.9854862689971924,-0.16955822706222534,0.04980812594294548,0.10738801956176758,0.22306345403194427,Walking,,,,,,,
1499,COMPASS,40.443719406258886,-79.9443825260273,289.73182678222656,314.14337158203125,15.675835609436035,0,98.08045196533203,-1.0,-1.0,N/A,0.0569305419921875,-1.0081634521484375,-0.207794189453125,0.35378363728523254,-0.1678856760263443,0.1375325620174408,-38.36424255371094,-112.28858947753906,-326.81396484375,0.06278017163276672,0.04598742723464966,0.03837837278842926,1.400215125353095,-0.04814057177131379,0.03403812175479326,-0.008168941363692284,-0.9854862689971924,-0.16955822706222534,0.04980812594294548,0.10738801956176758,0.22306345403194427,Walking,,,,,,,
1530,Gyrometer,40.443719406258886,-79.9443825260273,289.73182678222656,314.14337158203125,15.675835609436035,0,98.08045196533203,-1.0,-1.0,N/A,0.0569305419921875,-1.0081634521484375,-0.207794189453125,0.024718130007386208,0.2824418246746063,0.2375430464744568,-38.36424255371094,-112.28858947753906,-326.81396484375,0.06278017163276672,0.04598742723464966,0.03837837278842926,1.400215125353095,-0.04814057177131379,0.03403812175479326,-0.008168941363692284,-0.9854862689971924,-0.16955822706222534,0.04980812594294548,0.10738801956176758,0.22306345403194427,Walking,,,,,,,
1560,Magnetometer,40.443719406258886,-79.9443825260273,289.73182678222656,314.14337158203125,15.675835609436035,0,98.08045196533203,-1.0,-1.0,N/A,0.0569305419921875,-1.0081634521484375,-0.207794189453125,0.024718130007386208,0.2824418246746063,0.2375430464744568,-41.865447998046875,-110.73896789550781,-325.6036682128906,0.06278017163276672,0.04598742723464966,0.03837837278842926,1.400215125353095,-0.04814057177131379,0.03403812175479326,-0.008168941363692284,-0.9854862689971924,-0.16955822706222534,0.04980812594294548,0.10738801956176758,0.22306345403194427,Walking,,,,,,,
1591,COMPASS,40.443719406258886,-79.9443825260273,289.73182678222656,313.1010437011719,15.676764488220215,0,98.08045196533203,-1.0,-1.0,N/A,0.0569305419921875,-1.0081634521484375,-0.207794189453125,0.024718130007386208,0.2824418246746063,0.2375430464744568,-41.865447998046875,-110.73896789550781,-325.6036682128906,0.06278017163276672,0.04598742723464966,0.03837837278842926,1.400215125353095,-0.04814057177131379,0.03403812175479326,-0.008168941363692284,-0.9854862689971924,-0.16955822706222534,0.04980812594294548,0.10738801956176758,0.22306345403194427,Walking,,,,,,,
1622,Accelerometer,40.443719406258886,-79.9443825260273,289.73182678222656,313.1010437011719,15.676764488220215,0,98.08045196533203,-1.0,-1.0,N/A,0.039642333984375,-0.9233856201171875,-0.14361572265625,0.024718130007386208,0.2824418246746063,0.2375430464744568,-41.865447998046875,-110.73896789550781,-325.6036682128906,0.06278017163276672,0.04598742723464966,0.03837837278842926,1.400215125353095,-0.04814057177131379,0.03403812175479326,-0.008168941363692284,-0.9854862689971924,-0.16955822706222534,0.04980812594294548,0.10738801956176758,0.22306345403194427,Walking,,,,,,,
1728,Device Motion,40.443719406258886,-79.9443825260273,289.73182678222656,313.1010437011719,15.676764488220215,0,98.08045196533203,-1.0,-1.0,N/A,0.039642333984375,-0.9233856201171875,-0.14361572265625,0.024718130007386208,0.2824418246746063,0.2375430464744568,-41.865447998046875,-110.73896789550781,-325.6036682128906,0.04676532745361328,-0.045593857765197754,0.0476997047662735,1.4064518241579438,-0.1804027163171833,0.18989000581181328,-0.029355064034461975,-0.98652583360672,-0.16095054149627686,0.418040007352829,-0.30111488699913025,0.11142317205667496,Walking,,,,,,,
1774,GPS,40.4437528614671,-79.94439614592112,289.7317924499512,313.1010437011719,15.676764488220215,0,98.08045196533203,-1.0,-1.0,N/A,0.039642333984375,-0.9233856201171875,-0.14361572265625,0.024718130007386208,0.2824418246746063,0.2375430464744568,-41.865447998046875,-110.73896789550781,-325.6036682128906,0.04676532745361328,-0.045593857765197754,0.0476997047662735,1.4064518241579438,-0.1804027163171833,0.18989000581181328,-0.029355064034461975,-0.98652583360672,-0.16095054149627686,0.418040007352829,-0.30111488699913025,0.11142317205667496,Walking,,,,,,,
1808,COMPASS,40.4437528614671,-79.94439614592112,289.7317924499512,314.2888488769531,15.679003715515137,0,98.08045196533203,-1.0,-1.0,N/A,0.039642333984375,-0.9233856201171875,-0.14361572265625,0.024718130007386208,0.2824418246746063,0.2375430464744568,-41.865447998046875,-110.73896789550781,-325.6036682128906,0.04676532745361328,-0.045593857765197754,0.0476997047662735,1.4064518241579438,-0.1804027163171833,0.18989000581181328,-0.029355064034461975,-0.98652583360672,-0.16095054149627686,0.418040007352829,-0.30111488699913025,0.11142317205667496,Walking,,,,,,,
1839,Gyrometer,40.4437528614671,-79.94439614592112,289.7317924499512,314.2888488769531,15.679003715515137,0,98.08045196533203,-1.0,-1.0,N/A,0.039642333984375,-0.9233856201171875,-0.14361572265625,0.2944718301296234,-0.21107682585716248,-0.08129192888736725,-41.865447998046875,-110.73896789550781,-325.6036682128906,0.04676532745361328,-0.045593857765197754,0.0476997047662735,1.4064518241579438,-0.1804027163171833,0.18989000581181328,-0.029355064034461975,-0.98652583360672,-0.16095054149627686,0.418040007352829,-0.30111488699913025,0.11142317205667496,Walking,,,,,,,
1868,COMPASS,40.4437528614671,-79.94439614592112,289.7317924499512,315.5589904785156,15.68022632598877,0,98.08045196533203,-1.0,-1.0,N/A,0.039642333984375,-0.9233856201171875,-0.14361572265625,0.2944718301296234,-0.21107682585716248,-0.08129192888736725,-41.865447998046875,-110.73896789550781,-325.6036682128906,0.04676532745361328,-0.045593857765197754,0.0476997047662735,1.4064518241579438,-0.1804027163171833,0.18989000581181328,-0.029355064034461975,-0.98652583360672,-0.16095054149627686,0.418040007352829,-0.30111488699913025,0.11142317205667496,Walking,,,,,,,
1896,Magnetometer,40.4437528614671,-79.94439614592112,289.7317924499512,315.5589904785156,15.68022632598877,0,98.08045196533203,-1.0,-1.0,N/A,0.039642333984375,-0.9233856201171875,-0.14361572265625,0.2944718301296234,-0.21107682585716248,-0.08129192888736725,-44.51625061035156,-111.01321411132812,-324.51123046875,0.04676532745361328,-0.045593857765197754,0.0476997047662735,1.4064518241579438,-0.1804027163171833,0.18989000581181328,-0.029355064034461975,-0.98652583360672,-0.16095054149627686,0.418040007352829,-0.30111488699913025,0.11142317205667496,Walking,,,,,,,
1927,Accelerometer,40.4437528614671,-79.94439614592112,289.7317924499512,315.5589904785156,15.68022632598877,0,98.08045196533203,-1.0,-1.0,N/A,-0.009246826171875,-1.138824462890625,-0.14630126953125,0.2944718301296234,-0.21107682585716248,-0.08129192888736725,-44.51625061035156,-111.01321411132812,-324.51123046875,0.04676532745361328,-0.045593857765197754,0.0476997047662735,1.4064518241579438,-0.1804027163171833,0.18989000581181328,-0.029355064034461975,-0.98652583360672,-0.16095054149627686,0.418040007352829,-0.30111488699913025,0.11142317205667496,Walking,,,,,,,
2018,COMPASS,40.4437528614671,-79.94439614592112,289.7317924499512,316.6478271484375,15.682598114013672,0,98.08045196533203,-1.0,-1.0,N/A,-0.009246826171875,-1.138824462890625,-0.14630126953125,0.2944718301296234,-0.21107682585716248,-0.08129192888736725,-44.51625061035156,-111.01321411132812,-324.51123046875,0.04676532745361328,-0.045593857765197754,0.0476997047662735,1.4064518241579438,-0.1804027163171833,0.18989000581181328,-0.029355064034461975,-0.98652583360672,-0.16095054149627686,0.418040007352829,-0.30111488699913025,0.11142317205667496,Walking,,,,,,,
2052,Device Motion,40.4437528614671,-79.94439614592112,289.7317924499512,316.6478271484375,15.682598114013672,0,98.08045196533203,-1.0,-1.0,N/A,-0.009246826171875,-1.138824462890625,-0.14630126953125,0.2944718301296234,-0.21107682585716248,-0.08129192888736725,-44.51625061035156,-111.01321411132812,-324.51123046875,-0.031277477741241455,0.0869138240814209,-0.1167256236076355,1.4571151901343584,-0.2277039537662442,0.18657009847068806,-0.025607295334339142,-0.9935452342033386,-0.11050834506750107,0.339669793844223,-0.1739398092031479,-0.35369548201560974,Walking,,,,,,,
2082,COMPASS,40.4437528614671,-79.94439614592112,289.7317924499512,317.83612060546875,15.68317699432373,0,98.08045196533203,-1.0,-1.0,N/A,-0.009246826171875,-1.138824462890625,-0.14630126953125,0.2944718301296234,-0.21107682585716248,-0.08129192888736725,-44.51625061035156,-111.01321411132812,-324.51123046875,-0.031277477741241455,0.0869138240814209,-0.1167256236076355,1.4571151901343584,-0.2277039537662442,0.18657009847068806,-0.025607295334339142,-0.9935452342033386,-0.11050834506750107,0.339669793844223,-0.1739398092031479,-0.35369548201560974,Walking,,,,,,,
2116,Altimeter,40.4437528614671,-79.94439614592112,289.7317924499512,317.83612060546875,15.68317699432373,-0.023773193359375,98.08072662353516,-1.0,-1.0,N/A,-0.009246826171875,-1.138824462890625,-0.14630126953125,0.2944718301296234,-0.21107682585716248,-0.08129192888736725,-44.51625061035156,-111.01321411132812,-324.51123046875,-0.031277477741241455,0.0869138240814209,-0.1167256236076355,1.4571151901343584,-0.2277039537662442,0.18657009847068806,-0.025607295334339142,-0.9935452342033386,-0.11050834506750107,0.339669793844223,-0.1739398092031479,-0.35369548201560974,Walking,,,,,,,
2147,Gyrometer,40.4437528614671,-79.94439614592112,289.7317924499512,317.83612060546875,15.68317699432373,-0.023773193359375,98.08072662353516,-1.0,-1.0,N/A,-0.009246826171875,-1.138824462890625,-0.14630126953125,-0.1370105892419815,0.19952136278152466,-0.13604944944381714,-44.51625061035156,-111.01321411132812,-324.51123046875,-0.031277477741241455,0.0869138240814209,-0.1167256236076355,1.4571151901343584,-0.2277039537662442,0.18657009847068806,-0.025607295334339142,-0.9935452342033386,-0.11050834506750107,0.339669793844223,-0.1739398092031479,-0.35369548201560974,Walking,,,,,,,
2181,Magnetometer,40.4437528614671,-79.94439614592112,289.7317924499512,317.83612060546875,15.68317699432373,-0.023773193359375,98.08072662353516,-1.0,-1.0,N/A,-0.009246826171875,-1.138824462890625,-0.14630126953125,-0.1370105892419815,0.19952136278152466,-0.13604944944381714,-45.07704162597656,-112.10983276367188,-323.07696533203125,-0.031277477741241455,0.0869138240814209,-0.1167256236076355,1.4571151901343584,-0.2277039537662442,0.18657009847068806,-0.025607295334339142,-0.9935452342033386,-0.11050834506750107,0.339669793844223,-0.1739398092031479,-0.35369548201560974,Walking,,,,,,,
2214,Accelerometer,40.4437528614671,-79.94439614592112,289.7317924499512,317.83612060546875,15.68317699432373,-0.023773193359375,98.08072662353516,-1.0,-1.0,N/A,-0.066009521484375,-0.924072265625,-0.1145477294921875,-0.1370105892419815,0.19952136278152466,-0.13604944944381714,-45.07704162597656,-112.10983276367188,-323.07696533203125,-0.031277477741241455,0.0869138240814209,-0.1167256236076355,1.4571151901343584,-0.2277039537662442,0.18657009847068806,-0.025607295334339142,-0.9935452342033386,-0.11050834506750107,0.339669793844223,-0.1739398092031479,-0.35369548201560974,Walking,,,,,,,
2326,Device Motion,40.4437528614671,-79.94439614592112,289.7317924499512,317.83612060546875,15.68317699432373,-0.023773193359375,98.08072662353516,-1.0,-1.0,N/A,-0.066009521484375,-0.924072265625,-0.1145477294921875,-0.1370105892419815,0.19952136278152466,-0.13604944944381714,-45.07704162597656,-112.10983276367188,-323.07696533203125,-0.04334568977355957,0.03854990005493164,0.03422558307647705,1.4431009107760775,-0.015133276143120256,-0.027505902161300083,-0.0019271397031843662,-0.9918580055236816,-0.12733478844165802,0.037526845932006836,-0.06578007340431213,-0.004340159706771374,Walking,,,,,,,
2408,Gyrometer,40.4437528614671,-79.94439614592112,289.7317924499512,317.83612060546875,15.68317699432373,-0.023773193359375,98.08072662353516,-1.0,-1.0,N/A,-0.066009521484375,-0.924072265625,-0.1145477294921875,0.27221792936325073,-0.1740460991859436,-0.062009043991565704,-45.07704162597656,-112.10983276367188,-323.07696533203125,-0.04334568977355957,0.03854990005493164,0.03422558307647705,1.4431009107760775,-0.015133276143120256,-0.027505902161300083,-0.0019271397031843662,-0.9918580055236816,-0.12733478844165802,0.037526845932006836,-0.06578007340431213,-0.004340159706771374,Walking,,,,,,,
2442,COMPASS,40.4437528614671,-79.94439614592112,289.7317924499512,318.9151916503906,15.688350677490234,-0.023773193359375,98.08072662353516,-1.0,-1.0,N/A,-0.066009521484375,-0.924072265625,-0.1145477294921875,0.27221792936325073,-0.1740460991859436,-0.062009043991565704,-45.07704162597656,-112.10983276367188,-323.07696533203125,-0.04334568977355957,0.03854990005493164,0.03422558307647705,1.4431009107760775,-0.015133276143120256,-0.027505902161300083,-0.0019271397031843662,-0.9918580055236816,-0.12733478844165802,0.037526845932006836,-0.06578007340431213,-0.004340159706771374,Walking,,,,,,,
2474,Magnetometer,40.4437528614671,-79.94439614592112,289.7317924499512,318.9151916503906,15.688350677490234,-0.023773193359375,98.08072662353516,-1.0,-1.0,N/A,-0.066009521484375,-0.924072265625,-0.1145477294921875,0.27221792936325073,-0.1740460991859436,-0.062009043991565704,-46.108978271484375,-113.44490051269531,-324.8443908691406,-0.04334568977355957,0.03854990005493164,0.03422558307647705,1.4431009107760775,-0.015133276143120256,-0.027505902161300083,-0.0019271397031843662,-0.9918580055236816,-0.12733478844165802,0.037526845932006836,-0.06578007340431213,-0.004340159706771374,Walking,,,,,,,
2504,Accelerometer,40.4437528614671,-79.94439614592112,289.7317924499512,318.9151916503906,15.688350677490234,-0.023773193359375,98.08072662353516,-1.0,-1.0,N/A,-0.0285491943359375,-1.13385009765625,-0.04327392578125,0.27221792936325073,-0.1740460991859436,-0.062009043991565704,-46.108978271484375,-113.44490051269531,-324.8443908691406,-0.04334568977355957,0.03854990005493164,0.03422558307647705,1.4431009107760775,-0.015133276143120256,-0.027505902161300083,-0.0019271397031843662,-0.9918580055236816,-0.12733478844165802,0.037526845932006836,-0.06578007340431213,-0.004340159706771374,Walking,,,,,,,
2577,COMPASS,40.4437528614671,-79.94439614592112,289.7317924499512,317.61016845703125,15.690587043762207,-0.023773193359375,98.08072662353516,-1.0,-1.0,N/A,-0.0285491943359375,-1.13385009765625,-0.04327392578125,0.27221792936325073,-0.1740460991859436,-0.062009043991565704,-46.108978271484375,-113.44490051269531,-324.8443908691406,-0.04334568977355957,0.03854990005493164,0.03422558307647705,1.4431009107760775,-0.015133276143120256,-0.027505902161300083,-0.0019271397031843662,-0.9918580055236816,-0.12733478844165802,0.037526845932006836,-0.06578007340431213,-0.004340159706771374,Walking,,,,,,,
2616,COMPASS,40.4437528614671,-79.94439614592112,289.7317924499512,316.476318359375,15.69114875793457,-0.023773193359375,98.08072662353516,-1.0,-1.0,N/A,-0.0285491943359375,-1.13385009765625,-0.04327392578125,0.27221792936325073,-0.1740460991859436,-0.062009043991565704,-46.108978271484375,-113.44490051269531,-324.8443908691406,-0.04334568977355957,0.03854990005493164,0.03422558307647705,1.4431009107760775,-0.015133276143120256,-0.027505902161300083,-0.0019271397031843662,-0.9918580055236816,-0.12733478844165802,0.037526845932006836,-0.06578007340431213,-0.004340159706771374,Walking,,,,,,,
2646,Device Motion,40.4437528614671,-79.94439614592112,289.7317924499512,316.476318359375,15.69114875793457,-0.023773193359375,98.08072662353516,-1.0,-1.0,N/A,-0.0285491943359375,-1.13385009765625,-0.04327392578125,0.27221792936325073,-0.1740460991859436,-0.062009043991565704,-46.108978271484375,-113.44490051269531,-324.8443908691406,0.05405986309051514,0.013094425201416016,-0.060519397258758545,1.4692130590895187,-0.10429306308222426,0.08972659400227448,-0.010557059198617935,-0.9948448538780212,-0.10085766017436981,-0.09683355689048767,0.25699055194854736,0.2333303689956665,Walking,,,,,,,
2675,COMPASS,40.4437528614671,-79.94439614592112,289.7317924499512,315.2037658691406,15.691986083984375,-0.023773193359375,98.08072662353516,-1.0,-1.0,N/A,-0.0285491943359375,-1.13385009765625,-0.04327392578125,0.27221792936325073,-0.1740460991859436,-0.062009043991565704,-46.108978271484375,-113.44490051269531,-324.8443908691406,0.05405986309051514,0.013094425201416016,-0.060519397258758545,1.4692130590895187,-0.10429306308222426,0.08972659400227448,-0.010557059198617935,-0.9948448538780212,-0.10085766017436981,-0.09683355689048767,0.25699055194854736,0.2333303689956665,Walking,,,,,,,
2708,Gyrometer,40.4437528614671,-79.94439614592112,289.7317924499512,315.2037658691406,15.691986083984375,-0.023773193359375,98.08072662353516,-1.0,-1.0,N/A,-0.0285491943359375,-1.13385009765625,-0.04327392578125,0.06774895638227463,0.03279656171798706,0.13535143435001373,-46.108978271484375,-113.44490051269531,-324.8443908691406,0.05405986309051514,0.013094425201416016,-0.060519397258758545,1.4692130590895187,-0.10429306308222426,0.08972659400227448,-0.010557059198617935,-0.9948448538780212,-0.10085766017436981,-0.09683355689048767,0.25699055194854736,0.2333303689956665,Walking,,,,,,,
2738,Magnetometer,40.4437528614671,-79.94439614592112,289.7317924499512,315.2037658691406,15.691986083984375,-0.023773193359375,98.08072662353516,-1.0,-1.0,N/A,-0.0285491943359375,-1.13385009765625,-0.04327392578125,0.06774895638227463,0.03279656171798706,0.13535143435001373,-47.20068359375,-114.69412231445312,-325.19488525390625,0.05405986309051514,0.013094425201416016,-0.060519397258758545,1.4692130590895187,-0.10429306308222426,0.08972659400227448,-0.010557059198617935,-0.9948448538780212,-0.10085766017436981,-0.09683355689048767,0.25699055194854736,0.2333303689956665,Walking,,,,,,,
2767,Accelerometer,40.4437528614671,-79.94439614592112,289.7317924499512,315.2037658691406,15.691986083984375,-0.023773193359375,98.08072662353516,-1.0,-1.0,N/A,0.0065460205078125,-0.8835906982421875,-0.0886383056640625,0.06774895638227463,0.03279656171798706,0.13535143435001373,-47.20068359375,-114.69412231445312,-325.19488525390625,0.05405986309051514,0.013094425201416016,-0.060519397258758545,1.4692130590895187,-0.10429306308222426,0.08972659400227448,-0.010557059198617935,-0.9948448538780212,-0.10085766017436981,-0.09683355689048767,0.25699055194854736,0.2333303689956665,Walking,,,,,,,
2799,COMPASS,40.4437528614671,-79.94439614592112,289.7317924499512,314.0604553222656,15.693340301513672,-0.023773193359375,98.08072662353516,-1.0,-1.0,N/A,0.0065460205078125,-0.8835906982421875,-0.0886383056640625,0.06774895638227463,0.03279656171798706,0.13535143435001373,-47.20068359375,-114.69412231445312,-325.19488525390625,0.05405986309051514,0.013094425201416016,-0.060519397258758545,1.4692130590895187,-0.10429306308222426,0.08972659400227448,-0.010557059198617935,-0.9948448538780212,-0.10085766017436981,-0.09683355689048767,0.25699055194854736,0.2333303689956665,Walking,,,,,,,
2855,COMPASS,40.4437528614671,-79.94439614592112,289.7317924499512,312.8432922363281,15.694470405578613,-0.023773193359375,98.08072662353516,-1.0,-1.0,N/A,0.0065460205078125,-0.8835906982421875,-0.0886383056640625,0.06774895638227463,0.03279656171798706,0.13535143435001373,-47.20068359375,-114.69412231445312,-325.19488525390625,0.05405986309051514,0.013094425201416016,-0.060519397258758545,1.4692130590895187,-0.10429306308222426,0.08972659400227448,-0.010557059198617935,-0.9948448538780212,-0.10085766017436981,-0.09683355689048767,0.25699055194854736,0.2333303689956665,Walking,,,,,,,
2924,Device Motion,40.4437528614671,-79.94439614592112,289.7317924499512,312.8432922363281,15.694470405578613,-0.023773193359375,98.08072662353516,-1.0,-1.0,N/A,0.0065460205078125,-0.8835906982421875,-0.0886383056640625,0.06774895638227463,0.03279656171798706,0.13535143435001373,-47.20068359375,-114.69412231445312,-325.19488525390625,0.02280283160507679,0.06083881855010986,0.013668306171894073,1.4445129811039854,-0.24441597371403512,0.2773642244116826,-0.030477985739707947,-0.9920368790626526,-0.12220414727926254,0.027852915227413177,0.06962515413761139,-0.020732183009386063,Walking,,,,,,,
3008,Magnetometer,40.4437528614671,-79.94439614592112,289.7317924499512,312.8432922363281,15.694470405578613,-0.023773193359375,98.08072662353516,-1.0,-1.0,N/A,0.0065460205078125,-0.8835906982421875,-0.0886383056640625,0.06774895638227463,0.03279656171798706,0.13535143435001373,-48.601318359375,-115.99432373046875,-325.4530334472656,0.02280283160507679,0.06083881855010986,0.013668306171894073,1.4445129811039854,-0.24441597371403512,0.2773642244116826,-0.030477985739707947,-0.9920368790626526,-0.12220414727926254,0.027852915227413177,0.06962515413761139,-0.020732183009386063,Walking,,,,,,,
3043,Gyrometer,40.4437528614671,-79.94439614592112,289.7317924499512,312.8432922363281,15.694470405578613,-0.023773193359375,98.08072662353516,-1.0,-1.0,N/A,0.0065460205078125,-0.8835906982421875,-0.0886383056640625,0.2707870304584503,-0.3003135025501251,-0.13797864317893982,-48.601318359375,-115.99432373046875,-325.4530334472656,0.02280283160507679,0.06083881855010986,0.013668306171894073,1.4445129811039854,-0.24441597371403512,0.2773642244116826,-0.030477985739707947,-0.9920368790626526,-0.12220414727926254,0.027852915227413177,0.06962515413761139,-0.020732183009386063,Walking,,,,,,,
3073,COMPASS,40.4437528614671,-79.94439614592112,289.7317924499512,314.1040344238281,15.69689655303955,-0.023773193359375,98.08072662353516,-1.0,-1.0,N/A,0.0065460205078125,-0.8835906982421875,-0.0886383056640625,0.2707870304584503,-0.3003135025501251,-0.13797864317893982,-48.601318359375,-115.99432373046875,-325.4530334472656,0.02280283160507679,0.06083881855010986,0.013668306171894073,1.4445129811039854,-0.24441597371403512,0.2773642244116826,-0.030477985739707947,-0.9920368790626526,-0.12220414727926254,0.027852915227413177,0.06962515413761139,-0.020732183009386063,Walking,,,,,,,
3104,Accelerometer,40.4437528614671,-79.94439614592112,289.7317924499512,314.1040344238281,15.69689655303955,-0.023773193359375,98.08072662353516,-1.0,-1.0,N/A,-0.0472259521484375,-1.07196044921875,-0.0818328857421875,0.2707870304584503,-0.3003135025501251,-0.13797864317893982,-48.601318359375,-115.99432373046875,-325.4530334472656,0.02280283160507679,0.06083881855010986,0.013668306171894073,1.4445129811039854,-0.24441597371403512,0.2773642244116826,-0.030477985739707947,-0.9920368790626526,-0.12220414727926254,0.027852915227413177,0.06962515413761139,-0.020732183009386063,Walking,,,,,,,
3139,Altimeter,40.4437528614671,-79.94439614592112,289.7317924499512,314.1040344238281,15.69689655303955,-0.04754638671875,98.08100128173828,-1.0,-1.0,N/A,-0.0472259521484375,-1.07196044921875,-0.0818328857421875,0.2707870304584503,-0.3003135025501251,-0.13797864317893982,-48.601318359375,-115.99432373046875,-325.4530334472656,0.02280283160507679,0.06083881855010986,0.013668306171894073,1.4445129811039854,-0.24441597371403512,0.2773642244116826,-0.030477985739707947,-0.9920368790626526,-0.12220414727926254,0.027852915227413177,0.06962515413761139,-0.020732183009386063,Walking,,,,,,,
3194,COMPASS,40.4437528614671,-79.94439614592112,289.7317924499512,315.1788024902344,15.698525428771973,-0.04754638671875,98.08100128173828,-1.0,-1.0,N/A,-0.0472259521484375,-1.07196044921875,-0.0818328857421875,0.2707870304584503,-0.3003135025501251,-0.13797864317893982,-48.601318359375,-115.99432373046875,-325.4530334472656,0.02280283160507679,0.06083881855010986,0.013668306171894073,1.4445129811039854,-0.24441597371403512,0.2773642244116826,-0.030477985739707947,-0.9920368790626526,-0.12220414727926254,0.027852915227413177,0.06962515413761139,-0.020732183009386063,Walking,,,,,,,
3225,Device Motion,40.4437528614671,-79.94439614592112,289.7317924499512,315.1788024902344,15.698525428771973,-0.04754638671875,98.08100128173828,-1.0,-1.0,N/A,-0.0472259521484375,-1.07196044921875,-0.0818328857421875,0.2707870304584503,-0.3003135025501251,-0.13797864317893982,-48.601318359375,-115.99432373046875,-325.4530334472656,0.0017071366310119629,-0.08096200227737427,-0.11256140470504761,1.4916943041484976,-0.013494148073727355,0.020973215119774527,-0.001066275523044169,-0.9968730807304382,-0.07901282608509064,-0.19847731292247772,-0.27491673827171326,-0.03512842580676079,Walking,,,,,,,
3274,COMPASS,40.4437528614671,-79.94439614592112,289.7317924499512,316.5763854980469,15.699613571166992,-0.04754638671875,98.08100128173828,-1.0,-1.0,N/A,-0.0472259521484375,-1.07196044921875,-0.0818328857421875,0.2707870304584503,-0.3003135025501251,-0.13797864317893982,-48.601318359375,-115.99432373046875,-325.4530334472656,0.0017071366310119629,-0.08096200227737427,-0.11256140470504761,1.4916943041484976,-0.013494148073727355,0.020973215119774527,-0.001066275523044169,-0.9968730807304382,-0.07901282608509064,-0.19847731292247772,-0.27491673827171326,-0.03512842580676079,Walking,,,,,,,
3308,Magnetometer,40.4437528614671,-79.94439614592112,289.7317924499512,316.5763854980469,15.699613571166992,-0.04754638671875,98.08100128173828,-1.0,-1.0,N/A,-0.0472259521484375,-1.07196044921875,-0.0818328857421875,0.2707870304584503,-0.3003135025501251,-0.13797864317893982,-48.7052001953125,-118.0518798828125,-323.4278869628906,0.0017071366310119629,-0.08096200227737427,-0.11256140470504761,1.4916943041484976,-0.013494148073727355,0.020973215119774527,-0.001066275523044169,-0.9968730807304382,-0.07901282608509064,-0.19847731292247772,-0.27491673827171326,-0.03512842580676079,Walking,,,,,,,
3338,Gyrometer,40.4437528614671,-79.94439614592112,289.7317924499512,316.5763854980469,15.699613571166992,-0.04754638671875,98.08100128173828,-1.0,-1.0,N/A,-0.0472259521484375,-1.07196044921875,-0.0818328857421875,0.04442925006151199,0.048165399581193924,-0.19358624517917633,-48.7052001953125,-118.0518798828125,-323.4278869628906,0.0017071366310119629,-0.08096200227737427,-0.11256140470504761,1.4916943041484976,-0.013494148073727355,0.020973215119774527,-0.001066275523044169,-0.9968730807304382,-0.07901282608509064,-0.19847731292247772,-0.27491673827171326,-0.03512842580676079,Walking,,,,,,,
3367,Accelerometer,40.4437528614671,-79.94439614592112,289.7317924499512,316.5763854980469,15.699613571166992,-0.04754638671875,98.08100128173828,-1.0,-1.0,N/A,-0.0525665283203125,-0.922637939453125,-0.1214141845703125,0.04442925006151199,0.048165399581193924,-0.19358624517917633,-48.7052001953125,-118.0518798828125,-323.4278869628906,0.0017071366310119629,-0.08096200227737427,-0.11256140470504761,1.4916943041484976,-0.013494148073727355,0.020973215119774527,-0.001066275523044169,-0.9968730807304382,-0.07901282608509064,-0.19847731292247772,-0.27491673827171326,-0.03512842580676079,Walking,,,,,,,
3494,COMPASS,40.4437528614671,-79.94439614592112,289.7317924499512,317.8968811035156,15.702624320983887,-0.04754638671875,98.08100128173828,-1.0,-1.0,N/A,-0.0525665283203125,-0.922637939453125,-0.1214141845703125,0.04442925006151199,0.048165399581193924,-0.19358624517917633,-48.7052001953125,-118.0518798828125,-323.4278869628906,0.0017071366310119629,-0.08096200227737427,-0.11256140470504761,1.4916943041484976,-0.013494148073727355,0.020973215119774527,-0.001066275523044169,-0.9968730807304382,-0.07901282608509064,-0.19847731292247772,-0.27491673827171326,-0.03512842580676079,Walking,,,,,,,
3528,Device Motion,40.4437528614671,-79.94439614592112,289.7317924499512,317.8968811035156,15.702624320983887,-0.04754638671875,98.08100128173828,-1.0,-1.0,N/A,-0.0525665283203125,-0.922637939453125,-0.1214141845703125,0.04442925006151199,0.048165399581193924,-0.19358624517917633,-48.7052001953125,-118.0518798828125,-323.4278869628906,-0.05069267749786377,0.08925014734268188,0.0017888545989990234,1.455660088034511,0.15538651838035014,-0.17888579089552256,0.017779463902115822,-0.9933791160583496,-0.1134985163807869,0.18293066322803497,-0.034112345427274704,-0.1030188649892807,Walking,,,,,,,
3609,Magnetometer,40.4437528614671,-79.94439614592112,289.7317924499512,317.8968811035156,15.702624320983887,-0.04754638671875,98.08100128173828,-1.0,-1.0,N/A,-0.0525665283203125,-0.922637939453125,-0.1214141845703125,0.04442925006151199,0.048165399581193924,-0.19358624517917633,-50.19065856933594,-118.85578918457031,-322.38250732421875,-0.05069267749786377,0.08925014734268188,0.0017888545989990234,1.455660088034511,0.15538651838035014,-0.17888579089552256,0.017779463902115822,-0.9933791160583496,-0.1134985163807869,0.18293066322803497,-0.034112345427274704,-0.1030188649892807,Walking,,,,,,,
3644,Gyrometer,40.4437528614671,-79.94439614592112,289.7317924499512,317.8968811035156,15.702624320983887,-0.04754638671875,98.08100128173828,-1.0,-1.0,N/A,-0.0525665283203125,-0.922637939453125,-0.1214141845703125,0.08539692312479019,0.12990793585777283,0.048655152320861816,-50.19065856933594,-118.85578918457031,-322.38250732421875,-0.05069267749786377,0.08925014734268188,0.0017888545989990234,1.455660088034511,0.15538651838035014,-0.17888579089552256,0.017779463902115822,-0.9933791160583496,-0.1134985163807869,0.18293066322803497,-0.034112345427274704,-0.1030188649892807,Walking,,,,,,,
3675,Accelerometer,40.4437528614671,-79.94439614592112,289.7317924499512,317.8968811035156,15.702624320983887,-0.04754638671875,98.08100128173828,-1.0,-1.0,N/A,-0.00592041015625,-1.0842437744140625,-0.1147613525390625,0.08539692312479019,0.12990793585777283,0.048655152320861816,-50.19065856933594,-118.85578918457031,-322.38250732421875,-0.05069267749786377,0.08925014734268188,0.0017888545989990234,1.455660088034511,0.15538651838035014,-0.17888579089552256,0.017779463902115822,-0.9933791160583496,-0.1134985163807869,0.18293066322803497,-0.034112345427274704,-0.1030188649892807,Walking,,,,,,,
3753,COMPASS,40.4437528614671,-79.94439614592112,289.7317924499512,316.8013610839844,15.705608367919922,-0.04754638671875,98.08100128173828,-1.0,-1.0,N/A,-0.00592041015625,-1.0842437744140625,-0.1147613525390625,0.08539692312479019,0.12990793585777283,0.048655152320861816,-50.19065856933594,-118.85578918457031,-322.38250732421875,-0.05069267749786377,0.08925014734268188,0.0017888545989990234,1.455660088034511,0.15538651838035014,-0.17888579089552256,0.017779463902115822,-0.9933791160583496,-0.1134985163807869,0.18293066322803497,-0.034112345427274704,-0.1030188649892807,Walking,,,,,,,
3822,Device Motion,40.4437528614671,-79.94439614592112,289.7317924499512,316.8013610839844,15.705608367919922,-0.04754638671875,98.08100128173828,-1.0,-1.0,N/A,-0.00592041015625,-1.0842437744140625,-0.1147613525390625,0.08539692312479019,0.12990793585777283,0.048655152320861816,-50.19065856933594,-118.85578918457031,-322.38250732421875,-0.0056032841093838215,-0.0841836929321289,-0.011573903262615204,1.4981050328546541,0.041447255974222046,-0.039606960038943206,0.003009265987202525,-0.9973591566085815,-0.07256312668323517,-0.12484118342399597,0.10853316634893417,0.1563645750284195,Walking,,,,,,,
3858,COMPASS,40.4437528614671,-79.94439614592112,289.7317924499512,315.677734375,15.70698356628418,-0.04754638671875,98.08100128173828,-1.0,-1.0,N/A,-0.00592041015625,-1.0842437744140625,-0.1147613525390625,0.08539692312479019,0.12990793585777283,0.048655152320861816,-50.19065856933594,-118.85578918457031,-322.38250732421875,-0.0056032841093838215,-0.0841836929321289,-0.011573903262615204,1.4981050328546541,0.041447255974222046,-0.039606960038943206,0.003009265987202525,-0.9973591566085815,-0.07256312668323517,-0.12484118342399597,0.10853316634893417,0.1563645750284195,Walking,,,,,,,
3907,Magnetometer,40.4437528614671,-79.94439614592112,289.7317924499512,315.677734375,15.70698356628418,-0.04754638671875,98.08100128173828,-1.0,-1.0,N/A,-0.00592041015625,-1.0842437744140625,-0.1147613525390625,0.08539692312479019,0.12990793585777283,0.048655152320861816,-54.17913818359375,-117.49208068847656,-320.6073303222656,-0.0056032841093838215,-0.0841836929321289,-0.011573903262615204,1.4981050328546541,0.041447255974222046,-0.039606960038943206,0.003009265987202525,-0.9973591566085815,-0.07256312668323517,-0.12484118342399597,0.10853316634893417,0.1563645750284195,Walking,,,,,,,
3941,Gyrometer,40.4437528614671,-79.94439614592112,289.7317924499512,315.677734375,15.70698356628418,-0.04754638671875,98.08100128173828,-1.0,-1.0,N/A,-0.00592041015625,-1.0842437744140625,-0.1147613525390625,-0.03894926235079765,0.044065460562705994,0.014036723412573338,-54.17913818359375,-117.49208068847656,-320.6073303222656,-0.0056032841093838215,-0.0841836929321289,-0.011573903262615204,1.4981050328546541,0.041447255974222046,-0.039606960038943206,0.003009265987202525,-0.9973591566085815,-0.07256312668323517,-0.12484118342399597,0.10853316634893417,0.1563645750284195,Walking,,,,,,,
3969,Accelerometer,40.4437528614671,-79.94439614592112,289.7317924499512,315.677734375,15.70698356628418,-0.04754638671875,98.08100128173828,-1.0,-1.0,N/A,0.011322021484375,-0.9360809326171875,-0.154876708984375,-0.03894926235079765,0.044065460562705994,0.014036723412573338,-54.17913818359375,-117.49208068847656,-320.6073303222656,-0.0056032841093838215,-0.0841836929321289,-0.011573903262615204,1.4981050328546541,0.041447255974222046,-0.039606960038943206,0.003009265987202525,-0.9973591566085815,-0.07256312668323517,-0.12484118342399597,0.10853316634893417,0.1563645750284195,Walking,,,,,,,
4046,Altimeter,40.4437528614671,-79.94439614592112,289.7317924499512,315.677734375,15.70698356628418,-0.076629638671875,98.08134460449219,-1.0,-1.0,N/A,0.011322021484375,-0.9360809326171875,-0.154876708984375,-0.03894926235079765,0.044065460562705994,0.014036723412573338,-54.17913818359375,-117.49208068847656,-320.6073303222656,-0.0056032841093838215,-0.0841836929321289,-0.011573903262615204,1.4981050328546541,0.041447255974222046,-0.039606960038943206,0.003009265987202525,-0.9973591566085815,-0.07256312668323517,-0.12484118342399597,0.10853316634893417,0.1563645750284195,Walking,,,,,,,
4121,Device Motion,40.4437528614671,-79.94439614592112,289.7317924499512,315.677734375,15.70698356628418,-0.076629638671875,98.08134460449219,-1.0,-1.0,N/A,0.011322021484375,-0.9360809326171875,-0.154876708984375,-0.03894926235079765,0.044065460562705994,0.014036723412573338,-54.17913818359375,-117.49208068847656,-320.6073303222656,0.01872435212135315,0.07659536600112915,0.03717334568500519,1.4786130613068909,0.04641048126248333,-0.024537662194235456,0.004270626697689295,-0.9957541227340698,-0.09195251017808914,-0.03585578128695488,0.1495341956615448,-0.09920584410429001,Walking,,,,,,,
4206,Magnetometer,40.4437528614671,-79.94439614592112,289.7317924499512,315.677734375,15.70698356628418,-0.076629638671875,98.08134460449219,-1.0,-1.0,N/A,0.011322021484375,-0.9360809326171875,-0.154876708984375,-0.03894926235079765,0.044065460562705994,0.014036723412573338,-57.26490783691406,-116.54083251953125,-321.44500732421875,0.01872435212135315,0.07659536600112915,0.03717334568500519,1.4786130613068909,0.04641048126248333,-0.024537662194235456,0.004270626697689295,-0.9957541227340698,-0.09195251017808914,-0.03585578128695488,0.1495341956615448,-0.09920584410429001,Walking,,,,,,,
4241,Gyrometer,40.4437528614671,-79.94439614592112,289.7317924499512,315.677734375,15.70698356628418,-0.076629638671875,98.08134460449219,-1.0,-1.0,N/A,0.011322021484375,-0.9360809326171875,-0.154876708984375,-0.01720215566456318,-0.2823725640773773,0.04158419370651245,-57.26490783691406,-116.54083251953125,-321.44500732421875,0.01872435212135315,0.07659536600112915,0.03717334568500519,1.4786130613068909,0.04641048126248333,-0.024537662194235456,0.004270626697689295,-0.9957541227340698,-0.09195251017808914,-0.03585578128695488,0.1495341956615448,-0.09920584410429001,Walking,,,,,,,
4271,Accelerometer,40.4437528614671,-79.94439614592112,289.7317924499512,315.677734375,15.70698356628418,-0.076629638671875,98.08134460449219,-1.0,-1.0,N/A,-0.0189056396484375,-1.0662994384765625,-0.0540008544921875,-0.01720215566456318,-0.2823725640773773,0.04158419370651245,-57.26490783691406,-116.54083251953125,-321.44500732421875,0.01872435212135315,0.07659536600112915,0.03717334568500519,1.4786130613068909,0.04641048126248333,-0.024537662194235456,0.004270626697689295,-0.9957541227340698,-0.09195251017808914,-0.03585578128695488,0.1495341956615448,-0.09920584410429001,Walking,,,,,,,
4420,Device Motion,40.4437528614671,-79.94439614592112,289.7317924499512,315.677734375,15.70698356628418,-0.076629638671875,98.08134460449219,-1.0,-1.0,N/A,-0.0189056396484375,-1.0662994384765625,-0.0540008544921875,-0.01720215566456318,-0.2823725640773773,0.04158419370651245,-57.26490783691406,-116.54083251953125,-321.44500732421875,-0.00329878949560225,-0.10477608442306519,0.0046320632100105286,1.4889070408328131,0.027461006184797406,-0.0075150457614767486,0.0022459242027252913,-0.9966489672660828,-0.08176537603139877,-0.3393643796443939,0.016428139060735703,-0.13198725879192352,Walking,,,,,,,
4506,Magnetometer,40.4437528614671,-79.94439614592112,289.7317924499512,315.677734375,15.70698356628418,-0.076629638671875,98.08134460449219,-1.0,-1.0,N/A,-0.0189056396484375,-1.0662994384765625,-0.0540008544921875,-0.01720215566456318,-0.2823725640773773,0.04158419370651245,-60.98146057128906,-115.53610229492188,-321.2526550292969,-0.00329878949560225,-0.10477608442306519,0.0046320632100105286,1.4889070408328131,0.027461006184797406,-0.0075150457614767486,0.0022459242027252913,-0.9966489672660828,-0.08176537603139877,-0.3393643796443939,0.016428139060735703,-0.13198725879192352,Walking,,,,,,,
4541,COMPASS,40.4437528614671,-79.94439614592112,289.7317924499512,316.90057373046875,15.714311599731445,-0.076629638671875,98.08134460449219,-1.0,-1.0,N/A,-0.0189056396484375,-1.0662994384765625,-0.0540008544921875,-0.01720215566456318,-0.2823725640773773,0.04158419370651245,-60.98146057128906,-115.53610229492188,-321.2526550292969,-0.00329878949560225,-0.10477608442306519,0.0046320632100105286,1.4889070408328131,0.027461006184797406,-0.0075150457614767486,0.0022459242027252913,-0.9966489672660828,-0.08176537603139877,-0.3393643796443939,0.016428139060735703,-0.13198725879192352,Walking,,,,,,,
4572,COMPASS,40.4437528614671,-79.94439614592112,289.7317924499512,318.07843017578125,15.714790344238281,-0.076629638671875,98.08134460449219,-1.0,-1.0,N/A,-0.0189056396484375,-1.0662994384765625,-0.0540008544921875,-0.01720215566456318,-0.2823725640773773,0.04158419370651245,-60.98146057128906,-115.53610229492188,-321.2526550292969,-0.00329878949560225,-0.10477608442306519,0.0046320632100105286,1.4889070408328131,0.027461006184797406,-0.0075150457614767486,0.0022459242027252913,-0.9966489672660828,-0.08176537603139877,-0.3393643796443939,0.016428139060735703,-0.13198725879192352,Walking,,,,,,,
4602,Gyrometer,40.4437528614671,-79.94439614592112,289.7317924499512,318.07843017578125,15.714790344238281,-0.076629638671875,98.08134460449219,-1.0,-1.0,N/A,-0.0189056396484375,-1.0662994384765625,-0.0540008544921875,-0.0037412086967378855,-0.6533543467521667,-0.025251027196645737,-60.98146057128906,-115.53610229492188,-321.2526550292969,-0.00329878949560225,-0.10477608442306519,0.0046320632100105286,1.4889070408328131,0.027461006184797406,-0.0075150457614767486,0.0022459242027252913,-0.9966489672660828,-0.08176537603139877,-0.3393643796443939,0.016428139060735703,-0.13198725879192352,Walking,,,,,,,
4631,COMPASS,40.4437528614671,-79.94439614592112,289.7317924499512,319.38372802734375,15.715524673461914,-0.076629638671875,98.08134460449219,-1.0,-1.0,N/A,-0.0189056396484375,-1.0662994384765625,-0.0540008544921875,-0.0037412086967378855,-0.6533543467521667,-0.025251027196645737,-60.98146057128906,-115.53610229492188,-321.2526550292969,-0.00329878949560225,-0.10477608442306519,0.0046320632100105286,1.4889070408328131,0.027461006184797406,-0.0075150457614767486,0.0022459242027252913,-0.9966489672660828,-0.08176537603139877,-0.3393643796443939,0.016428139060735703,-0.13198725879192352,Walking,,,,,,,
4658,Accelerometer,40.4437528614671,-79.94439614592112,289.7317924499512,319.38372802734375,15.715524673461914,-0.076629638671875,98.08134460449219,-1.0,-1.0,N/A,-0.050933837890625,-0.899169921875,-0.1132049560546875,-0.0037412086967378855,-0.6533543467521667,-0.025251027196645737,-60.98146057128906,-115.53610229492188,-321.2526550292969,-0.00329878949560225,-0.10477608442306519,0.0046320632100105286,1.4889070408328131,0.027461006184797406,-0.0075150457614767486,0.0022459242027252913,-0.9966489672660828,-0.08176537603139877,-0.3393643796443939,0.016428139060735703,-0.13198725879192352,Walking,,,,,,,
4719,Device Motion,40.4437528614671,-79.94439614592112,289.7317924499512,319.38372802734375,15.715524673461914,-0.076629638671875,98.08134460449219,-1.0,-1.0,N/A,-0.050933837890625,-0.899169921875,-0.1132049560546875,-0.0037412086967378855,-0.6533543467521667,-0.025251027196645737,-60.98146057128906,-115.53610229492188,-321.2526550292969,-0.024332165718078613,0.1403484344482422,-0.030724823474884033,1.4506899536229776,0.20905279169978755,-0.2495247389956476,0.024866217747330666,-0.9927958846092224,-0.11720921844244003,-0.12961848080158234,-0.05725410208106041,-0.012109718285501003,Walking,,,,,,,
4790,COMPASS,40.4437528614671,-79.94439614592112,289.7317924499512,320.3883972167969,15.717851638793945,-0.076629638671875,98.08134460449219,-1.0,-1.0,N/A,-0.050933837890625,-0.899169921875,-0.1132049560546875,-0.0037412086967378855,-0.6533543467521667,-0.025251027196645737,-60.98146057128906,-115.53610229492188,-321.2526550292969,-0.024332165718078613,0.1403484344482422,-0.030724823474884033,1.4506899536229776,0.20905279169978755,-0.2495247389956476,0.024866217747330666,-0.9927958846092224,-0.11720921844244003,-0.12961848080158234,-0.05725410208106041,-0.012109718285501003,Walking,,,,,,,
4824,Magnetometer,40.4437528614671,-79.94439614592112,289.7317924499512,320.3883972167969,15.717851638793945,-0.076629638671875,98.08134460449219,-1.0,-1.0,N/A,-0.050933837890625,-0.899169921875,-0.1132049560546875,-0.0037412086967378855,-0.6533543467521667,-0.025251027196645737,-64.00749206542969,-114.55438232421875,-322.50030517578125,-0.024332165718078613,0.1403484344482422,-0.030724823474884033,1.4506899536229776,0.20905279169978755,-0.2495247389956476,0.024866217747330666,-0.9927958846092224,-0.11720921844244003,-0.12961848080158234,-0.05725410208106041,-0.012109718285501003,Walking,,,,,,,
4854,Gyrometer,40.4437528614671,-79.94439614592112,289.7317924499512,320.3883972167969,15.717851638793945,-0.076629638671875,98.08134460449219,-1.0,-1.0,N/A,-0.050933837890625,-0.899169921875,-0.1132049560546875,0.14659236371517181,0.024402013048529625,0.012238822877407074,-64.00749206542969,-114.55438232421875,-322.50030517578125,-0.024332165718078613,0.1403484344482422,-0.030724823474884033,1.4506899536229776,0.20905279169978755,-0.2495247389956476,0.024866217747330666,-0.9927958846092224,-0.11720921844244003,-0.12961848080158234,-0.05725410208106041,-0.012109718285501003,Walking,,,,,,,
