Timestamp (ms),Triggering Sensor,Latitude,Longitude,Altitude,Heading (degrees),Heading accuracy (degrees),Relative Altitude (m),Pressure (kPa),Speed (m/s),Speed Accuracy (m/s),Floor,Acceleration - X axis,Acceleration - Y axis,Acceleration - Z axis,Gyrometer - X axis,Gyrometer - Y axis,Gyrometer - Z axis,Magnetometer - X axis,Magnetometer - Y axis,Magnetometer - Z axis,User acceleration - X axis,User acceleration - Y axis,User acceleration - Z axis,Attitude Pitch,Attitude Roll,Attitude Yaw,Gravity - X axis,Gravity - Y axis,Gravity - Z axis,Rotation Rate - X axis,Rotation Rate - Y axis,Rotation Rate - Z axis,Activity Type,Number of Steps,Distance,Floors Ascended,Floors Descended,Current Pace,Current Cadence,Average Active Pace
10,Gyrometer,,,,,,,,,,,,,,-0.11414548009634018,-0.08700893074274063,-0.017896708101034164,,,,,,,,,,,,,,,,,,,,,,,
30,GPS,40.44389248655935,-79.94441813410165,286.0846366882324,,,,,-1.0,-1.0,N/A,,,,-0.11414548009634018,-0.08700893074274063,-0.017896708101034164,,,,,,,,,,,,,,,,,,,,,,,
52,GPS,40.44389248655935,-79.94441813410165,286.0846366882324,,,,,-1.0,-1.0,N/A,,,,-0.11414548009634018,-0.08700893074274063,-0.017896708101034164,,,,,,,,,,,,,,,,,,,,,,,
74,COMPASS,40.44389248655935,-79.94441813410165,286.0846366882324,82.19332122802734,15.453499794006348,,,-1.0,-1.0,N/A,,,,-0.11414548009634018,-0.08700893074274063,-0.017896708101034164,,,,,,,,,,,,,,,,,,,,,,,
96,Activity Manager,40.44389248655935,-79.94441813410165,286.0846366882324,82.19332122802734,15.453499794006348,,,-1.0,-1.0,N/A,,,,-0.11414548009634018,-0.08700893074274063,-0.017896708101034164,,,,,,,,,,,,,,,,,,,,,,,
117,Magnetometer,40.44389248655935,-79.94441813410165,286.0846366882324,82.19332122802734,15.453499794006348,,,-1.0,-1.0,N/A,,,,-0.11414548009634018,-0.08700893074274063,-0.017896708101034164,-23.73126220703125,-98.74586486816406,-324.12908935546875,,,,,,,,,,,,,,,,,,,,
140,Accelerometer,40.44389248655935,-79.94441813410165,286.0846366882324,82.19332122802734,15.453499794006348,,,-1.0,-1.0,N/A,0.0019073486328125,-0.9521026611328125,-0.2957916259765625,-0.11414548009634018,-0.08700893074274063,-0.017896708101034164,-23.73126220703125,-98.74586486816406,-324.12908935546875,,,,,,,,,,,,,,,,,,,,
161,GPS,40.44389225393241,-79.94444341366169,286.0333061218262,82.19332122802734,15.453499794006348,,,-1.0,-1.0,N/A,0.0019073486328125,-0.9521026611328125,-0.2957916259765625,-0.11414548009634018,-0.08700893074274063,-0.017896708101034164,-23.73126220703125,-98.74586486816406,-324.12908935546875,,,,,,,,,,,,,,,,,,,,
182,GPS,40.44390085675765,-79.9444593378597,286.0322074890137,82.19332122802734,15.453499794006348,,,-1.0,-1.0,N/A,0.0019073486328125,-0.9521026611328125,-0.2957916259765625,-0.11414548009634018,-0.08700893074274063,-0.017896708101034164,-23.73126220703125,-98.74586486816406,-324.12908935546875,,,,,,,,,,,,,,,,,,,,
205,Device Motion,40.44390085675765,-79.9444593378597,286.0322074890137,82.19332122802734,15.453499794006348,,,-1.0,-1.0,N/A,0.0019073486328125,-0.9521026611328125,-0.2957916259765625,-0.11414548009634018,-0.08700893074274063,-0.017896708101034164,-23.73126220703125,-98.74586486816406,-324.12908935546875,-0.025514211505651474,-0.005812525749206543,0.018002361059188843,1.2453593061933474,0.07481175854118442,-0.05372410147950584,0.023896774277091026,-0.9475110769271851,-0.3188292384147644,-0.019535746425390244,0.04365614429116249,0.009001795202493668,,,,,,,,
306,Gyrometer,40.44390085675765,-79.9444593378597,286.0322074890137,82.19332122802734,15.453499794006348,,,-1.0,-1.0,N/A,0.0019073486328125,-0.9521026611328125,-0.2957916259765625,-0.030962975695729256,0.1039932444691658,0.015186942182481289,-23.73126220703125,-98.74586486816406,-324.12908935546875,-0.025514211505651474,-0.005812525749206543,0.018002361059188843,1.2453593061933474,0.07481175854118442,-0.05372410147950584,0.023896774277091026,-0.9475110769271851,-0.3188292384147644,-0.019535746425390244,0.04365614429116249,0.009001795202493668,,,,,,,,
330,Magnetometer,40.44390085675765,-79.9444593378597,286.0322074890137,82.19332122802734,15.453499794006348,,,-1.0,-1.0,N/A,0.0019073486328125,-0.9521026611328125,-0.2957916259765625,-0.030962975695729256,0.1039932444691658,0.015186942182481289,-23.309738159179688,-99.05947875976562,-324.3803405761719,-0.025514211505651474,-0.005812525749206543,0.018002361059188843,1.2453593061933474,0.07481175854118442,-0.05372410147950584,0.023896774277091026,-0.9475110769271851,-0.3188292384147644,-0.019535746425390244,0.04365614429116249,0.009001795202493668,,,,,,,,
354,Accelerometer,40.44390085675765,-79.9444593378597,286.0322074890137,82.19332122802734,15.453499794006348,,,-1.0,-1.0,N/A,0.0133209228515625,-0.9439239501953125,-0.2661285400390625,-0.030962975695729256,0.1039932444691658,0.015186942182481289,-23.309738159179688,-99.05947875976562,-324.3803405761719,-0.025514211505651474,-0.005812525749206543,0.018002361059188843,1.2453593061933474,0.07481175854118442,-0.05372410147950584,0.023896774277091026,-0.9475110769271851,-0.3188292384147644,-0.019535746425390244,0.04365614429116249,0.009001795202493668,,,,,,,,
394,COMPASS,40.44390085675765,-79.9444593378597,286.0322074890137,81.06696319580078,15.453640937805176,,,-1.0,-1.0,N/A,0.0133209228515625,-0.9439239501953125,-0.2661285400390625,-0.030962975695729256,0.1039932444691658,0.015186942182481289,-23.309738159179688,-99.05947875976562,-324.3803405761719,-0.025514211505651474,-0.005812525749206543,0.018002361059188843,1.2453593061933474,0.07481175854118442,-0.05372410147950584,0.023896774277091026,-0.9475110769271851,-0.3188292384147644,-0.019535746425390244,0.04365614429116249,0.009001795202493668,,,,,,,,
433,Device Motion,40.44390085675765,-79.9444593378597,286.0322074890137,81.06696319580078,15.453640937805176,,,-1.0,-1.0,N/A,0.0133209228515625,-0.9439239501953125,-0.2661285400390625,-0.030962975695729256,0.1039932444691658,0.015186942182481289,-23.309738159179688,-99.05947875976562,-324.3803405761719,0.004285603761672974,-0.004142165184020996,0.04075533151626587,1.2413014332163113,0.054312370139739885,-0.010575857477144436,0.01756497658789158,-0.9462059140205383,-0.32308846712112427,-0.03918156400322914,0.12420636415481567,0.1122976616024971,,,,,,,,
494,COMPASS,40.44390085675765,-79.9444593378597,286.0322074890137,79.81966400146484,15.454046249389648,,,-1.0,-1.0,N/A,0.0133209228515625,-0.9439239501953125,-0.2661285400390625,-0.030962975695729256,0.1039932444691658,0.015186942182481289,-23.309738159179688,-99.05947875976562,-324.3803405761719,0.004285603761672974,-0.004142165184020996,0.04075533151626587,1.2413014332163113,0.054312370139739885,-0.010575857477144436,0.01756497658789158,-0.9462059140205383,-0.32308846712112427,-0.03918156400322914,0.12420636415481567,0.1122976616024971,,,,,,,,
594,COMPASS,40.44390085675765,-79.9444593378597,286.0322074890137,78.7672119140625,15.454299926757812,,,-1.0,-1.0,N/A,0.0133209228515625,-0.9439239501953125,-0.2661285400390625,-0.030962975695729256,0.1039932444691658,0.015186942182481289,-23.309738159179688,-99.05947875976562,-324.3803405761719,0.004285603761672974,-0.004142165184020996,0.04075533151626587,1.2413014332163113,0.054312370139739885,-0.010575857477144436,0.01756497658789158,-0.9462059140205383,-0.32308846712112427,-0.03918156400322914,0.12420636415481567,0.1122976616024971,,,,,,,,
620,Gyrometer,40.44390085675765,-79.9444593378597,286.0322074890137,78.7672119140625,15.454299926757812,,,-1.0,-1.0,N/A,0.0133209228515625,-0.9439239501953125,-0.2661285400390625,0.044082771986722946,0.09712841361761093,0.0991034135222435,-23.309738159179688,-99.05947875976562,-324.3803405761719,0.004285603761672974,-0.004142165184020996,0.04075533151626587,1.2413014332163113,0.054312370139739885,-0.010575857477144436,0.01756497658789158,-0.9462059140205383,-0.32308846712112427,-0.03918156400322914,0.12420636415481567,0.1122976616024971,,,,,,,,
646,Magnetometer,40.44390085675765,-79.9444593378597,286.0322074890137,78.7672119140625,15.454299926757812,,,-1.0,-1.0,N/A,0.0133209228515625,-0.9439239501953125,-0.2661285400390625,0.044082771986722946,0.09712841361761093,0.0991034135222435,-22.37017822265625,-98.73434448242188,-323.9615173339844,0.004285603761672974,-0.004142165184020996,0.04075533151626587,1.2413014332163113,0.054312370139739885,-0.010575857477144436,0.01756497658789158,-0.9462059140205383,-0.32308846712112427,-0.03918156400322914,0.12420636415481567,0.1122976616024971,,,,,,,,
675,Accelerometer,40.44390085675765,-79.9444593378597,286.0322074890137,78.7672119140625,15.454299926757812,,,-1.0,-1.0,N/A,0.029052734375,-0.95745849609375,-0.248779296875,0.044082771986722946,0.09712841361761093,0.0991034135222435,-22.37017822265625,-98.73434448242188,-323.9615173339844,0.004285603761672974,-0.004142165184020996,0.04075533151626587,1.2413014332163113,0.054312370139739885,-0.010575857477144436,0.01756497658789158,-0.9462059140205383,-0.32308846712112427,-0.03918156400322914,0.12420636415481567,0.1122976616024971,,,,,,,,
732,Device Motion,40.44390085675765,-79.9444593378597,286.0322074890137,78.7672119140625,15.454299926757812,,,-1.0,-1.0,N/A,0.029052734375,-0.95745849609375,-0.248779296875,0.044082771986722946,0.09712841361761093,0.0991034135222435,-22.37017822265625,-98.73434448242188,-323.9615173339844,0.027619391679763794,-0.018731355667114258,0.09166046977043152,1.2198945829507748,0.01531222163920625,0.06731024316551619,0.005263297352939844,-0.9390631318092346,-0.3437049388885498,-0.1909603625535965,0.05811116844415665,-0.011864820495247841,,,,,,,,
793,COMPASS,40.44390085675765,-79.9444593378597,286.0322074890137,77.74363708496094,15.454543113708496,,,-1.0,-1.0,N/A,0.029052734375,-0.95745849609375,-0.248779296875,0.044082771986722946,0.09712841361761093,0.0991034135222435,-22.37017822265625,-98.73434448242188,-323.9615173339844,0.027619391679763794,-0.018731355667114258,0.09166046977043152,1.2198945829507748,0.01531222163920625,0.06731024316551619,0.005263297352939844,-0.9390631318092346,-0.3437049388885498,-0.1909603625535965,0.05811116844415665,-0.011864820495247841,,,,,,,,
907,Gyrometer,40.44390085675765,-79.9444593378597,286.0322074890137,77.74363708496094,15.454543113708496,,,-1.0,-1.0,N/A,0.029052734375,-0.95745849609375,-0.248779296875,-0.002438922878354788,-0.13690192997455597,-0.009891779161989689,-22.37017822265625,-98.73434448242188,-323.9615173339844,0.027619391679763794,-0.018731355667114258,0.09166046977043152,1.2198945829507748,0.01531222163920625,0.06731024316551619,0.005263297352939844,-0.9390631318092346,-0.3437049388885498,-0.1909603625535965,0.05811116844415665,-0.011864820495247841,,,,,,,,
933,Magnetometer,40.44390085675765,-79.9444593378597,286.0322074890137,77.74363708496094,15.454543113708496,,,-1.0,-1.0,N/A,0.029052734375,-0.95745849609375,-0.248779296875,-0.002438922878354788,-0.13690192997455597,-0.009891779161989689,-21.86260986328125,-98.82015991210938,-324.53277587890625,0.027619391679763794,-0.018731355667114258,0.09166046977043152,1.2198945829507748,0.01531222163920625,0.06731024316551619,0.005263297352939844,-0.9390631318092346,-0.3437049388885498,-0.1909603625535965,0.05811116844415665,-0.011864820495247841,,,,,,,,
960,Accelerometer,40.44390085675765,-79.9444593378597,286.0322074890137,77.74363708496094,15.454543113708496,,,-1.0,-1.0,N/A,0.0263519287109375,-0.983795166015625,-0.27227783203125,-0.002438922878354788,-0.13690192997455597,-0.009891779161989689,-21.86260986328125,-98.82015991210938,-324.53277587890625,0.027619391679763794,-0.018731355667114258,0.09166046977043152,1.2198945829507748,0.01531222163920625,0.06731024316551619,0.005263297352939844,-0.9390631318092346,-0.3437049388885498,-0.1909603625535965,0.05811116844415665,-0.011864820495247841,,,,,,,,
993,COMPASS,40.44390085675765,-79.9444593378597,286.0322074890137,78.87299346923828,15.454705238342285,,,-1.0,-1.0,N/A,0.0263519287109375,-0.983795166015625,-0.27227783203125,-0.002438922878354788,-0.13690192997455597,-0.009891779161989689,-21.86260986328125,-98.82015991210938,-324.53277587890625,0.027619391679763794,-0.018731355667114258,0.09166046977043152,1.2198945829507748,0.01531222163920625,0.06731024316551619,0.005263297352939844,-0.9390631318092346,-0.3437049388885498,-0.1909603625535965,0.05811116844415665,-0.011864820495247841,,,,,,,,
1031,Device Motion,40.44390085675765,-79.9444593378597,286.0322074890137,78.87299346923828,15.454705238342285,,,-1.0,-1.0,N/A,0.0263519287109375,-0.983795166015625,-0.27227783203125,-0.002438922878354788,-0.13690192997455597,-0.009891779161989689,-21.86260986328125,-98.82015991210938,-324.53277587890625,0.024502694606781006,-0.08253270387649536,0.08901721239089966,1.2159959785207453,0.007387438321732921,0.04845045087132499,0.002566399285569787,-0.9377158880233765,-0.34739410877227783,-0.01068717148154974,-0.14745181798934937,-0.060319941490888596,,,,,,,,
1044,Altimeter,40.44390085675765,-79.9444593378597,286.0322074890137,78.87299346923828,15.454705238342285,0,98.12702941894531,-1.0,-1.0,N/A,0.0263519287109375,-0.983795166015625,-0.27227783203125,-0.002438922878354788,-0.13690192997455597,-0.009891779161989689,-21.86260986328125,-98.82015991210938,-324.53277587890625,0.024502694606781006,-0.08253270387649536,0.08901721239089966,1.2159959785207453,0.007387438321732921,0.04845045087132499,0.002566399285569787,-0.9377158880233765,-0.34739410877227783,-0.01068717148154974,-0.14745181798934937,-0.060319941490888596,,,,,,,,
1132,COMPASS,40.44390085675765,-79.9444593378597,286.0322074890137,80.0108871459961,15.455873489379883,0,98.12702941894531,-1.0,-1.0,N/A,0.0263519287109375,-0.983795166015625,-0.27227783203125,-0.002438922878354788,-0.13690192997455597,-0.009891779161989689,-21.86260986328125,-98.82015991210938,-324.53277587890625,0.024502694606781006,-0.08253270387649536,0.08901721239089966,1.2159959785207453,0.007387438321732921,0.04845045087132499,0.002566399285569787,-0.9377158880233765,-0.34739410877227783,-0.01068717148154974,-0.14745181798934937,-0.060319941490888596,,,,,,,,
1207,Gyrometer,40.44390085675765,-79.9444593378597,286.0322074890137,80.0108871459961,15.455873489379883,0,98.12702941894531,-1.0,-1.0,N/A,0.0263519287109375,-0.983795166015625,-0.27227783203125,0.32574188709259033,-0.19695301353931427,-0.025553030893206596,-21.86260986328125,-98.82015991210938,-324.53277587890625,0.024502694606781006,-0.08253270387649536,0.08901721239089966,1.2159959785207453,0.007387438321732921,0.04845045087132499,0.002566399285569787,-0.9377158880233765,-0.34739410877227783,-0.01068717148154974,-0.14745181798934937,-0.060319941490888596,,,,,,,,
1235,COMPASS,40.44390085675765,-79.9444593378597,286.0322074890137,81.02799987792969,15.456720352172852,0,98.12702941894531,-1.0,-1.0,N/A,0.0263519287109375,-0.983795166015625,-0.27227783203125,0.32574188709259033,-0.19695301353931427,-0.025553030893206596,-21.86260986328125,-98.82015991210938,-324.53277587890625,0.024502694606781006,-0.08253270387649536,0.08901721239089966,1.2159959785207453,0.007387438321732921,0.04845045087132499,0.002566399285569787,-0.9377158880233765,-0.34739410877227783,-0.01068717148154974,-0.14745181798934937,-0.060319941490888596,,,,,,,,
1261,Magnetometer,40.44390085675765,-79.9444593378597,286.0322074890137,81.02799987792969,15.456720352172852,0,98.12702941894531,-1.0,-1.0,N/A,0.0263519287109375,-0.983795166015625,-0.27227783203125,0.32574188709259033,-0.19695301353931427,-0.025553030893206596,-23.82452392578125,-99.89683532714844,-322.916015625,0.024502694606781006,-0.08253270387649536,0.08901721239089966,1.2159959785207453,0.007387438321732921,0.04845045087132499,0.002566399285569787,-0.9377158880233765,-0.34739410877227783,-0.01068717148154974,-0.14745181798934937,-0.060319941490888596,,,,,,,,
1289,Accelerometer,40.44390085675765,-79.9444593378597,286.0322074890137,81.02799987792969,15.456720352172852,0,98.12702941894531,-1.0,-1.0,N/A,-0.0190887451171875,-0.993896484375,-0.285369873046875,0.32574188709259033,-0.19695301353931427,-0.025553030893206596,-23.82452392578125,-99.89683532714844,-322.916015625,0.024502694606781006,-0.08253270387649536,0.08901721239089966,1.2159959785207453,0.007387438321732921,0.04845045087132499,0.002566399285569787,-0.9377158880233765,-0.34739410877227783,-0.01068717148154974,-0.14745181798934937,-0.060319941490888596,,,,,,,,
1315,COMPASS,40.44390085675765,-79.9444593378597,286.0322074890137,82.0677490234375,15.45740795135498,0,98.12702941894531,-1.0,-1.0,N/A,-0.0190887451171875,-0.993896484375,-0.285369873046875,0.32574188709259033,-0.19695301353931427,-0.025553030893206596,-23.82452392578125,-99.89683532714844,-322.916015625,0.024502694606781006,-0.08253270387649536,0.08901721239089966,1.2159959785207453,0.007387438321732921,0.04845045087132499,0.002566399285569787,-0.9377158880233765,-0.34739410877227783,-0.01068717148154974,-0.14745181798934937,-0.060319941490888596,,,,,,,,
1342,Device Motion,40.44390085675765,-79.9444593378597,286.0322074890137,82.0677490234375,15.45740795135498,0,98.12702941894531,-1.0,-1.0,N/A,-0.0190887451171875,-0.993896484375,-0.285369873046875,0.32574188709259033,-0.19695301353931427,-0.025553030893206596,-23.82452392578125,-99.89683532714844,-322.916015625,-0.011063695885241032,0.059420228004455566,-0.04319712519645691,1.2510913759748223,0.03695879962703896,-0.025416829738338947,0.011613008566200733,-0.9493281841278076,-0.3140718936920166,0.21428297460079193,-0.052039533853530884,-0.09419813752174377,,,,,,,,
1507,Gyrometer,40.44390085675765,-79.9444593378597,286.0322074890137,82.0677490234375,15.45740795135498,0,98.12702941894531,-1.0,-1.0,N/A,-0.0190887451171875,-0.993896484375,-0.285369873046875,-0.05012175813317299,-0.04171575605869293,-0.01884053274989128,-23.82452392578125,-99.89683532714844,-322.916015625,-0.011063695885241032,0.059420228004455566,-0.04319712519645691,1.2510913759748223,0.03695879962703896,-0.025416829738338947,0.011613008566200733,-0.9493281841278076,-0.3140718936920166,0.21428297460079193,-0.052039533853530884,-0.09419813752174377,,,,,,,,
1534,Magnetometer,40.44390085675765,-79.9444593378597,286.0322074890137,82.0677490234375,15.45740795135498,0,98.12702941894531,-1.0,-1.0,N/A,-0.0190887451171875,-0.993896484375,-0.285369873046875,-0.05012175813317299,-0.04171575605869293,-0.01884053274989128,-26.082656860351562,-100.28355407714844,-321.93194580078125,-0.011063695885241032,0.059420228004455566,-0.04319712519645691,1.2510913759748223,0.03695879962703896,-0.025416829738338947,0.011613008566200733,-0.9493281841278076,-0.3140718936920166,0.21428297460079193,-0.052039533853530884,-0.09419813752174377,,,,,,,,
1561,Accelerometer,40.44390085675765,-79.9444593378597,286.0322074890137,82.0677490234375,15.45740795135498,0,98.12702941894531,-1.0,-1.0,N/A,-0.009765625,-0.8878326416015625,-0.24835205078125,-0.05012175813317299,-0.04171575605869293,-0.01884053274989128,-26.082656860351562,-100.28355407714844,-321.93194580078125,-0.011063695885241032,0.059420228004455566,-0.04319712519645691,1.2510913759748223,0.03695879962703896,-0.025416829738338947,0.011613008566200733,-0.9493281841278076,-0.3140718936920166,0.21428297460079193,-0.052039533853530884,-0.09419813752174377,,,,,,,,
1587,COMPASS,40.44390085675765,-79.9444593378597,286.0322074890137,83.0722885131836,15.459328651428223,0,98.12702941894531,-1.0,-1.0,N/A,-0.009765625,-0.8878326416015625,-0.24835205078125,-0.05012175813317299,-0.04171575605869293,-0.01884053274989128,-26.082656860351562,-100.28355407714844,-321.93194580078125,-0.011063695885241032,0.059420228004455566,-0.04319712519645691,1.2510913759748223,0.03695879962703896,-0.025416829738338947,0.011613008566200733,-0.9493281841278076,-0.3140718936920166,0.21428297460079193,-0.052039533853530884,-0.09419813752174377,,,,,,,,
1630,Device Motion,40.44390085675765,-79.9444593378597,286.0322074890137,83.0722885131836,15.459328651428223,0,98.12702941894531,-1.0,-1.0,N/A,-0.009765625,-0.8878326416015625,-0.24835205078125,-0.05012175813317299,-0.04171575605869293,-0.01884053274989128,-26.082656860351562,-100.28355407714844,-321.93194580078125,-0.04981708526611328,0.03543359041213989,0.0990435779094696,1.2326686904073985,0.06904441514629464,-0.06398710506263292,0.02288532815873623,-0.9433774352073669,-0.3309311866760254,-0.061109356582164764,0.034147441387176514,0.020119689404964447,,,,,,,,
1808,Gyrometer,40.44390085675765,-79.9444593378597,286.0322074890137,83.0722885131836,15.459328651428223,0,98.12702941894531,-1.0,-1.0,N/A,-0.009765625,-0.8878326416015625,-0.24835205078125,-0.06365088373422623,0.00034461304312571883,0.07599436491727829,-26.082656860351562,-100.28355407714844,-321.93194580078125,-0.04981708526611328,0.03543359041213989,0.0990435779094696,1.2326686904073985,0.06904441514629464,-0.06398710506263292,0.02288532815873623,-0.9433774352073669,-0.3309311866760254,-0.061109356582164764,0.034147441387176514,0.020119689404964447,,,,,,,,
1835,Magnetometer,40.44390085675765,-79.9444593378597,286.0322074890137,83.0722885131836,15.459328651428223,0,98.12702941894531,-1.0,-1.0,N/A,-0.009765625,-0.8878326416015625,-0.24835205078125,-0.06365088373422623,0.00034461304312571883,0.07599436491727829,-28.710311889648438,-99.76350402832031,-322.1476135253906,-0.04981708526611328,0.03543359041213989,0.0990435779094696,1.2326686904073985,0.06904441514629464,-0.06398710506263292,0.02288532815873623,-0.9433774352073669,-0.3309311866760254,-0.061109356582164764,0.034147441387176514,0.020119689404964447,,,,,,,,
1861,Accelerometer,40.44390085675765,-79.9444593378597,286.0322074890137,83.0722885131836,15.459328651428223,0,98.12702941894531,-1.0,-1.0,N/A,-0.002532958984375,-1.0413970947265625,-0.3345489501953125,-0.06365088373422623,0.00034461304312571883,0.07599436491727829,-28.710311889648438,-99.76350402832031,-322.1476135253906,-0.04981708526611328,0.03543359041213989,0.0990435779094696,1.2326686904073985,0.06904441514629464,-0.06398710506263292,0.02288532815873623,-0.9433774352073669,-0.3309311866760254,-0.061109356582164764,0.034147441387176514,0.020119689404964447,,,,,,,,
1890,COMPASS,40.44390085675765,-79.9444593378597,286.0322074890137,81.9924545288086,15.462140083312988,0,98.12702941894531,-1.0,-1.0,N/A,-0.002532958984375,-1.0413970947265625,-0.3345489501953125,-0.06365088373422623,0.00034461304312571883,0.07599436491727829,-28.710311889648438,-99.76350402832031,-322.1476135253906,-0.04981708526611328,0.03543359041213989,0.0990435779094696,1.2326686904073985,0.06904441514629464,-0.06398710506263292,0.02288532815873623,-0.9433774352073669,-0.3309311866760254,-0.061109356582164764,0.034147441387176514,0.020119689404964447,,,,,,,,
1929,Device Motion,40.44390085675765,-79.9444593378597,286.0322074890137,81.9924545288086,15.462140083312988,0,98.12702941894531,-1.0,-1.0,N/A,-0.002532958984375,-1.0413970947265625,-0.3345489501953125,-0.06365088373422623,0.00034461304312571883,0.07599436491727829,-28.710311889648438,-99.76350402832031,-322.1476135253906,0.05852600932121277,-0.1008298397064209,-0.017487019300460815,1.2369659508267226,0.031831928889419235,-0.012720222747088266,0.01042843982577324,-0.9447941780090332,-0.32749876379966736,-0.1440909057855606,-0.05431000143289566,0.12555629014968872,,,,,,,,
2033,Altimeter,40.44390085675765,-79.9444593378597,286.0322074890137,81.9924545288086,15.462140083312988,-0.03436279296875,98.12745666503906,-1.0,-1.0,N/A,-0.002532958984375,-1.0413970947265625,-0.3345489501953125,-0.06365088373422623,0.00034461304312571883,0.07599436491727829,-28.710311889648438,-99.76350402832031,-322.1476135253906,0.05852600932121277,-0.1008298397064209,-0.017487019300460815,1.2369659508267226,0.031831928889419235,-0.012720222747088266,0.01042843982577324,-0.9447941780090332,-0.32749876379966736,-0.1440909057855606,-0.05431000143289566,0.12555629014968872,,,,,,,,
2070,COMPASS,40.44390085675765,-79.9444593378597,286.0322074890137,80.82266235351562,15.463851928710938,-0.03436279296875,98.12745666503906,-1.0,-1.0,N/A,-0.002532958984375,-1.0413970947265625,-0.3345489501953125,-0.06365088373422623,0.00034461304312571883,0.07599436491727829,-28.710311889648438,-99.76350402832031,-322.1476135253906,0.05852600932121277,-0.1008298397064209,-0.017487019300460815,1.2369659508267226,0.031831928889419235,-0.012720222747088266,0.01042843982577324,-0.9447941780090332,-0.32749876379966736,-0.1440909057855606,-0.05431000143289566,0.12555629014968872,,,,,,,,
2108,Magnetometer,40.44390085675765,-79.9444593378597,286.0322074890137,80.82266235351562,15.463851928710938,-0.03436279296875,98.12745666503906,-1.0,-1.0,N/A,-0.002532958984375,-1.0413970947265625,-0.3345489501953125,-0.06365088373422623,0.00034461304312571883,0.07599436491727829,-30.439987182617188,-98.58201599121094,-323.6939392089844,0.05852600932121277,-0.1008298397064209,-0.017487019300460815,1.2369659508267226,0.031831928889419235,-0.012720222747088266,0.01042843982577324,-0.9447941780090332,-0.32749876379966736,-0.1440909057855606,-0.05431000143289566,0.12555629014968872,,,,,,,,
2136,Gyrometer,40.44390085675765,-79.9444593378597,286.0322074890137,80.82266235351562,15.463851928710938,-0.03436279296875,98.12745666503906,-1.0,-1.0,N/A,-0.002532958984375,-1.0413970947265625,-0.3345489501953125,-0.08394603431224823,0.16830219328403473,0.1212124451994896,-30.439987182617188,-98.58201599121094,-323.6939392089844,0.05852600932121277,-0.1008298397064209,-0.017487019300460815,1.2369659508267226,0.031831928889419235,-0.012720222747088266,0.01042843982577324,-0.9447941780090332,-0.32749876379966736,-0.1440909057855606,-0.05431000143289566,0.12555629014968872,,,,,,,,
2162,COMPASS,40.44390085675765,-79.9444593378597,286.0322074890137,79.69972229003906,15.46446704864502,-0.03436279296875,98.12745666503906,-1.0,-1.0,N/A,-0.002532958984375,-1.0413970947265625,-0.3345489501953125,-0.08394603431224823,0.16830219328403473,0.1212124451994896,-30.439987182617188,-98.58201599121094,-323.6939392089844,0.05852600932121277,-0.1008298397064209,-0.017487019300460815,1.2369659508267226,0.031831928889419235,-0.012720222747088266,0.01042843982577324,-0.9447941780090332,-0.32749876379966736,-0.1440909057855606,-0.05431000143289566,0.12555629014968872,,,,,,,,
2188,Accelerometer,40.44390085675765,-79.9444593378597,286.0322074890137,79.69972229003906,15.46446704864502,-0.03436279296875,98.12745666503906,-1.0,-1.0,N/A,0.06622314453125,-0.85211181640625,-0.33221435546875,-0.08394603431224823,0.16830219328403473,0.1212124451994896,-30.439987182617188,-98.58201599121094,-323.6939392089844,0.05852600932121277,-0.1008298397064209,-0.017487019300460815,1.2369659508267226,0.031831928889419235,-0.012720222747088266,0.01042843982577324,-0.9447941780090332,-0.32749876379966736,-0.1440909057855606,-0.05431000143289566,0.12555629014968872,,,,,,,,
2228,Device Motion,40.44390085675765,-79.9444593378597,286.0322074890137,79.69972229003906,15.46446704864502,-0.03436279296875,98.12745666503906,-1.0,-1.0,N/A,0.06622314453125,-0.85211181640625,-0.33221435546875,-0.08394603431224823,0.16830219328403473,0.1212124451994896,-30.439987182617188,-98.58201599121094,-323.6939392089844,0.03351551294326782,0.08177947998046875,0.05457264184951782,1.2096966956035167,-0.02001820573736543,0.07814978936299867,-0.007072030566632748,-0.9355089068412781,-0.353232741355896,-0.061403628438711166,0.1563606858253479,0.13692891597747803,,,,,,,,
2256,COMPASS,40.44390085675765,-79.9444593378597,286.0322074890137,78.6028060913086,15.465203285217285,-0.03436279296875,98.12745666503906,-1.0,-1.0,N/A,0.06622314453125,-0.85211181640625,-0.33221435546875,-0.08394603431224823,0.16830219328403473,0.1212124451994896,-30.439987182617188,-98.58201599121094,-323.6939392089844,0.03351551294326782,0.08177947998046875,0.05457264184951782,1.2096966956035167,-0.02001820573736543,0.07814978936299867,-0.007072030566632748,-0.9355089068412781,-0.353232741355896,-0.061403628438711166,0.1563606858253479,0.13692891597747803,,,,,,,,
2309,COMPASS,40.44390085675765,-79.9444593378597,286.0322074890137,77.56936645507812,15.465972900390625,-0.03436279296875,98.12745666503906,-1.0,-1.0,N/A,0.06622314453125,-0.85211181640625,-0.33221435546875,-0.08394603431224823,0.16830219328403473,0.1212124451994896,-30.439987182617188,-98.58201599121094,-323.6939392089844,0.03351551294326782,0.08177947998046875,0.05457264184951782,1.2096966956035167,-0.02001820573736543,0.07814978936299867,-0.007072030566632748,-0.9355089068412781,-0.353232741355896,-0.061403628438711166,0.1563606858253479,0.13692891597747803,,,,,,,,
2409,Magnetometer,40.44390085675765,-79.9444593378597,286.0322074890137,77.56936645507812,15.465972900390625,-0.03436279296875,98.12745666503906,-1.0,-1.0,N/A,0.06622314453125,-0.85211181640625,-0.33221435546875,-0.08394603431224823,0.16830219328403473,0.1212124451994896,-30.0035400390625,-98.28744506835938,-326.23052978515625,0.03351551294326782,0.08177947998046875,0.05457264184951782,1.2096966956035167,-0.02001820573736543,0.07814978936299867,-0.007072030566632748,-0.9355089068412781,-0.353232741355896,-0.061403628438711166,0.1563606858253479,0.13692891597747803,,,,,,,,
2436,Gyrometer,40.44390085675765,-79.9444593378597,286.0322074890137,77.56936645507812,15.465972900390625,-0.03436279296875,98.12745666503906,-1.0,-1.0,N/A,0.06622314453125,-0.85211181640625,-0.33221435546875,0.11791491508483887,-0.0032621060963720083,-0.14915698766708374,-30.0035400390625,-98.28744506835938,-326.23052978515625,0.03351551294326782,0.08177947998046875,0.05457264184951782,1.2096966956035167,-0.02001820573736543,0.07814978936299867,-0.007072030566632748,-0.9355089068412781,-0.353232741355896,-0.061403628438711166,0.1563606858253479,0.13692891597747803,,,,,,,,
2462,Accelerometer,40.44390085675765,-79.9444593378597,286.0322074890137,77.56936645507812,15.465972900390625,-0.03436279296875,98.12745666503906,-1.0,-1.0,N/A,0.020965576171875,-1.0207672119140625,-0.399169921875,0.11791491508483887,-0.0032621060963720083,-0.14915698766708374,-30.0035400390625,-98.28744506835938,-326.23052978515625,0.03351551294326782,0.08177947998046875,0.05457264184951782,1.2096966956035167,-0.02001820573736543,0.07814978936299867,-0.007072030566632748,-0.9355089068412781,-0.353232741355896,-0.061403628438711166,0.1563606858253479,0.13692891597747803,,,,,,,,
2488,COMPASS,40.44390085675765,-79.9444593378597,286.0322074890137,78.87896728515625,15.467231750488281,-0.03436279296875,98.12745666503906,-1.0,-1.0,N/A,0.020965576171875,-1.0207672119140625,-0.399169921875,0.11791491508483887,-0.0032621060963720083,-0.14915698766708374,-30.0035400390625,-98.28744506835938,-326.23052978515625,0.03351551294326782,0.08177947998046875,0.05457264184951782,1.2096966956035167,-0.02001820573736543,0.07814978936299867,-0.007072030566632748,-0.9355089068412781,-0.353232741355896,-0.061403628438711166,0.1563606858253479,0.13692891597747803,,,,,,,,
2527,Device Motion,40.44390085675765,-79.9444593378597,286.0322074890137,78.87896728515625,15.467231750488281,-0.03436279296875,98.12745666503906,-1.0,-1.0,N/A,0.020965576171875,-1.0207672119140625,-0.399169921875,0.11791491508483887,-0.0032621060963720083,-0.14915698766708374,-30.0035400390625,-98.28744506835938,-326.23052978515625,0.022103101015090942,-0.08416146039962769,-0.042652428150177,1.2256648411039772,-0.0065645210918263515,0.049204351990775566,-0.002220898400992155,-0.9410309791564941,-0.3383135497570038,0.11356699466705322,-0.27688977122306824,-0.2382475882768631,,,,,,,,
2554,COMPASS,40.44390085675765,-79.9444593378597,286.0322074890137,80.2720718383789,15.467788696289062,-0.03436279296875,98.12745666503906,-1.0,-1.0,N/A,0.020965576171875,-1.0207672119140625,-0.399169921875,0.11791491508483887,-0.0032621060963720083,-0.14915698766708374,-30.0035400390625,-98.28744506835938,-326.23052978515625,0.022103101015090942,-0.08416146039962769,-0.042652428150177,1.2256648411039772,-0.0065645210918263515,0.049204351990775566,-0.002220898400992155,-0.9410309791564941,-0.3383135497570038,0.11356699466705322,-0.27688977122306824,-0.2382475882768631,,,,,,,,
2588,COMPASS,40.44390085675765,-79.9444593378597,286.0322074890137,81.44293975830078,15.468167304992676,-0.03436279296875,98.12745666503906,-1.0,-1.0,N/A,0.020965576171875,-1.0207672119140625,-0.399169921875,0.11791491508483887,-0.0032621060963720083,-0.14915698766708374,-30.0035400390625,-98.28744506835938,-326.23052978515625,0.022103101015090942,-0.08416146039962769,-0.042652428150177,1.2256648411039772,-0.0065645210918263515,0.049204351990775566,-0.002220898400992155,-0.9410309791564941,-0.3383135497570038,0.11356699466705322,-0.27688977122306824,-0.2382475882768631,,,,,,,,
2648,COMPASS,40.44390085675765,-79.9444593378597,286.0322074890137,82.4489974975586,15.468727111816406,-0.03436279296875,98.12745666503906,-1.0,-1.0,N/A,0.020965576171875,-1.0207672119140625,-0.399169921875,0.11791491508483887,-0.0032621060963720083,-0.14915698766708374,-30.0035400390625,-98.28744506835938,-326.23052978515625,0.022103101015090942,-0.08416146039962769,-0.042652428150177,1.2256648411039772,-0.0065645210918263515,0.049204351990775566,-0.002220898400992155,-0.9410309791564941,-0.3383135497570038,0.11356699466705322,-0.27688977122306824,-0.2382475882768631,,,,,,,,
2707,Magnetometer,40.44390085675765,-79.9444593378597,286.0322074890137,82.4489974975586,15.468727111816406,-0.03436279296875,98.12745666503906,-1.0,-1.0,N/A,0.020965576171875,-1.0207672119140625,-0.399169921875,0.11791491508483887,-0.0032621060963720083,-0.14915698766708374,-26.33819580078125,-99.266845703125,-328.02508544921875,0.022103101015090942,-0.08416146039962769,-0.042652428150177,1.2256648411039772,-0.0065645210918263515,0.049204351990775566,-0.002220898400992155,-0.9410309791564941,-0.3383135497570038,0.11356699466705322,-0.27688977122306824,-0.2382475882768631,,,,,,,,
2733,COMPASS,40.44390085675765,-79.9444593378597,286.0322074890137,83.53651428222656,15.469473838806152,-0.03436279296875,98.12745666503906,-1.0,-1.0,N/A,0.020965576171875,-1.0207672119140625,-0.399169921875,0.11791491508483887,-0.0032621060963720083,-0.14915698766708374,-26.33819580078125,-99.266845703125,-328.02508544921875,0.022103101015090942,-0.08416146039962769,-0.042652428150177,1.2256648411039772,-0.0065645210918263515,0.049204351990775566,-0.002220898400992155,-0.9410309791564941,-0.3383135497570038,0.11356699466705322,-0.27688977122306824,-0.2382475882768631,,,,,,,,
2759,Gyrometer,40.44390085675765,-79.9444593378597,286.0322074890137,83.53651428222656,15.469473838806152,-0.03436279296875,98.12745666503906,-1.0,-1.0,N/A,0.020965576171875,-1.0207672119140625,-0.399169921875,0.07051064819097519,-0.11764594167470932,-0.1891627311706543,-26.33819580078125,-99.266845703125,-328.02508544921875,0.022103101015090942,-0.08416146039962769,-0.042652428150177,1.2256648411039772,-0.0065645210918263515,0.049204351990775566,-0.002220898400992155,-0.9410309791564941,-0.3383135497570038,0.11356699466705322,-0.27688977122306824,-0.2382475882768631,,,,,,,,
2785,Accelerometer,40.44390085675765,-79.9444593378597,286.0322074890137,83.53651428222656,15.469473838806152,-0.03436279296875,98.12745666503906,-1.0,-1.0,N/A,-0.036041259765625,-0.885406494140625,-0.3327789306640625,0.07051064819097519,-0.11764594167470932,-0.1891627311706543,-26.33819580078125,-99.266845703125,-328.02508544921875,0.022103101015090942,-0.08416146039962769,-0.042652428150177,1.2256648411039772,-0.0065645210918263515,0.049204351990775566,-0.002220898400992155,-0.9410309791564941,-0.3383135497570038,0.11356699466705322,-0.27688977122306824,-0.2382475882768631,,,,,,,,
2826,Device Motion,40.44390085675765,-79.9444593378597,286.0322074890137,83.53651428222656,15.469473838806152,-0.03436279296875,98.12745666503906,-1.0,-1.0,N/A,-0.036041259765625,-0.885406494140625,-0.3327789306640625,0.07051064819097519,-0.11764594167470932,-0.1891627311706543,-26.33819580078125,-99.266845703125,-328.02508544921875,-0.027183949947357178,0.07303136587142944,-0.016915738582611084,1.2315670610308491,0.070010391967276,-0.07037907645571494,0.02327769435942173,-0.9430114030838013,-0.3319457471370697,-0.29887819290161133,-0.22256268560886383,0.08785703778266907,,,,,,,,
3006,Magnetometer,40.44390085675765,-79.9444593378597,286.0322074890137,83.53651428222656,15.469473838806152,-0.03436279296875,98.12745666503906,-1.0,-1.0,N/A,-0.036041259765625,-0.885406494140625,-0.3327789306640625,0.07051064819097519,-0.11764594167470932,-0.1891627311706543,-21.857742309570312,-100.41119384765625,-328.7281494140625,-0.027183949947357178,0.07303136587142944,-0.016915738582611084,1.2315670610308491,0.070010391967276,-0.07037907645571494,0.02327769435942173,-0.9430114030838013,-0.3319457471370697,-0.29887819290161133,-0.22256268560886383,0.08785703778266907,,,,,,,,
3033,Gyrometer,40.44390085675765,-79.9444593378597,286.0322074890137,83.53651428222656,15.469473838806152,-0.03436279296875,98.12745666503906,-1.0,-1.0,N/A,-0.036041259765625,-0.885406494140625,-0.3327789306640625,0.20842857658863068,0.05916345492005348,0.09892791509628296,-21.857742309570312,-100.41119384765625,-328.7281494140625,-0.027183949947357178,0.07303136587142944,-0.016915738582611084,1.2315670610308491,0.070010391967276,-0.07037907645571494,0.02327769435942173,-0.9430114030838013,-0.3319457471370697,-0.29887819290161133,-0.22256268560886383,0.08785703778266907,,,,,,,,
3059,COMPASS,40.44390085675765,-79.9444593378597,286.0322074890137,82.45903015136719,15.472256660461426,-0.03436279296875,98.12745666503906,-1.0,-1.0,N/A,-0.036041259765625,-0.885406494140625,-0.3327789306640625,0.20842857658863068,0.05916345492005348,0.09892791509628296,-21.857742309570312,-100.41119384765625,-328.7281494140625,-0.027183949947357178,0.07303136587142944,-0.016915738582611084,1.2315670610308491,0.070010391967276,-0.07037907645571494,0.02327769435942173,-0.9430114030838013,-0.3319457471370697,-0.29887819290161133,-0.22256268560886383,0.08785703778266907,,,,,,,,
3086,Altimeter,40.44390085675765,-79.9444593378597,286.0322074890137,82.45903015136719,15.472256660461426,-0.07135009765625,98.12788391113281,-1.0,-1.0,N/A,-0.036041259765625,-0.885406494140625,-0.3327789306640625,0.20842857658863068,0.05916345492005348,0.09892791509628296,-21.857742309570312,-100.41119384765625,-328.7281494140625,-0.027183949947357178,0.07303136587142944,-0.016915738582611084,1.2315670610308491,0.070010391967276,-0.07037907645571494,0.02327769435942173,-0.9430114030838013,-0.3319457471370697,-0.29887819290161133,-0.22256268560886383,0.08785703778266907,,,,,,,,
3111,Accelerometer,40.44390085675765,-79.9444593378597,286.0322074890137,82.45903015136719,15.472256660461426,-0.07135009765625,98.12788391113281,-1.0,-1.0,N/A,-0.0289459228515625,-1.0302581787109375,-0.308197021484375,0.20842857658863068,0.05916345492005348,0.09892791509628296,-21.857742309570312,-100.41119384765625,-328.7281494140625,-0.027183949947357178,0.07303136587142944,-0.016915738582611084,1.2315670610308491,0.070010391967276,-0.07037907645571494,0.02327769435942173,-0.9430114030838013,-0.3319457471370697,-0.29887819290161133,-0.22256268560886383,0.08785703778266907,,,,,,,,
3138,COMPASS,40.44390085675765,-79.9444593378597,286.0322074890137,81.3221435546875,15.472818374633789,-0.07135009765625,98.12788391113281,-1.0,-1.0,N/A,-0.0289459228515625,-1.0302581787109375,-0.308197021484375,0.20842857658863068,0.05916345492005348,0.09892791509628296,-21.857742309570312,-100.41119384765625,-328.7281494140625,-0.027183949947357178,0.07303136587142944,-0.016915738582611084,1.2315670610308491,0.070010391967276,-0.07037907645571494,0.02327769435942173,-0.9430114030838013,-0.3319457471370697,-0.29887819290161133,-0.22256268560886383,0.08785703778266907,,,,,,,,
3163,Device Motion,40.44390085675765,-79.9444593378597,286.0322074890137,81.3221435546875,15.472818374633789,-0.07135009765625,98.12788391113281,-1.0,-1.0,N/A,-0.0289459228515625,-1.0302581787109375,-0.308197021484375,0.20842857658863068,0.05916345492005348,0.09892791509628296,-21.857742309570312,-100.41119384765625,-328.7281494140625,-0.03933858871459961,-0.10178190469741821,-0.05440446734428406,1.261572449542005,0.015398417204223847,0.005596505549621274,0.004685856401920319,-0.9525700211524963,-0.30428361892700195,0.05009085685014725,0.18262754380702972,0.10337916016578674,,,,,,,,
3206,COMPASS,40.44390085675765,-79.9444593378597,286.0322074890137,80.01981353759766,15.473551750183105,-0.07135009765625,98.12788391113281,-1.0,-1.0,N/A,-0.0289459228515625,-1.0302581787109375,-0.308197021484375,0.20842857658863068,0.05916345492005348,0.09892791509628296,-21.857742309570312,-100.41119384765625,-328.7281494140625,-0.03933858871459961,-0.10178190469741821,-0.05440446734428406,1.261572449542005,0.015398417204223847,0.005596505549621274,0.004685856401920319,-0.9525700211524963,-0.30428361892700195,0.05009085685014725,0.18262754380702972,0.10337916016578674,,,,,,,,
3266,COMPASS,40.44390085675765,-79.9444593378597,286.0322074890137,78.97441864013672,15.474102973937988,-0.07135009765625,98.12788391113281,-1.0,-1.0,N/A,-0.0289459228515625,-1.0302581787109375,-0.308197021484375,0.20842857658863068,0.05916345492005348,0.09892791509628296,-21.857742309570312,-100.41119384765625,-328.7281494140625,-0.03933858871459961,-0.10178190469741821,-0.05440446734428406,1.261572449542005,0.015398417204223847,0.005596505549621274,0.004685856401920319,-0.9525700211524963,-0.30428361892700195,0.05009085685014725,0.18262754380702972,0.10337916016578674,,,,,,,,
3306,Magnetometer,40.44390085675765,-79.9444593378597,286.0322074890137,78.97441864013672,15.474102973937988,-0.07135009765625,98.12788391113281,-1.0,-1.0,N/A,-0.0289459228515625,-1.0302581787109375,-0.308197021484375,0.20842857658863068,0.05916345492005348,0.09892791509628296,-18.216323852539062,-103.47898864746094,-325.654052734375,-0.03933858871459961,-0.10178190469741821,-0.05440446734428406,1.261572449542005,0.015398417204223847,0.005596505549621274,0.004685856401920319,-0.9525700211524963,-0.30428361892700195,0.05009085685014725,0.18262754380702972,0.10337916016578674,,,,,,,,
3333,COMPASS,40.44390085675765,-79.9444593378597,286.0322074890137,77.67928314208984,15.474645614624023,-0.07135009765625,98.12788391113281,-1.0,-1.0,N/A,-0.0289459228515625,-1.0302581787109375,-0.308197021484375,0.20842857658863068,0.05916345492005348,0.09892791509628296,-18.216323852539062,-103.47898864746094,-325.654052734375,-0.03933858871459961,-0.10178190469741821,-0.05440446734428406,1.261572449542005,0.015398417204223847,0.005596505549621274,0.004685856401920319,-0.9525700211524963,-0.30428361892700195,0.05009085685014725,0.18262754380702972,0.10337916016578674,,,,,,,,
3359,Gyrometer,40.44390085675765,-79.9444593378597,286.0322074890137,77.67928314208984,15.474645614624023,-0.07135009765625,98.12788391113281,-1.0,-1.0,N/A,-0.0289459228515625,-1.0302581787109375,-0.308197021484375,0.04742211103439331,0.26559919118881226,0.18876592814922333,-18.216323852539062,-103.47898864746094,-325.654052734375,-0.03933858871459961,-0.10178190469741821,-0.05440446734428406,1.261572449542005,0.015398417204223847,0.005596505549621274,0.004685856401920319,-0.9525700211524963,-0.30428361892700195,0.05009085685014725,0.18262754380702972,0.10337916016578674,,,,,,,,
3386,Accelerometer,40.44390085675765,-79.9444593378597,286.0322074890137,77.67928314208984,15.474645614624023,-0.07135009765625,98.12788391113281,-1.0,-1.0,N/A,-0.0025482177734375,-0.8907470703125,-0.3100738525390625,0.04742211103439331,0.26559919118881226,0.18876592814922333,-18.216323852539062,-103.47898864746094,-325.654052734375,-0.03933858871459961,-0.10178190469741821,-0.05440446734428406,1.261572449542005,0.015398417204223847,0.005596505549621274,0.004685856401920319,-0.9525700211524963,-0.30428361892700195,0.05009085685014725,0.18262754380702972,0.10337916016578674,,,,,,,,
3425,Device Motion,40.44390085675765,-79.9444593378597,286.0322074890137,77.67928314208984,15.474645614624023,-0.07135009765625,98.12788391113281,-1.0,-1.0,N/A,-0.0025482177734375,-0.8907470703125,-0.3100738525390625,0.04742211103439331,0.26559919118881226,0.18876592814922333,-18.216323852539062,-103.47898864746094,-325.654052734375,0.02120169997215271,0.1220555305480957,0.013036608695983887,1.240429820003399,-0.057299345119745264,0.13711922612979885,-0.018577182665467262,-0.9459235072135925,-0.3238579332828522,-0.2625662386417389,0.20211270451545715,-0.16930446028709412,,,,,,,,
3606,Magnetometer,40.44390085675765,-79.9444593378597,286.0322074890137,77.67928314208984,15.474645614624023,-0.07135009765625,98.12788391113281,-1.0,-1.0,N/A,-0.0025482177734375,-0.8907470703125,-0.3100738525390625,0.04742211103439331,0.26559919118881226,0.18876592814922333,-17.830841064453125,-105.88949584960938,-322.736572265625,0.02120169997215271,0.1220555305480957,0.013036608695983887,1.240429820003399,-0.057299345119745264,0.13711922612979885,-0.018577182665467262,-0.9459235072135925,-0.3238579332828522,-0.2625662386417389,0.20211270451545715,-0.16930446028709412,,,,,,,,
3633,Gyrometer,40.44390085675765,-79.9444593378597,286.0322074890137,77.67928314208984,15.474645614624023,-0.07135009765625,98.12788391113281,-1.0,-1.0,N/A,-0.0025482177734375,-0.8907470703125,-0.3100738525390625,0.0753813087940216,-0.2078687697649002,0.044324055314064026,-17.830841064453125,-105.88949584960938,-322.736572265625,0.02120169997215271,0.1220555305480957,0.013036608695983887,1.240429820003399,-0.057299345119745264,0.13711922612979885,-0.018577182665467262,-0.9459235072135925,-0.3238579332828522,-0.2625662386417389,0.20211270451545715,-0.16930446028709412,,,,,,,,
3662,Accelerometer,40.44390085675765,-79.9444593378597,286.0322074890137,77.67928314208984,15.474645614624023,-0.07135009765625,98.12788391113281,-1.0,-1.0,N/A,-0.007537841796875,-1.0341033935546875,-0.3171844482421875,0.0753813087940216,-0.2078687697649002,0.044324055314064026,-17.830841064453125,-105.88949584960938,-322.736572265625,0.02120169997215271,0.1220555305480957,0.013036608695983887,1.240429820003399,-0.057299345119745264,0.13711922612979885,-0.018577182665467262,-0.9459235072135925,-0.3238579332828522,-0.2625662386417389,0.20211270451545715,-0.16930446028709412,,,,,,,,
3724,Device Motion,40.44390085675765,-79.9444593378597,286.0322074890137,77.67928314208984,15.474645614624023,-0.07135009765625,98.12788391113281,-1.0,-1.0,N/A,-0.007537841796875,-1.0341033935546875,-0.3171844482421875,0.0753813087940216,-0.2078687697649002,0.044324055314064026,-17.830841064453125,-105.88949584960938,-322.736572265625,0.034831851720809937,-0.08943033218383789,-0.08205235004425049,1.2424140680894595,-0.08173962016529379,0.14386091927517553,-0.02633269876241684,-0.9465653300285339,-0.3214356303215027,-0.05170297622680664,-0.22147123515605927,-0.05921158939599991,,,,,,,,
3825,COMPASS,40.44390085675765,-79.9444593378597,286.0322074890137,78.93319702148438,15.479080200195312,-0.07135009765625,98.12788391113281,-1.0,-1.0,N/A,-0.007537841796875,-1.0341033935546875,-0.3171844482421875,0.0753813087940216,-0.2078687697649002,0.044324055314064026,-17.830841064453125,-105.88949584960938,-322.736572265625,0.034831851720809937,-0.08943033218383789,-0.08205235004425049,1.2424140680894595,-0.08173962016529379,0.14386091927517553,-0.02633269876241684,-0.9465653300285339,-0.3214356303215027,-0.05170297622680664,-0.22147123515605927,-0.05921158939599991,,,,,,,,
3905,Magnetometer,40.44390085675765,-79.9444593378597,286.0322074890137,78.93319702148438,15.479080200195312,-0.07135009765625,98.12788391113281,-1.0,-1.0,N/A,-0.007537841796875,-1.0341033935546875,-0.3171844482421875,0.0753813087940216,-0.2078687697649002,0.044324055314064026,-21.657272338867188,-107.13493347167969,-320.08209228515625,0.034831851720809937,-0.08943033218383789,-0.08205235004425049,1.2424140680894595,-0.08173962016529379,0.14386091927517553,-0.02633269876241684,-0.9465653300285339,-0.3214356303215027,-0.05170297622680664,-0.22147123515605927,-0.05921158939599991,,,,,,,,
3931,Gyrometer,40.44390085675765,-79.9444593378597,286.0322074890137,78.93319702148438,15.479080200195312,-0.07135009765625,98.12788391113281,-1.0,-1.0,N/A,-0.007537841796875,-1.0341033935546875,-0.3171844482421875,0.21170160174369812,-0.06906268745660782,-0.13046453893184662,-21.657272338867188,-107.13493347167969,-320.08209228515625,0.034831851720809937,-0.08943033218383789,-0.08205235004425049,1.2424140680894595,-0.08173962016529379,0.14386091927517553,-0.02633269876241684,-0.9465653300285339,-0.3214356303215027,-0.05170297622680664,-0.22147123515605927,-0.05921158939599991,,,,,,,,
3958,COMPASS,40.44390085675765,-79.9444593378597,286.0322074890137,80.26423645019531,15.480130195617676,-0.07135009765625,98.12788391113281,-1.0,-1.0,N/A,-0.007537841796875,-1.0341033935546875,-0.3171844482421875,0.21170160174369812,-0.06906268745660782,-0.13046453893184662,-21.657272338867188,-107.13493347167969,-320.08209228515625,0.034831851720809937,-0.08943033218383789,-0.08205235004425049,1.2424140680894595,-0.08173962016529379,0.14386091927517553,-0.02633269876241684,-0.9465653300285339,-0.3214356303215027,-0.05170297622680664,-0.22147123515605927,-0.05921158939599991,,,,,,,,
3984,Accelerometer,40.44390085675765,-79.9444593378597,286.0322074890137,80.26423645019531,15.480130195617676,-0.07135009765625,98.12788391113281,-1.0,-1.0,N/A,-0.070465087890625,-0.893524169921875,-0.3042144775390625,0.21170160174369812,-0.06906268745660782,-0.13046453893184662,-21.657272338867188,-107.13493347167969,-320.08209228515625,0.034831851720809937,-0.08943033218383789,-0.08205235004425049,1.2424140680894595,-0.08173962016529379,0.14386091927517553,-0.02633269876241684,-0.9465653300285339,-0.3214356303215027,-0.05170297622680664,-0.22147123515605927,-0.05921158939599991,,,,,,,,
4023,Device Motion,40.44390085675765,-79.9444593378597,286.0322074890137,80.26423645019531,15.480130195617676,-0.07135009765625,98.12788391113281,-1.0,-1.0,N/A,-0.070465087890625,-0.893524169921875,-0.3042144775390625,0.21170160174369812,-0.06906268745660782,-0.13046453893184662,-21.657272338867188,-107.13493347167969,-320.08209228515625,-0.05115276575088501,0.10175776481628418,-0.06348288059234619,1.271772538394853,0.04613380691269554,-0.009133212798757699,0.013585642911493778,-0.955624520778656,-0.2942745089530945,-0.22555780410766602,0.13051685690879822,-0.08970014750957489,,,,,,,,
4048,Altimeter,40.44390085675765,-79.9444593378597,286.0322074890137,80.26423645019531,15.480130195617676,-0.121551513671875,98.12847137451172,-1.0,-1.0,N/A,-0.070465087890625,-0.893524169921875,-0.3042144775390625,0.21170160174369812,-0.06906268745660782,-0.13046453893184662,-21.657272338867188,-107.13493347167969,-320.08209228515625,-0.05115276575088501,0.10175776481628418,-0.06348288059234619,1.271772538394853,0.04613380691269554,-0.009133212798757699,0.013585642911493778,-0.955624520778656,-0.2942745089530945,-0.22555780410766602,0.13051685690879822,-0.08970014750957489,,,,,,,,
4124,COMPASS,40.44390085675765,-79.9444593378597,286.0322074890137,81.37503051757812,15.481701850891113,-0.121551513671875,98.12847137451172,-1.0,-1.0,N/A,-0.070465087890625,-0.893524169921875,-0.3042144775390625,0.21170160174369812,-0.06906268745660782,-0.13046453893184662,-21.657272338867188,-107.13493347167969,-320.08209228515625,-0.05115276575088501,0.10175776481628418,-0.06348288059234619,1.271772538394853,0.04613380691269554,-0.009133212798757699,0.013585642911493778,-0.955624520778656,-0.2942745089530945,-0.22555780410766602,0.13051685690879822,-0.08970014750957489,,,,,,,,
4204,Magnetometer,40.44390085675765,-79.9444593378597,286.0322074890137,81.37503051757812,15.481701850891113,-0.121551513671875,98.12847137451172,-1.0,-1.0,N/A,-0.070465087890625,-0.893524169921875,-0.3042144775390625,0.21170160174369812,-0.06906268745660782,-0.13046453893184662,-23.74078369140625,-106.60316467285156,-320.120361328125,-0.05115276575088501,0.10175776481628418,-0.06348288059234619,1.271772538394853,0.04613380691269554,-0.009133212798757699,0.013585642911493778,-0.955624520778656,-0.2942745089530945,-0.22555780410766602,0.13051685690879822,-0.08970014750957489,,,,,,,,
4230,Gyrometer,40.44390085675765,-79.9444593378597,286.0322074890137,81.37503051757812,15.481701850891113,-0.121551513671875,98.12847137451172,-1.0,-1.0,N/A,-0.070465087890625,-0.893524169921875,-0.3042144775390625,0.008628109470009804,0.0026754115242511034,0.05242885276675224,-23.74078369140625,-106.60316467285156,-320.120361328125,-0.05115276575088501,0.10175776481628418,-0.06348288059234619,1.271772538394853,0.04613380691269554,-0.009133212798757699,0.013585642911493778,-0.955624520778656,-0.2942745089530945,-0.22555780410766602,0.13051685690879822,-0.08970014750957489,,,,,,,,
4268,Accelerometer,40.44390085675765,-79.9444593378597,286.0322074890137,81.37503051757812,15.481701850891113,-0.121551513671875,98.12847137451172,-1.0,-1.0,N/A,0.0060882568359375,-0.97882080078125,-0.27655029296875,0.008628109470009804,0.0026754115242511034,0.05242885276675224,-23.74078369140625,-106.60316467285156,-320.120361328125,-0.05115276575088501,0.10175776481628418,-0.06348288059234619,1.271772538394853,0.04613380691269554,-0.009133212798757699,0.013585642911493778,-0.955624520778656,-0.2942745089530945,-0.22555780410766602,0.13051685690879822,-0.08970014750957489,,,,,,,,
4322,Device Motion,40.44390085675765,-79.9444593378597,286.0322074890137,81.37503051757812,15.481701850891113,-0.121551513671875,98.12847137451172,-1.0,-1.0,N/A,0.0060882568359375,-0.97882080078125,-0.27655029296875,0.008628109470009804,0.0026754115242511034,0.05242885276675224,-23.74078369140625,-106.60316467285156,-320.120361328125,-0.05383872985839844,-0.0892382264137268,0.008235007524490356,1.275466820217518,0.06055578396367445,-0.025211929043083697,0.017614347860217094,-0.9567062854766846,-0.29052242636680603,0.17670805752277374,0.1109764575958252,0.0855860561132431,,,,,,,,
4423,COMPASS,40.44390085675765,-79.9444593378597,286.0322074890137,80.23202514648438,15.484078407287598,-0.121551513671875,98.12847137451172,-1.0,-1.0,N/A,0.0060882568359375,-0.97882080078125,-0.27655029296875,0.008628109470009804,0.0026754115242511034,0.05242885276675224,-23.74078369140625,-106.60316467285156,-320.120361328125,-0.05383872985839844,-0.0892382264137268,0.008235007524490356,1.275466820217518,0.06055578396367445,-0.025211929043083697,0.017614347860217094,-0.9567062854766846,-0.29052242636680603,0.17670805752277374,0.1109764575958252,0.0855860561132431,,,,,,,,
4504,Magnetometer,40.44390085675765,-79.9444593378597,286.0322074890137,80.23202514648438,15.484078407287598,-0.121551513671875,98.12847137451172,-1.0,-1.0,N/A,0.0060882568359375,-0.97882080078125,-0.27655029296875,0.008628109470009804,0.0026754115242511034,0.05242885276675224,-25.770553588867188,-105.4686279296875,-319.92230224609375,-0.05383872985839844,-0.0892382264137268,0.008235007524490356,1.275466820217518,0.06055578396367445,-0.025211929043083697,0.017614347860217094,-0.9567062854766846,-0.29052242636680603,0.17670805752277374,0.1109764575958252,0.0855860561132431,,,,,,,,
4536,Gyrometer,40.44390085675765,-79.9444593378597,286.0322074890137,80.23202514648438,15.484078407287598,-0.121551513671875,98.12847137451172,-1.0,-1.0,N/A,0.0060882568359375,-0.97882080078125,-0.27655029296875,0.0785699114203453,0.0951925590634346,0.12392700463533401,-25.770553588867188,-105.4686279296875,-319.92230224609375,-0.05383872985839844,-0.0892382264137268,0.008235007524490356,1.275466820217518,0.06055578396367445,-0.025211929043083697,0.017614347860217094,-0.9567062854766846,-0.29052242636680603,0.17670805752277374,0.1109764575958252,0.0855860561132431,,,,,,,,
4561,COMPASS,40.44390085675765,-79.9444593378597,286.0322074890137,79.2278060913086,15.485154151916504,-0.121551513671875,98.12847137451172,-1.0,-1.0,N/A,0.0060882568359375,-0.97882080078125,-0.27655029296875,0.0785699114203453,0.0951925590634346,0.12392700463533401,-25.770553588867188,-105.4686279296875,-319.92230224609375,-0.05383872985839844,-0.0892382264137268,0.008235007524490356,1.275466820217518,0.06055578396367445,-0.025211929043083697,0.017614347860217094,-0.9567062854766846,-0.29052242636680603,0.17670805752277374,0.1109764575958252,0.0855860561132431,,,,,,,,
4588,Accelerometer,40.44390085675765,-79.9444593378597,286.0322074890137,79.2278060913086,15.485154151916504,-0.121551513671875,98.12847137451172,-1.0,-1.0,N/A,0.0553741455078125,-0.9364471435546875,-0.3256988525390625,0.0785699114203453,0.0951925590634346,0.12392700463533401,-25.770553588867188,-105.4686279296875,-319.92230224609375,-0.05383872985839844,-0.0892382264137268,0.008235007524490356,1.275466820217518,0.06055578396367445,-0.025211929043083697,0.017614347860217094,-0.9567062854766846,-0.29052242636680603,0.17670805752277374,0.1109764575958252,0.0855860561132431,,,,,,,,
4621,Device Motion,40.44390085675765,-79.9444593378597,286.0322074890137,79.2278060913086,15.485154151916504,-0.121551513671875,98.12847137451172,-1.0,-1.0,N/A,0.0553741455078125,-0.9364471435546875,-0.3256988525390625,0.0785699114203453,0.0951925590634346,0.12392700463533401,-25.770553588867188,-105.4686279296875,-319.92230224609375,0.04851561784744263,0.0454401969909668,-0.0005707442760467529,1.2643090759148945,0.006295525075190051,0.07193613177074067,0.001899420516565442,-0.9533993005752563,-0.30170562863349915,-0.036199212074279785,0.17694346606731415,0.1783311665058136,,,,,,,,
4648,COMPASS,40.44390085675765,-79.9444593378597,286.0322074890137,77.90240478515625,15.485493659973145,-0.121551513671875,98.12847137451172,-1.0,-1.0,N/A,0.0553741455078125,-0.9364471435546875,-0.3256988525390625,0.0785699114203453,0.0951925590634346,0.12392700463533401,-25.770553588867188,-105.4686279296875,-319.92230224609375,0.04851561784744263,0.0454401969909668,-0.0005707442760467529,1.2643090759148945,0.006295525075190051,0.07193613177074067,0.001899420516565442,-0.9533993005752563,-0.30170562863349915,-0.036199212074279785,0.17694346606731415,0.1783311665058136,,,,,,,,
4742,COMPASS,40.44390085675765,-79.9444593378597,286.0322074890137,76.73799133300781,15.486132621765137,-0.121551513671875,98.12847137451172,-1.0,-1.0,N/A,0.0553741455078125,-0.9364471435546875,-0.3256988525390625,0.0785699114203453,0.0951925590634346,0.12392700463533401,-25.770553588867188,-105.4686279296875,-319.92230224609375,0.04851561784744263,0.0454401969909668,-0.0005707442760467529,1.2643090759148945,0.006295525075190051,0.07193613177074067,0.001899420516565442,-0.9533993005752563,-0.30170562863349915,-0.036199212074279785,0.17694346606731415,0.1783311665058136,,,,,,,,
4804,Magnetometer,40.44390085675765,-79.9444593378597,286.0322074890137,76.73799133300781,15.486132621765137,-0.121551513671875,98.12847137451172,-1.0,-1.0,N/A,0.0553741455078125,-0.9364471435546875,-0.3256988525390625,0.0785699114203453,0.0951925590634346,0.12392700463533401,-25.230010986328125,-103.45733642578125,-320.17828369140625,0.04851561784744263,0.0454401969909668,-0.0005707442760467529,1.2643090759148945,0.006295525075190051,0.07193613177074067,0.001899420516565442,-0.9533993005752563,-0.30170562863349915,-0.036199212074279785,0.17694346606731415,0.1783311665058136,,,,,,,,
4830,Gyrometer,40.44390085675765,-79.9444593378597,286.0322074890137,76.73799133300781,15.486132621765137,-0.121551513671875,98.12847137451172,-1.0,-1.0,N/A,0.0553741455078125,-0.9364471435546875,-0.3256988525390625,-0.042810048907995224,-0.017834391444921494,0.10423426330089569,-25.230010986328125,-103.45733642578125,-320.17828369140625,0.04851561784744263,0.0454401969909668,-0.0005707442760467529,1.2643090759148945,0.006295525075190051,0.07193613177074067,0.001899420516565442,-0.9533993005752563,-0.30170562863349915,-0.036199212074279785,0.17694346606731415,0.1783311665058136,,,,,,,,
4874,Accelerometer,40.44390085675765,-79.9444593378597,286.0322074890137,76.73799133300781,15.486132621765137,-0.121551513671875,98.12847137451172,-1.0,-1.0,N/A,0.001373291015625,-0.93646240234375,-0.3064422607421875,-0.042810048907995224,-0.017834391444921494,0.10423426330089569,-25.230010986328125,-103.45733642578125,-320.17828369140625,0.04851561784744263,0.0454401969909668,-0.0005707442760467529,1.2643090759148945,0.006295525075190051,0.07193613177074067,0.001899420516565442,-0.9533993005752563,-0.30170562863349915,-0.036199212074279785,0.17694346606731415,0.1783311665058136,,,,,,,,
