Timestamp (ms),Triggering Sensor,Latitude,Longitude,Altitude,Heading (degrees),Heading accuracy (degrees),Relative Altitude (m),Pressure (kPa),Speed (m/s),Speed Accuracy (m/s),Floor,Acceleration - X axis,Acceleration - Y axis,Acceleration - Z axis,Gyrometer - X axis,Gyrometer - Y axis,Gyrometer - Z axis,Magnetometer - X axis,Magnetometer - Y axis,Magnetometer - Z axis,User acceleration - X axis,User acceleration - Y axis,User acceleration - Z axis,Attitude Pitch,Attitude Roll,Attitude Yaw,Gravity - X axis,Gravity - Y axis,Gravity - Z axis,Rotation Rate - X axis,Rotation Rate - Y axis,Rotation Rate - Z axis,Activity Type,Number of Steps,Distance,Floors Ascended,Floors Descended,Current Pace,Current Cadence,Average Active Pace
9,Gyrometer,,,,,,,,,,,,,,-0.05607765167951584,-0.03832155466079712,0.009002283215522766,,,,,,,,,,,,,,,,,,,,,,,
51,GPS,40.44350292258339,-79.94453493940435,289.80572509765625,,,,,-1.0,-1.0,N/A,,,,-0.05607765167951584,-0.03832155466079712,0.009002283215522766,,,,,,,,,,,,,,,,,,,,,,,
82,GPS,40.44350292258339,-79.94453493940435,289.80572509765625,,,,,-1.0,-1.0,N/A,,,,-0.05607765167951584,-0.03832155466079712,0.009002283215522766,,,,,,,,,,,,,,,,,,,,,,,
113,COMPASS,40.44350292258339,-79.94453493940435,289.80572509765625,303.2008972167969,15.354639053344727,,,-1.0,-1.0,N/A,,,,-0.05607765167951584,-0.03832155466079712,0.009002283215522766,,,,,,,,,,,,,,,,,,,,,,,
144,Magnetometer,40.44350292258339,-79.94453493940435,289.80572509765625,303.2008972167969,15.354639053344727,,,-1.0,-1.0,N/A,,,,-0.05607765167951584,-0.03832155466079712,0.009002283215522766,-32.88975524902344,-126.7896728515625,-332.21893310546875,,,,,,,,,,,,,,,,,,,,
174,GPS,40.443777495191476,-79.94450526825024,289.7984733581543,303.2008972167969,15.354639053344727,,,-1.0,-1.0,N/A,,,,-0.05607765167951584,-0.03832155466079712,0.009002283215522766,-32.88975524902344,-126.7896728515625,-332.21893310546875,,,,,,,,,,,,,,,,,,,,
205,GPS,40.44384499759573,-79.94449307912511,289.7984428405762,303.2008972167969,15.354639053344727,,,-1.0,-1.0,N/A,,,,-0.05607765167951584,-0.03832155466079712,0.009002283215522766,-32.88975524902344,-126.7896728515625,-332.21893310546875,,,,,,,,,,,,,,,,,,,,
233,Activity Manager,40.44384499759573,-79.94449307912511,289.7984428405762,303.2008972167969,15.354639053344727,,,-1.0,-1.0,N/A,,,,-0.05607765167951584,-0.03832155466079712,0.009002283215522766,-32.88975524902344,-126.7896728515625,-332.21893310546875,,,,,,,,,,,,,Walking,,,,,,,
264,Accelerometer,40.44384499759573,-79.94449307912511,289.7984428405762,303.2008972167969,15.354639053344727,,,-1.0,-1.0,N/A,0.028961181640625,-0.9695281982421875,-0.200958251953125,-0.05607765167951584,-0.03832155466079712,0.009002283215522766,-32.88975524902344,-126.7896728515625,-332.21893310546875,,,,,,,,,,,,,Walking,,,,,,,
294,Device Motion,40.44384499759573,-79.94449307912511,289.7984428405762,303.2008972167969,15.354639053344727,,,-1.0,-1.0,N/A,0.028961181640625,-0.9695281982421875,-0.200958251953125,-0.05607765167951584,-0.03832155466079712,0.009002283215522766,-32.88975524902344,-126.7896728515625,-332.21893310546875,-0.007133845239877701,0.0062103271484375,0.010148674249649048,1.347642165452805,0.11772772982061636,-0.09404415178489534,0.025993704795837402,-0.9752042889595032,-0.21977408230304718,-0.007513220421969891,-0.02598422020673752,0.03037744201719761,Walking,,,,,,,
323,Magnetometer,40.44384499759573,-79.94449307912511,289.7984428405762,303.2008972167969,15.354639053344727,,,-1.0,-1.0,N/A,0.028961181640625,-0.9695281982421875,-0.200958251953125,-0.05607765167951584,-0.03832155466079712,0.009002283215522766,-32.83233642578125,-126.31549072265625,-332.0916442871094,-0.007133845239877701,0.0062103271484375,0.010148674249649048,1.347642165452805,0.11772772982061636,-0.09404415178489534,0.025993704795837402,-0.9752042889595032,-0.21977408230304718,-0.007513220421969891,-0.02598422020673752,0.03037744201719761,Walking,,,,,,,
352,Gyrometer,40.44384499759573,-79.94449307912511,289.7984428405762,303.2008972167969,15.354639053344727,,,-1.0,-1.0,N/A,0.028961181640625,-0.9695281982421875,-0.200958251953125,-0.025367675349116325,-0.05663132295012474,0.022287195548415184,-32.83233642578125,-126.31549072265625,-332.0916442871094,-0.007133845239877701,0.0062103271484375,0.010148674249649048,1.347642165452805,0.11772772982061636,-0.09404415178489534,0.025993704795837402,-0.9752042889595032,-0.21977408230304718,-0.007513220421969891,-0.02598422020673752,0.03037744201719761,Walking,,,,,,,
381,Accelerometer,40.44384499759573,-79.94449307912511,289.7984428405762,303.2008972167969,15.354639053344727,,,-1.0,-1.0,N/A,0.031036376953125,-0.978668212890625,-0.2142486572265625,-0.025367675349116325,-0.05663132295012474,0.022287195548415184,-32.83233642578125,-126.31549072265625,-332.0916442871094,-0.007133845239877701,0.0062103271484375,0.010148674249649048,1.347642165452805,0.11772772982061636,-0.09404415178489534,0.025993704795837402,-0.9752042889595032,-0.21977408230304718,-0.007513220421969891,-0.02598422020673752,0.03037744201719761,Walking,,,,,,,
510,Device Motion,40.44384499759573,-79.94449307912511,289.7984428405762,303.2008972167969,15.354639053344727,,,-1.0,-1.0,N/A,0.031036376953125,-0.978668212890625,-0.2142486572265625,-0.025367675349116325,-0.05663132295012474,0.022287195548415184,-32.83233642578125,-126.31549072265625,-332.0916442871094,0.022004814818501472,0.004975736141204834,0.03536900877952576,1.346480086997973,0.09066520376785006,-0.07972895081659943,0.02013995125889778,-0.9749464392662048,-0.2215263992547989,-0.0397946760058403,-0.04897141829133034,-0.018772857263684273,Walking,,,,,,,
551,GPS,40.443609963742055,-79.94456678813971,289.748592376709,303.2008972167969,15.354639053344727,,,-1.0,-1.0,N/A,0.031036376953125,-0.978668212890625,-0.2142486572265625,-0.025367675349116325,-0.05663132295012474,0.022287195548415184,-32.83233642578125,-126.31549072265625,-332.0916442871094,0.022004814818501472,0.004975736141204834,0.03536900877952576,1.346480086997973,0.09066520376785006,-0.07972895081659943,0.02013995125889778,-0.9749464392662048,-0.2215263992547989,-0.0397946760058403,-0.04897141829133034,-0.018772857263684273,Walking,,,,,,,
604,Magnetometer,40.443609963742055,-79.94456678813971,289.748592376709,303.2008972167969,15.354639053344727,,,-1.0,-1.0,N/A,0.031036376953125,-0.978668212890625,-0.2142486572265625,-0.025367675349116325,-0.05663132295012474,0.022287195548415184,-33.17835998535156,-125.90562438964844,-331.5,0.022004814818501472,0.004975736141204834,0.03536900877952576,1.346480086997973,0.09066520376785006,-0.07972895081659943,0.02013995125889778,-0.9749464392662048,-0.2215263992547989,-0.0397946760058403,-0.04897141829133034,-0.018772857263684273,Walking,,,,,,,
641,Gyrometer,40.443609963742055,-79.94456678813971,289.748592376709,303.2008972167969,15.354639053344727,,,-1.0,-1.0,N/A,0.031036376953125,-0.978668212890625,-0.2142486572265625,-0.025546904653310776,-0.08593781292438507,-0.043780770152807236,-33.17835998535156,-125.90562438964844,-331.5,0.022004814818501472,0.004975736141204834,0.03536900877952576,1.346480086997973,0.09066520376785006,-0.07972895081659943,0.02013995125889778,-0.9749464392662048,-0.2215263992547989,-0.0397946760058403,-0.04897141829133034,-0.018772857263684273,Walking,,,,,,,
678,COMPASS,40.443609963742055,-79.94456678813971,289.748592376709,304.2113342285156,15.344034194946289,,,-1.0,-1.0,N/A,0.031036376953125,-0.978668212890625,-0.2142486572265625,-0.025546904653310776,-0.08593781292438507,-0.043780770152807236,-33.17835998535156,-125.90562438964844,-331.5,0.022004814818501472,0.004975736141204834,0.03536900877952576,1.346480086997973,0.09066520376785006,-0.07972895081659943,0.02013995125889778,-0.9749464392662048,-0.2215263992547989,-0.0397946760058403,-0.04897141829133034,-0.018772857263684273,Walking,,,,,,,
709,Accelerometer,40.443609963742055,-79.94456678813971,289.748592376709,304.2113342285156,15.344034194946289,,,-1.0,-1.0,N/A,0.02508544921875,-0.9812774658203125,-0.1833953857421875,-0.025546904653310776,-0.08593781292438507,-0.043780770152807236,-33.17835998535156,-125.90562438964844,-331.5,0.022004814818501472,0.004975736141204834,0.03536900877952576,1.346480086997973,0.09066520376785006,-0.07972895081659943,0.02013995125889778,-0.9749464392662048,-0.2215263992547989,-0.0397946760058403,-0.04897141829133034,-0.018772857263684273,Walking,,,,,,,
809,Device Motion,40.443609963742055,-79.94456678813971,289.748592376709,304.2113342285156,15.344034194946289,,,-1.0,-1.0,N/A,0.02508544921875,-0.9812774658203125,-0.1833953857421875,-0.025546904653310776,-0.08593781292438507,-0.043780770152807236,-33.17835998535156,-125.90562438964844,-331.5,-0.02574336528778076,0.021135807037353516,0.07658076286315918,1.3446397248947544,0.1354301307970409,-0.12582615408181574,0.03027523122727871,-0.9745354056358337,-0.2221803069114685,-0.01423482783138752,0.0134176816791296,-0.03119082935154438,Walking,,,,,,,
903,Magnetometer,40.443609963742055,-79.94456678813971,289.748592376709,304.2113342285156,15.344034194946289,,,-1.0,-1.0,N/A,0.02508544921875,-0.9812774658203125,-0.1833953857421875,-0.025546904653310776,-0.08593781292438507,-0.043780770152807236,-32.24952697753906,-125.25614929199219,-331.4327697753906,-0.02574336528778076,0.021135807037353516,0.07658076286315918,1.3446397248947544,0.1354301307970409,-0.12582615408181574,0.03027523122727871,-0.9745354056358337,-0.2221803069114685,-0.01423482783138752,0.0134176816791296,-0.03119082935154438,Walking,,,,,,,
942,Gyrometer,40.443609963742055,-79.94456678813971,289.748592376709,304.2113342285156,15.344034194946289,,,-1.0,-1.0,N/A,0.02508544921875,-0.9812774658203125,-0.1833953857421875,-0.09239570796489716,-0.06762485206127167,-0.001910285442136228,-32.24952697753906,-125.25614929199219,-331.4327697753906,-0.02574336528778076,0.021135807037353516,0.07658076286315918,1.3446397248947544,0.1354301307970409,-0.12582615408181574,0.03027523122727871,-0.9745354056358337,-0.2221803069114685,-0.01423482783138752,0.0134176816791296,-0.03119082935154438,Walking,,,,,,,
977,Accelerometer,40.443609963742055,-79.94456678813971,289.748592376709,304.2113342285156,15.344034194946289,,,-1.0,-1.0,N/A,0.0047454833984375,-0.9825286865234375,-0.163818359375,-0.09239570796489716,-0.06762485206127167,-0.001910285442136228,-32.24952697753906,-125.25614929199219,-331.4327697753906,-0.02574336528778076,0.021135807037353516,0.07658076286315918,1.3446397248947544,0.1354301307970409,-0.12582615408181574,0.03027523122727871,-0.9745354056358337,-0.2221803069114685,-0.01423482783138752,0.0134176816791296,-0.03119082935154438,Walking,,,,,,,
1018,Altimeter,40.443609963742055,-79.94456678813971,289.748592376709,304.2113342285156,15.344034194946289,0,98.06936645507812,-1.0,-1.0,N/A,0.0047454833984375,-0.9825286865234375,-0.163818359375,-0.09239570796489716,-0.06762485206127167,-0.001910285442136228,-32.24952697753906,-125.25614929199219,-331.4327697753906,-0.02574336528778076,0.021135807037353516,0.07658076286315918,1.3446397248947544,0.1354301307970409,-0.12582615408181574,0.03027523122727871,-0.9745354056358337,-0.2221803069114685,-0.01423482783138752,0.0134176816791296,-0.03119082935154438,Walking,,,,,,,
1109,Device Motion,40.443609963742055,-79.94456678813971,289.748592376709,304.2113342285156,15.344034194946289,0,98.06936645507812,-1.0,-1.0,N/A,0.0047454833984375,-0.9825286865234375,-0.163818359375,-0.09239570796489716,-0.06762485206127167,-0.001910285442136228,-32.24952697753906,-125.25614929199219,-331.4327697753906,-0.020517408847808838,-0.04872262477874756,0.0937771201133728,1.33692656236359,0.1037993850993096,-0.10591124202491854,0.02401164174079895,-0.9727768898010254,-0.23049600422382355,0.13136285543441772,-0.02831175923347473,0.011176837608218193,Walking,,,,,,,
1204,Magnetometer,40.443609963742055,-79.94456678813971,289.748592376709,304.2113342285156,15.344034194946289,0,98.06936645507812,-1.0,-1.0,N/A,0.0047454833984375,-0.9825286865234375,-0.163818359375,-0.09239570796489716,-0.06762485206127167,-0.001910285442136228,-31.2144775390625,-122.88088989257812,-331.049560546875,-0.020517408847808838,-0.04872262477874756,0.0937771201133728,1.33692656236359,0.1037993850993096,-0.10591124202491854,0.02401164174079895,-0.9727768898010254,-0.23049600422382355,0.13136285543441772,-0.02831175923347473,0.011176837608218193,Walking,,,,,,,
1245,Gyrometer,40.443609963742055,-79.94456678813971,289.748592376709,304.2113342285156,15.344034194946289,0,98.06936645507812,-1.0,-1.0,N/A,0.0047454833984375,-0.9825286865234375,-0.163818359375,0.17922408878803253,0.31794974207878113,0.03513987734913826,-31.2144775390625,-122.88088989257812,-331.049560546875,-0.020517408847808838,-0.04872262477874756,0.0937771201133728,1.33692656236359,0.1037993850993096,-0.10591124202491854,0.02401164174079895,-0.9727768898010254,-0.23049600422382355,0.13136285543441772,-0.02831175923347473,0.011176837608218193,Walking,,,,,,,
1278,COMPASS,40.443609963742055,-79.94456678813971,289.748592376709,303.1582336425781,15.347670555114746,0,98.06936645507812,-1.0,-1.0,N/A,0.0047454833984375,-0.9825286865234375,-0.163818359375,0.17922408878803253,0.31794974207878113,0.03513987734913826,-31.2144775390625,-122.88088989257812,-331.049560546875,-0.020517408847808838,-0.04872262477874756,0.0937771201133728,1.33692656236359,0.1037993850993096,-0.10591124202491854,0.02401164174079895,-0.9727768898010254,-0.23049600422382355,0.13136285543441772,-0.02831175923347473,0.011176837608218193,Walking,,,,,,,
1311,Accelerometer,40.443609963742055,-79.94456678813971,289.748592376709,303.1582336425781,15.347670555114746,0,98.06936645507812,-1.0,-1.0,N/A,0.0103912353515625,-1.03350830078125,-0.1706390380859375,0.17922408878803253,0.31794974207878113,0.03513987734913826,-31.2144775390625,-122.88088989257812,-331.049560546875,-0.020517408847808838,-0.04872262477874756,0.0937771201133728,1.33692656236359,0.1037993850993096,-0.10591124202491854,0.02401164174079895,-0.9727768898010254,-0.23049600422382355,0.13136285543441772,-0.02831175923347473,0.011176837608218193,Walking,,,,,,,
1364,COMPASS,40.443609963742055,-79.94456678813971,289.748592376709,302.1423645019531,15.350579261779785,0,98.06936645507812,-1.0,-1.0,N/A,0.0103912353515625,-1.03350830078125,-0.1706390380859375,0.17922408878803253,0.31794974207878113,0.03513987734913826,-31.2144775390625,-122.88088989257812,-331.049560546875,-0.020517408847808838,-0.04872262477874756,0.0937771201133728,1.33692656236359,0.1037993850993096,-0.10591124202491854,0.02401164174079895,-0.9727768898010254,-0.23049600422382355,0.13136285543441772,-0.02831175923347473,0.011176837608218193,Walking,,,,,,,
1408,Device Motion,40.443609963742055,-79.94456678813971,289.748592376709,302.1423645019531,15.350579261779785,0,98.06936645507812,-1.0,-1.0,N/A,0.0103912353515625,-1.03350830078125,-0.1706390380859375,0.17922408878803253,0.31794974207878113,0.03513987734913826,-31.2144775390625,-122.88088989257812,-331.049560546875,0.0033335071057081223,-0.06953436136245728,-0.04603378474712372,1.3920625673260225,0.0989957550507723,-0.058607935677937276,0.01757103018462658,-0.9840695858001709,-0.1769125610589981,-0.02638837695121765,-0.020701853558421135,0.1179463192820549,Walking,,,,,,,
1483,COMPASS,40.443609963742055,-79.94456678813971,289.748592376709,301.13385009765625,15.354074478149414,0,98.06936645507812,-1.0,-1.0,N/A,0.0103912353515625,-1.03350830078125,-0.1706390380859375,0.17922408878803253,0.31794974207878113,0.03513987734913826,-31.2144775390625,-122.88088989257812,-331.049560546875,0.0033335071057081223,-0.06953436136245728,-0.04603378474712372,1.3920625673260225,0.0989957550507723,-0.058607935677937276,0.01757103018462658,-0.9840695858001709,-0.1769125610589981,-0.02638837695121765,-0.020701853558421135,0.1179463192820549,Walking,,,,,,,
1523,Magnetometer,40.443609963742055,-79.94456678813971,289.748592376709,301.13385009765625,15.354074478149414,0,98.06936645507812,-1.0,-1.0,N/A,0.0103912353515625,-1.03350830078125,-0.1706390380859375,0.17922408878803253,0.31794974207878113,0.03513987734913826,-29.892654418945312,-119.25192260742188,-329.6617736816406,0.0033335071057081223,-0.06953436136245728,-0.04603378474712372,1.3920625673260225,0.0989957550507723,-0.058607935677937276,0.01757103018462658,-0.9840695858001709,-0.1769125610589981,-0.02638837695121765,-0.020701853558421135,0.1179463192820549,Walking,,,,,,,
1557,Gyrometer,40.443609963742055,-79.94456678813971,289.748592376709,301.13385009765625,15.354074478149414,0,98.06936645507812,-1.0,-1.0,N/A,0.0103912353515625,-1.03350830078125,-0.1706390380859375,0.18780452013015747,0.029941387474536896,0.14309591054916382,-29.892654418945312,-119.25192260742188,-329.6617736816406,0.0033335071057081223,-0.06953436136245728,-0.04603378474712372,1.3920625673260225,0.0989957550507723,-0.058607935677937276,0.01757103018462658,-0.9840695858001709,-0.1769125610589981,-0.02638837695121765,-0.020701853558421135,0.1179463192820549,Walking,,,,,,,
1589,Accelerometer,40.443609963742055,-79.94456678813971,289.748592376709,301.13385009765625,15.354074478149414,0,98.06936645507812,-1.0,-1.0,N/A,0.0302581787109375,-0.91021728515625,-0.165863037109375,0.18780452013015747,0.029941387474536896,0.14309591054916382,-29.892654418945312,-119.25192260742188,-329.6617736816406,0.0033335071057081223,-0.06953436136245728,-0.04603378474712372,1.3920625673260225,0.0989957550507723,-0.058607935677937276,0.01757103018462658,-0.9840695858001709,-0.1769125610589981,-0.02638837695121765,-0.020701853558421135,0.1179463192820549,Walking,,,,,,,
1643,COMPASS,40.443609963742055,-79.94456678813971,289.748592376709,300.1158142089844,15.358226776123047,0,98.06936645507812,-1.0,-1.0,N/A,0.0302581787109375,-0.91021728515625,-0.165863037109375,0.18780452013015747,0.029941387474536896,0.14309591054916382,-29.892654418945312,-119.25192260742188,-329.6617736816406,0.0033335071057081223,-0.06953436136245728,-0.04603378474712372,1.3920625673260225,0.0989957550507723,-0.058607935677937276,0.01757103018462658,-0.9840695858001709,-0.1769125610589981,-0.02638837695121765,-0.020701853558421135,0.1179463192820549,Walking,,,,,,,
1707,Device Motion,40.443609963742055,-79.94456678813971,289.748592376709,300.1158142089844,15.358226776123047,0,98.06936645507812,-1.0,-1.0,N/A,0.0302581787109375,-0.91021728515625,-0.165863037109375,0.18780452013015747,0.029941387474536896,0.14309591054916382,-29.892654418945312,-119.25192260742188,-329.6617736816406,0.0413975715637207,0.09003889560699463,-0.006030187010765076,1.39455082636932,-0.03194703425062448,0.08928422866989061,-0.00560044264420867,-0.9845089316368103,-0.17524434626102448,-0.305865079164505,0.18810676038265228,0.09849557280540466,Walking,,,,,,,
1763,COMPASS,40.443609963742055,-79.94456678813971,289.748592376709,299.0082702636719,15.361645698547363,0,98.06936645507812,-1.0,-1.0,N/A,0.0302581787109375,-0.91021728515625,-0.165863037109375,0.18780452013015747,0.029941387474536896,0.14309591054916382,-29.892654418945312,-119.25192260742188,-329.6617736816406,0.0413975715637207,0.09003889560699463,-0.006030187010765076,1.39455082636932,-0.03194703425062448,0.08928422866989061,-0.00560044264420867,-0.9845089316368103,-0.17524434626102448,-0.305865079164505,0.18810676038265228,0.09849557280540466,Walking,,,,,,,
1802,Magnetometer,40.443609963742055,-79.94456678813971,289.748592376709,299.0082702636719,15.361645698547363,0,98.06936645507812,-1.0,-1.0,N/A,0.0302581787109375,-0.91021728515625,-0.165863037109375,0.18780452013015747,0.029941387474536896,0.14309591054916382,-29.232315063476562,-113.58866882324219,-332.7315673828125,0.0413975715637207,0.09003889560699463,-0.006030187010765076,1.39455082636932,-0.03194703425062448,0.08928422866989061,-0.00560044264420867,-0.9845089316368103,-0.17524434626102448,-0.305865079164505,0.18810676038265228,0.09849557280540466,Walking,,,,,,,
1834,Gyrometer,40.443609963742055,-79.94456678813971,289.748592376709,299.0082702636719,15.361645698547363,0,98.06936645507812,-1.0,-1.0,N/A,0.0302581787109375,-0.91021728515625,-0.165863037109375,-0.1281888633966446,0.11906726658344269,-0.019951870664954185,-29.232315063476562,-113.58866882324219,-332.7315673828125,0.0413975715637207,0.09003889560699463,-0.006030187010765076,1.39455082636932,-0.03194703425062448,0.08928422866989061,-0.00560044264420867,-0.9845089316368103,-0.17524434626102448,-0.305865079164505,0.18810676038265228,0.09849557280540466,Walking,,,,,,,
1865,Accelerometer,40.443609963742055,-79.94456678813971,289.748592376709,299.0082702636719,15.361645698547363,0,98.06936645507812,-1.0,-1.0,N/A,0.05230712890625,-0.9434051513671875,-0.126434326171875,-0.1281888633966446,0.11906726658344269,-0.019951870664954185,-29.232315063476562,-113.58866882324219,-332.7315673828125,0.0413975715637207,0.09003889560699463,-0.006030187010765076,1.39455082636932,-0.03194703425062448,0.08928422866989061,-0.00560044264420867,-0.9845089316368103,-0.17524434626102448,-0.305865079164505,0.18810676038265228,0.09849557280540466,Walking,,,,,,,
2006,Device Motion,40.443609963742055,-79.94456678813971,289.748592376709,299.0082702636719,15.361645698547363,0,98.06936645507812,-1.0,-1.0,N/A,0.05230712890625,-0.9434051513671875,-0.126434326171875,-0.1281888633966446,0.11906726658344269,-0.019951870664954185,-29.232315063476562,-113.58866882324219,-332.7315673828125,0.04421365261077881,-0.11005735397338867,-0.03273908793926239,1.3820640740879255,-0.061165367128261455,0.10956890779227393,-0.011468270793557167,-0.9822428822517395,-0.18726228177547455,0.21464549005031586,-0.31914767622947693,-0.07654384523630142,Walking,,,,,,,
2043,COMPASS,40.443609963742055,-79.94456678813971,289.748592376709,300.1954345703125,15.368219375610352,0,98.06936645507812,-1.0,-1.0,N/A,0.05230712890625,-0.9434051513671875,-0.126434326171875,-0.1281888633966446,0.11906726658344269,-0.019951870664954185,-29.232315063476562,-113.58866882324219,-332.7315673828125,0.04421365261077881,-0.11005735397338867,-0.03273908793926239,1.3820640740879255,-0.061165367128261455,0.10956890779227393,-0.011468270793557167,-0.9822428822517395,-0.18726228177547455,0.21464549005031586,-0.31914767622947693,-0.07654384523630142,Walking,,,,,,,
2073,Altimeter,40.443609963742055,-79.94456678813971,289.748592376709,300.1954345703125,15.368219375610352,-0.031707763671875,98.06974792480469,-1.0,-1.0,N/A,0.05230712890625,-0.9434051513671875,-0.126434326171875,-0.1281888633966446,0.11906726658344269,-0.019951870664954185,-29.232315063476562,-113.58866882324219,-332.7315673828125,0.04421365261077881,-0.11005735397338867,-0.03273908793926239,1.3820640740879255,-0.061165367128261455,0.10956890779227393,-0.011468270793557167,-0.9822428822517395,-0.18726228177547455,0.21464549005031586,-0.31914767622947693,-0.07654384523630142,Walking,,,,,,,
2105,COMPASS,40.443609963742055,-79.94456678813971,289.748592376709,301.4794616699219,15.36998176574707,-0.031707763671875,98.06974792480469,-1.0,-1.0,N/A,0.05230712890625,-0.9434051513671875,-0.126434326171875,-0.1281888633966446,0.11906726658344269,-0.019951870664954185,-29.232315063476562,-113.58866882324219,-332.7315673828125,0.04421365261077881,-0.11005735397338867,-0.03273908793926239,1.3820640740879255,-0.061165367128261455,0.10956890779227393,-0.011468270793557167,-0.9822428822517395,-0.18726228177547455,0.21464549005031586,-0.31914767622947693,-0.07654384523630142,Walking,,,,,,,
2137,Magnetometer,40.443609963742055,-79.94456678813971,289.748592376709,301.4794616699219,15.36998176574707,-0.031707763671875,98.06974792480469,-1.0,-1.0,N/A,0.05230712890625,-0.9434051513671875,-0.126434326171875,-0.1281888633966446,0.11906726658344269,-0.019951870664954185,-28.5885009765625,-108.93418884277344,-335.12652587890625,0.04421365261077881,-0.11005735397338867,-0.03273908793926239,1.3820640740879255,-0.061165367128261455,0.10956890779227393,-0.011468270793557167,-0.9822428822517395,-0.18726228177547455,0.21464549005031586,-0.31914767622947693,-0.07654384523630142,Walking,,,,,,,
2169,COMPASS,40.443609963742055,-79.94456678813971,289.748592376709,302.5749816894531,15.371721267700195,-0.031707763671875,98.06974792480469,-1.0,-1.0,N/A,0.05230712890625,-0.9434051513671875,-0.126434326171875,-0.1281888633966446,0.11906726658344269,-0.019951870664954185,-28.5885009765625,-108.93418884277344,-335.12652587890625,0.04421365261077881,-0.11005735397338867,-0.03273908793926239,1.3820640740879255,-0.061165367128261455,0.10956890779227393,-0.011468270793557167,-0.9822428822517395,-0.18726228177547455,0.21464549005031586,-0.31914767622947693,-0.07654384523630142,Walking,,,,,,,
2200,Gyrometer,40.443609963742055,-79.94456678813971,289.748592376709,302.5749816894531,15.371721267700195,-0.031707763671875,98.06974792480469,-1.0,-1.0,N/A,0.05230712890625,-0.9434051513671875,-0.126434326171875,0.3223932385444641,-0.18952758610248566,-0.1669628918170929,-28.5885009765625,-108.93418884277344,-335.12652587890625,0.04421365261077881,-0.11005735397338867,-0.03273908793926239,1.3820640740879255,-0.061165367128261455,0.10956890779227393,-0.011468270793557167,-0.9822428822517395,-0.18726228177547455,0.21464549005031586,-0.31914767622947693,-0.07654384523630142,Walking,,,,,,,
2230,COMPASS,40.443609963742055,-79.94456678813971,289.748592376709,303.784912109375,15.374004364013672,-0.031707763671875,98.06974792480469,-1.0,-1.0,N/A,0.05230712890625,-0.9434051513671875,-0.126434326171875,0.3223932385444641,-0.18952758610248566,-0.1669628918170929,-28.5885009765625,-108.93418884277344,-335.12652587890625,0.04421365261077881,-0.11005735397338867,-0.03273908793926239,1.3820640740879255,-0.061165367128261455,0.10956890779227393,-0.011468270793557167,-0.9822428822517395,-0.18726228177547455,0.21464549005031586,-0.31914767622947693,-0.07654384523630142,Walking,,,,,,,
2261,Accelerometer,40.443609963742055,-79.94456678813971,289.748592376709,303.784912109375,15.374004364013672,-0.031707763671875,98.06974792480469,-1.0,-1.0,N/A,0.0079498291015625,-1.0733795166015625,-0.13885498046875,0.3223932385444641,-0.18952758610248566,-0.1669628918170929,-28.5885009765625,-108.93418884277344,-335.12652587890625,0.04421365261077881,-0.11005735397338867,-0.03273908793926239,1.3820640740879255,-0.061165367128261455,0.10956890779227393,-0.011468270793557167,-0.9822428822517395,-0.18726228177547455,0.21464549005031586,-0.31914767622947693,-0.07654384523630142,Walking,,,,,,,
2305,Device Motion,40.443609963742055,-79.94456678813971,289.748592376709,303.784912109375,15.374004364013672,-0.031707763671875,98.06974792480469,-1.0,-1.0,N/A,0.0079498291015625,-1.0733795166015625,-0.13885498046875,0.3223932385444641,-0.18952758610248566,-0.1669628918170929,-28.5885009765625,-108.93418884277344,-335.12652587890625,-0.027649523690342903,0.06403368711471558,0.012770071625709534,1.4013580063735152,0.10452605508373566,-0.11234642869312389,0.017593977972865105,-0.9856796264648438,-0.16770799458026886,-0.016275396570563316,-0.06459838896989822,-0.013791041448712349,Walking,,,,,,,
2401,COMPASS,40.443609963742055,-79.94456678813971,289.748592376709,304.7889709472656,15.378771781921387,-0.031707763671875,98.06974792480469,-1.0,-1.0,N/A,0.0079498291015625,-1.0733795166015625,-0.13885498046875,0.3223932385444641,-0.18952758610248566,-0.1669628918170929,-28.5885009765625,-108.93418884277344,-335.12652587890625,-0.027649523690342903,0.06403368711471558,0.012770071625709534,1.4013580063735152,0.10452605508373566,-0.11234642869312389,0.017593977972865105,-0.9856796264648438,-0.16770799458026886,-0.016275396570563316,-0.06459838896989822,-0.013791041448712349,Walking,,,,,,,
2438,Magnetometer,40.443609963742055,-79.94456678813971,289.748592376709,304.7889709472656,15.378771781921387,-0.031707763671875,98.06974792480469,-1.0,-1.0,N/A,0.0079498291015625,-1.0733795166015625,-0.13885498046875,0.3223932385444641,-0.18952758610248566,-0.1669628918170929,-29.752975463867188,-104.79481506347656,-341.7099304199219,-0.027649523690342903,0.06403368711471558,0.012770071625709534,1.4013580063735152,0.10452605508373566,-0.11234642869312389,0.017593977972865105,-0.9856796264648438,-0.16770799458026886,-0.016275396570563316,-0.06459838896989822,-0.013791041448712349,Walking,,,,,,,
2469,Gyrometer,40.443609963742055,-79.94456678813971,289.748592376709,304.7889709472656,15.378771781921387,-0.031707763671875,98.06974792480469,-1.0,-1.0,N/A,0.0079498291015625,-1.0733795166015625,-0.13885498046875,-0.04549930617213249,-0.11289326101541519,0.06993700563907623,-29.752975463867188,-104.79481506347656,-341.7099304199219,-0.027649523690342903,0.06403368711471558,0.012770071625709534,1.4013580063735152,0.10452605508373566,-0.11234642869312389,0.017593977972865105,-0.9856796264648438,-0.16770799458026886,-0.016275396570563316,-0.06459838896989822,-0.013791041448712349,Walking,,,,,,,
2502,Accelerometer,40.443609963742055,-79.94456678813971,289.748592376709,304.7889709472656,15.378771781921387,-0.031707763671875,98.06974792480469,-1.0,-1.0,N/A,-0.0283660888671875,-0.892364501953125,-0.1806640625,-0.04549930617213249,-0.11289326101541519,0.06993700563907623,-29.752975463867188,-104.79481506347656,-341.7099304199219,-0.027649523690342903,0.06403368711471558,0.012770071625709534,1.4013580063735152,0.10452605508373566,-0.11234642869312389,0.017593977972865105,-0.9856796264648438,-0.16770799458026886,-0.016275396570563316,-0.06459838896989822,-0.013791041448712349,Walking,,,,,,,
2604,Device Motion,40.443609963742055,-79.94456678813971,289.748592376709,304.7889709472656,15.378771781921387,-0.031707763671875,98.06974792480469,-1.0,-1.0,N/A,-0.0283660888671875,-0.892364501953125,-0.1806640625,-0.04549930617213249,-0.11289326101541519,0.06993700563907623,-29.752975463867188,-104.79481506347656,-341.7099304199219,-0.0022982964292168617,-0.044825613498687744,0.02756507694721222,1.3778828827475758,0.056349052912530846,-0.05939205200136272,0.01079743541777134,-0.9814498424530029,-0.19141413271427155,0.014139500446617603,0.2458968311548233,-0.03040790930390358,Walking,,,,,,,
2641,COMPASS,40.443609963742055,-79.94456678813971,289.748592376709,303.7288513183594,15.384943008422852,-0.031707763671875,98.06974792480469,-1.0,-1.0,N/A,-0.0283660888671875,-0.892364501953125,-0.1806640625,-0.04549930617213249,-0.11289326101541519,0.06993700563907623,-29.752975463867188,-104.79481506347656,-341.7099304199219,-0.0022982964292168617,-0.044825613498687744,0.02756507694721222,1.3778828827475758,0.056349052912530846,-0.05939205200136272,0.01079743541777134,-0.9814498424530029,-0.19141413271427155,0.014139500446617603,0.2458968311548233,-0.03040790930390358,Walking,,,,,,,
2701,Magnetometer,40.443609963742055,-79.94456678813971,289.748592376709,303.7288513183594,15.384943008422852,-0.031707763671875,98.06974792480469,-1.0,-1.0,N/A,-0.0283660888671875,-0.892364501953125,-0.1806640625,-0.04549930617213249,-0.11289326101541519,0.06993700563907623,-28.365585327148438,-102.79078674316406,-346.5658874511719,-0.0022982964292168617,-0.044825613498687744,0.02756507694721222,1.3778828827475758,0.056349052912530846,-0.05939205200136272,0.01079743541777134,-0.9814498424530029,-0.19141413271427155,0.014139500446617603,0.2458968311548233,-0.03040790930390358,Walking,,,,,,,
2735,Gyrometer,40.443609963742055,-79.94456678813971,289.748592376709,303.7288513183594,15.384943008422852,-0.031707763671875,98.06974792480469,-1.0,-1.0,N/A,-0.0283660888671875,-0.892364501953125,-0.1806640625,0.183524027466774,-0.09939689189195633,0.1579323709011078,-28.365585327148438,-102.79078674316406,-346.5658874511719,-0.0022982964292168617,-0.044825613498687744,0.02756507694721222,1.3778828827475758,0.056349052912530846,-0.05939205200136272,0.01079743541777134,-0.9814498424530029,-0.19141413271427155,0.014139500446617603,0.2458968311548233,-0.03040790930390358,Walking,,,,,,,
2765,Accelerometer,40.443609963742055,-79.94456678813971,289.748592376709,303.7288513183594,15.384943008422852,-0.031707763671875,98.06974792480469,-1.0,-1.0,N/A,-0.006927490234375,-1.189727783203125,-0.169708251953125,0.183524027466774,-0.09939689189195633,0.1579323709011078,-28.365585327148438,-102.79078674316406,-346.5658874511719,-0.0022982964292168617,-0.044825613498687744,0.02756507694721222,1.3778828827475758,0.056349052912530846,-0.05939205200136272,0.01079743541777134,-0.9814498424530029,-0.19141413271427155,0.014139500446617603,0.2458968311548233,-0.03040790930390358,Walking,,,,,,,
2799,COMPASS,40.443609963742055,-79.94456678813971,289.748592376709,302.552978515625,15.38855266571045,-0.031707763671875,98.06974792480469,-1.0,-1.0,N/A,-0.006927490234375,-1.189727783203125,-0.169708251953125,0.183524027466774,-0.09939689189195633,0.1579323709011078,-28.365585327148438,-102.79078674316406,-346.5658874511719,-0.0022982964292168617,-0.044825613498687744,0.02756507694721222,1.3778828827475758,0.056349052912530846,-0.05939205200136272,0.01079743541777134,-0.9814498424530029,-0.19141413271427155,0.014139500446617603,0.2458968311548233,-0.03040790930390358,Walking,,,,,,,
2859,COMPASS,40.443609963742055,-79.94456678813971,289.748592376709,301.4578857421875,15.390166282653809,-0.031707763671875,98.06974792480469,-1.0,-1.0,N/A,-0.006927490234375,-1.189727783203125,-0.169708251953125,0.183524027466774,-0.09939689189195633,0.1579323709011078,-28.365585327148438,-102.79078674316406,-346.5658874511719,-0.0022982964292168617,-0.044825613498687744,0.02756507694721222,1.3778828827475758,0.056349052912530846,-0.05939205200136272,0.01079743541777134,-0.9814498424530029,-0.19141413271427155,0.014139500446617603,0.2458968311548233,-0.03040790930390358,Walking,,,,,,,
2903,Device Motion,40.443609963742055,-79.94456678813971,289.748592376709,301.4578857421875,15.390166282653809,-0.031707763671875,98.06974792480469,-1.0,-1.0,N/A,-0.006927490234375,-1.189727783203125,-0.169708251953125,0.183524027466774,-0.09939689189195633,0.1579323709011078,-28.365585327148438,-102.79078674316406,-346.5658874511719,-0.003850251901894808,0.08225977420806885,0.028174743056297302,1.4028551806079843,-0.019323917841156484,0.05948031290088652,-0.0032298441510647535,-0.9859309792518616,-0.1671214997768402,0.05040530860424042,0.3814283013343811,-0.017569435760378838,Walking,,,,,,,
2939,COMPASS,40.443609963742055,-79.94456678813971,289.748592376709,300.1113586425781,15.392321586608887,-0.031707763671875,98.06974792480469,-1.0,-1.0,N/A,-0.006927490234375,-1.189727783203125,-0.169708251953125,0.183524027466774,-0.09939689189195633,0.1579323709011078,-28.365585327148438,-102.79078674316406,-346.5658874511719,-0.003850251901894808,0.08225977420806885,0.028174743056297302,1.4028551806079843,-0.019323917841156484,0.05948031290088652,-0.0032298441510647535,-0.9859309792518616,-0.1671214997768402,0.05040530860424042,0.3814283013343811,-0.017569435760378838,Walking,,,,,,,
3000,Magnetometer,40.443609963742055,-79.94456678813971,289.748592376709,300.1113586425781,15.392321586608887,-0.031707763671875,98.06974792480469,-1.0,-1.0,N/A,-0.006927490234375,-1.189727783203125,-0.169708251953125,0.183524027466774,-0.09939689189195633,0.1579323709011078,-25.743270874023438,-103.38504028320312,-349.92364501953125,-0.003850251901894808,0.08225977420806885,0.028174743056297302,1.4028551806079843,-0.019323917841156484,0.05948031290088652,-0.0032298441510647535,-0.9859309792518616,-0.1671214997768402,0.05040530860424042,0.3814283013343811,-0.017569435760378838,Walking,,,,,,,
3037,COMPASS,40.443609963742055,-79.94456678813971,289.748592376709,298.9490966796875,15.39448356628418,-0.031707763671875,98.06974792480469,-1.0,-1.0,N/A,-0.006927490234375,-1.189727783203125,-0.169708251953125,0.183524027466774,-0.09939689189195633,0.1579323709011078,-25.743270874023438,-103.38504028320312,-349.92364501953125,-0.003850251901894808,0.08225977420806885,0.028174743056297302,1.4028551806079843,-0.019323917841156484,0.05948031290088652,-0.0032298441510647535,-0.9859309792518616,-0.1671214997768402,0.05040530860424042,0.3814283013343811,-0.017569435760378838,Walking,,,,,,,
3070,Gyrometer,40.443609963742055,-79.94456678813971,289.748592376709,298.9490966796875,15.39448356628418,-0.031707763671875,98.06974792480469,-1.0,-1.0,N/A,-0.006927490234375,-1.189727783203125,-0.169708251953125,-0.18836431205272675,0.061942197382450104,0.16800472140312195,-25.743270874023438,-103.38504028320312,-349.92364501953125,-0.003850251901894808,0.08225977420806885,0.028174743056297302,1.4028551806079843,-0.019323917841156484,0.05948031290088652,-0.0032298441510647535,-0.9859309792518616,-0.1671214997768402,0.05040530860424042,0.3814283013343811,-0.017569435760378838,Walking,,,,,,,
3101,Altimeter,40.443609963742055,-79.94456678813971,289.748592376709,298.9490966796875,15.39448356628418,-0.06341552734375,98.07012939453125,-1.0,-1.0,N/A,-0.006927490234375,-1.189727783203125,-0.169708251953125,-0.18836431205272675,0.061942197382450104,0.16800472140312195,-25.743270874023438,-103.38504028320312,-349.92364501953125,-0.003850251901894808,0.08225977420806885,0.028174743056297302,1.4028551806079843,-0.019323917841156484,0.05948031290088652,-0.0032298441510647535,-0.9859309792518616,-0.1671214997768402,0.05040530860424042,0.3814283013343811,-0.017569435760378838,Walking,,,,,,,
3131,Accelerometer,40.443609963742055,-79.94456678813971,289.748592376709,298.9490966796875,15.39448356628418,-0.06341552734375,98.07012939453125,-1.0,-1.0,N/A,-0.014617919921875,-0.851287841796875,-0.207733154296875,-0.18836431205272675,0.061942197382450104,0.16800472140312195,-25.743270874023438,-103.38504028320312,-349.92364501953125,-0.003850251901894808,0.08225977420806885,0.028174743056297302,1.4028551806079843,-0.019323917841156484,0.05948031290088652,-0.0032298441510647535,-0.9859309792518616,-0.1671214997768402,0.05040530860424042,0.3814283013343811,-0.017569435760378838,Walking,,,,,,,
3203,Device Motion,40.443609963742055,-79.94456678813971,289.748592376709,298.9490966796875,15.39448356628418,-0.06341552734375,98.07012939453125,-1.0,-1.0,N/A,-0.014617919921875,-0.851287841796875,-0.207733154296875,-0.18836431205272675,0.061942197382450104,0.16800472140312195,-25.743270874023438,-103.38504028320312,-349.92364501953125,-0.010932832024991512,0.023422300815582275,0.01160837709903717,1.3901846472718964,-0.054519834888856186,0.13179742107371867,-0.009788577444851398,-0.9837340116500854,-0.1793636679649353,0.03593635559082031,-0.15998508036136627,-0.026021169498562813,Walking,,,,,,,
3300,Magnetometer,40.443609963742055,-79.94456678813971,289.748592376709,298.9490966796875,15.39448356628418,-0.06341552734375,98.07012939453125,-1.0,-1.0,N/A,-0.014617919921875,-0.851287841796875,-0.207733154296875,-0.18836431205272675,0.061942197382450104,0.16800472140312195,-25.013137817382812,-105.66934204101562,-351.036865234375,-0.010932832024991512,0.023422300815582275,0.01160837709903717,1.3901846472718964,-0.054519834888856186,0.13179742107371867,-0.009788577444851398,-0.9837340116500854,-0.1793636679649353,0.03593635559082031,-0.15998508036136627,-0.026021169498562813,Walking,,,,,,,
3337,Gyrometer,40.443609963742055,-79.94456678813971,289.748592376709,298.9490966796875,15.39448356628418,-0.06341552734375,98.07012939453125,-1.0,-1.0,N/A,-0.014617919921875,-0.851287841796875,-0.207733154296875,-0.004703408572822809,-0.17673082649707794,-0.03519180789589882,-25.013137817382812,-105.66934204101562,-351.036865234375,-0.010932832024991512,0.023422300815582275,0.01160837709903717,1.3901846472718964,-0.054519834888856186,0.13179742107371867,-0.009788577444851398,-0.9837340116500854,-0.1793636679649353,0.03593635559082031,-0.15998508036136627,-0.026021169498562813,Walking,,,,,,,
3369,COMPASS,40.443609963742055,-79.94456678813971,289.748592376709,300.12896728515625,15.402945518493652,-0.06341552734375,98.07012939453125,-1.0,-1.0,N/A,-0.014617919921875,-0.851287841796875,-0.207733154296875,-0.004703408572822809,-0.17673082649707794,-0.03519180789589882,-25.013137817382812,-105.66934204101562,-351.036865234375,-0.010932832024991512,0.023422300815582275,0.01160837709903717,1.3901846472718964,-0.054519834888856186,0.13179742107371867,-0.009788577444851398,-0.9837340116500854,-0.1793636679649353,0.03593635559082031,-0.15998508036136627,-0.026021169498562813,Walking,,,,,,,
3400,COMPASS,40.443609963742055,-79.94456678813971,289.748592376709,301.446533203125,15.404515266418457,-0.06341552734375,98.07012939453125,-1.0,-1.0,N/A,-0.014617919921875,-0.851287841796875,-0.207733154296875,-0.004703408572822809,-0.17673082649707794,-0.03519180789589882,-25.013137817382812,-105.66934204101562,-351.036865234375,-0.010932832024991512,0.023422300815582275,0.01160837709903717,1.3901846472718964,-0.054519834888856186,0.13179742107371867,-0.009788577444851398,-0.9837340116500854,-0.1793636679649353,0.03593635559082031,-0.15998508036136627,-0.026021169498562813,Walking,,,,,,,
3429,Accelerometer,40.443609963742055,-79.94456678813971,289.748592376709,301.446533203125,15.404515266418457,-0.06341552734375,98.07012939453125,-1.0,-1.0,N/A,-0.0098114013671875,-1.12603759765625,-0.25830078125,-0.004703408572822809,-0.17673082649707794,-0.03519180789589882,-25.013137817382812,-105.66934204101562,-351.036865234375,-0.010932832024991512,0.023422300815582275,0.01160837709903717,1.3901846472718964,-0.054519834888856186,0.13179742107371867,-0.009788577444851398,-0.9837340116500854,-0.1793636679649353,0.03593635559082031,-0.15998508036136627,-0.026021169498562813,Walking,,,,,,,
3458,COMPASS,40.443609963742055,-79.94456678813971,289.748592376709,302.7980651855469,15.40552806854248,-0.06341552734375,98.07012939453125,-1.0,-1.0,N/A,-0.0098114013671875,-1.12603759765625,-0.25830078125,-0.004703408572822809,-0.17673082649707794,-0.03519180789589882,-25.013137817382812,-105.66934204101562,-351.036865234375,-0.010932832024991512,0.023422300815582275,0.01160837709903717,1.3901846472718964,-0.054519834888856186,0.13179742107371867,-0.009788577444851398,-0.9837340116500854,-0.1793636679649353,0.03593635559082031,-0.15998508036136627,-0.026021169498562813,Walking,,,,,,,
3497,COMPASS,40.443609963742055,-79.94456678813971,289.748592376709,304.2124938964844,15.407021522521973,-0.06341552734375,98.07012939453125,-1.0,-1.0,N/A,-0.0098114013671875,-1.12603759765625,-0.25830078125,-0.004703408572822809,-0.17673082649707794,-0.03519180789589882,-25.013137817382812,-105.66934204101562,-351.036865234375,-0.010932832024991512,0.023422300815582275,0.01160837709903717,1.3901846472718964,-0.054519834888856186,0.13179742107371867,-0.009788577444851398,-0.9837340116500854,-0.1793636679649353,0.03593635559082031,-0.15998508036136627,-0.026021169498562813,Walking,,,,,,,
3528,Device Motion,40.443609963742055,-79.94456678813971,289.748592376709,304.2124938964844,15.407021522521973,-0.06341552734375,98.07012939453125,-1.0,-1.0,N/A,-0.0098114013671875,-1.12603759765625,-0.25830078125,-0.004703408572822809,-0.17673082649707794,-0.03519180789589882,-25.013137817382812,-105.66934204101562,-351.036865234375,-0.0471247136592865,0.06907075643539429,-0.05870459973812103,1.392288004735161,0.08072643531043659,-0.08563403805241226,0.014318305067718029,-0.98410964012146,-0.17698277533054352,-0.030302584171295166,-0.18053865432739258,-0.17720778286457062,Walking,,,,,,,
3577,COMPASS,40.443609963742055,-79.94456678813971,289.748592376709,305.26422119140625,15.409028053283691,-0.06341552734375,98.07012939453125,-1.0,-1.0,N/A,-0.0098114013671875,-1.12603759765625,-0.25830078125,-0.004703408572822809,-0.17673082649707794,-0.03519180789589882,-25.013137817382812,-105.66934204101562,-351.036865234375,-0.0471247136592865,0.06907075643539429,-0.05870459973812103,1.392288004735161,0.08072643531043659,-0.08563403805241226,0.014318305067718029,-0.98410964012146,-0.17698277533054352,-0.030302584171295166,-0.18053865432739258,-0.17720778286457062,Walking,,,,,,,
3609,Magnetometer,40.443609963742055,-79.94456678813971,289.748592376709,305.26422119140625,15.409028053283691,-0.06341552734375,98.07012939453125,-1.0,-1.0,N/A,-0.0098114013671875,-1.12603759765625,-0.25830078125,-0.004703408572822809,-0.17673082649707794,-0.03519180789589882,-26.000640869140625,-108.16252136230469,-349.0909423828125,-0.0471247136592865,0.06907075643539429,-0.05870459973812103,1.392288004735161,0.08072643531043659,-0.08563403805241226,0.014318305067718029,-0.98410964012146,-0.17698277533054352,-0.030302584171295166,-0.18053865432739258,-0.17720778286457062,Walking,,,,,,,
3641,Gyrometer,40.443609963742055,-79.94456678813971,289.748592376709,305.26422119140625,15.409028053283691,-0.06341552734375,98.07012939453125,-1.0,-1.0,N/A,-0.0098114013671875,-1.12603759765625,-0.25830078125,-0.3215591311454773,-0.021162809804081917,0.036200348287820816,-26.000640869140625,-108.16252136230469,-349.0909423828125,-0.0471247136592865,0.06907075643539429,-0.05870459973812103,1.392288004735161,0.08072643531043659,-0.08563403805241226,0.014318305067718029,-0.98410964012146,-0.17698277533054352,-0.030302584171295166,-0.18053865432739258,-0.17720778286457062,Walking,,,,,,,
3671,Accelerometer,40.443609963742055,-79.94456678813971,289.748592376709,305.26422119140625,15.409028053283691,-0.06341552734375,98.07012939453125,-1.0,-1.0,N/A,-0.0154571533203125,-0.8281402587890625,-0.2050323486328125,-0.3215591311454773,-0.021162809804081917,0.036200348287820816,-26.000640869140625,-108.16252136230469,-349.0909423828125,-0.0471247136592865,0.06907075643539429,-0.05870459973812103,1.392288004735161,0.08072643531043659,-0.08563403805241226,0.014318305067718029,-0.98410964012146,-0.17698277533054352,-0.030302584171295166,-0.18053865432739258,-0.17720778286457062,Walking,,,,,,,
3801,Device Motion,40.443609963742055,-79.94456678813971,289.748592376709,305.26422119140625,15.409028053283691,-0.06341552734375,98.07012939453125,-1.0,-1.0,N/A,-0.0154571533203125,-0.8281402587890625,-0.2050323486328125,-0.3215591311454773,-0.021162809804081917,0.036200348287820816,-26.000640869140625,-108.16252136230469,-349.0909423828125,-0.04165574908256531,-0.031704723834991455,0.015688270330429077,1.3626315351498133,0.0737491365597045,-0.10010777638599597,0.015227525494992733,-0.978411853313446,-0.2061028629541397,-0.027997776865959167,0.07477111369371414,0.04160728678107262,Walking,,,,,,,
3899,Magnetometer,40.443609963742055,-79.94456678813971,289.748592376709,305.26422119140625,15.409028053283691,-0.06341552734375,98.07012939453125,-1.0,-1.0,N/A,-0.0154571533203125,-0.8281402587890625,-0.2050323486328125,-0.3215591311454773,-0.021162809804081917,0.036200348287820816,-25.18792724609375,-112.091064453125,-345.9667053222656,-0.04165574908256531,-0.031704723834991455,0.015688270330429077,1.3626315351498133,0.0737491365597045,-0.10010777638599597,0.015227525494992733,-0.978411853313446,-0.2061028629541397,-0.027997776865959167,0.07477111369371414,0.04160728678107262,Walking,,,,,,,
3934,Gyrometer,40.443609963742055,-79.94456678813971,289.748592376709,305.26422119140625,15.409028053283691,-0.06341552734375,98.07012939453125,-1.0,-1.0,N/A,-0.0154571533203125,-0.8281402587890625,-0.2050323486328125,0.1026930883526802,-0.015373097732663155,0.10939493030309677,-25.18792724609375,-112.091064453125,-345.9667053222656,-0.04165574908256531,-0.031704723834991455,0.015688270330429077,1.3626315351498133,0.0737491365597045,-0.10010777638599597,0.015227525494992733,-0.978411853313446,-0.2061028629541397,-0.027997776865959167,0.07477111369371414,0.04160728678107262,Walking,,,,,,,
3966,Accelerometer,40.443609963742055,-79.94456678813971,289.748592376709,305.26422119140625,15.409028053283691,-0.06341552734375,98.07012939453125,-1.0,-1.0,N/A,0.024993896484375,-1.12420654296875,-0.258941650390625,0.1026930883526802,-0.015373097732663155,0.10939493030309677,-25.18792724609375,-112.091064453125,-345.9667053222656,-0.04165574908256531,-0.031704723834991455,0.015688270330429077,1.3626315351498133,0.0737491365597045,-0.10010777638599597,0.015227525494992733,-0.978411853313446,-0.2061028629541397,-0.027997776865959167,0.07477111369371414,0.04160728678107262,Walking,,,,,,,
3997,COMPASS,40.443609963742055,-79.94456678813971,289.748592376709,304.1298522949219,15.419508934020996,-0.06341552734375,98.07012939453125,-1.0,-1.0,N/A,0.024993896484375,-1.12420654296875,-0.258941650390625,0.1026930883526802,-0.015373097732663155,0.10939493030309677,-25.18792724609375,-112.091064453125,-345.9667053222656,-0.04165574908256531,-0.031704723834991455,0.015688270330429077,1.3626315351498133,0.0737491365597045,-0.10010777638599597,0.015227525494992733,-0.978411853313446,-0.2061028629541397,-0.027997776865959167,0.07477111369371414,0.04160728678107262,Walking,,,,,,,
4024,Altimeter,40.443609963742055,-79.94456678813971,289.748592376709,304.1298522949219,15.419508934020996,-0.095123291015625,98.07048797607422,-1.0,-1.0,N/A,0.024993896484375,-1.12420654296875,-0.258941650390625,0.1026930883526802,-0.015373097732663155,0.10939493030309677,-25.18792724609375,-112.091064453125,-345.9667053222656,-0.04165574908256531,-0.031704723834991455,0.015688270330429077,1.3626315351498133,0.0737491365597045,-0.10010777638599597,0.015227525494992733,-0.978411853313446,-0.2061028629541397,-0.027997776865959167,0.07477111369371414,0.04160728678107262,Walking,,,,,,,
4096,COMPASS,40.443609963742055,-79.94456678813971,289.748592376709,303.1164855957031,15.421865463256836,-0.095123291015625,98.07048797607422,-1.0,-1.0,N/A,0.024993896484375,-1.12420654296875,-0.258941650390625,0.1026930883526802,-0.015373097732663155,0.10939493030309677,-25.18792724609375,-112.091064453125,-345.9667053222656,-0.04165574908256531,-0.031704723834991455,0.015688270330429077,1.3626315351498133,0.0737491365597045,-0.10010777638599597,0.015227525494992733,-0.978411853313446,-0.2061028629541397,-0.027997776865959167,0.07477111369371414,0.04160728678107262,Walking,,,,,,,
4133,Device Motion,40.443609963742055,-79.94456678813971,289.748592376709,303.1164855957031,15.421865463256836,-0.095123291015625,98.07048797607422,-1.0,-1.0,N/A,0.024993896484375,-1.12420654296875,-0.258941650390625,0.1026930883526802,-0.015373097732663155,0.10939493030309677,-25.18792724609375,-112.091064453125,-345.9667053222656,0.03269505500793457,0.06808304786682129,-0.04175059497356415,1.4007596477263422,-0.00024378677706822114,0.004282166101899694,-4.1253017116105184e-05,-0.9855785369873047,-0.16921760141849518,0.022568458691239357,0.22279614210128784,0.1147918701171875,Walking,,,,,,,
4162,COMPASS,40.443609963742055,-79.94456678813971,289.748592376709,301.76080322265625,15.423192024230957,-0.095123291015625,98.07048797607422,-1.0,-1.0,N/A,0.024993896484375,-1.12420654296875,-0.258941650390625,0.1026930883526802,-0.015373097732663155,0.10939493030309677,-25.18792724609375,-112.091064453125,-345.9667053222656,0.03269505500793457,0.06808304786682129,-0.04175059497356415,1.4007596477263422,-0.00024378677706822114,0.004282166101899694,-4.1253017116105184e-05,-0.9855785369873047,-0.16921760141849518,0.022568458691239357,0.22279614210128784,0.1147918701171875,Walking,,,,,,,
4198,Magnetometer,40.443609963742055,-79.94456678813971,289.748592376709,301.76080322265625,15.423192024230957,-0.095123291015625,98.07048797607422,-1.0,-1.0,N/A,0.024993896484375,-1.12420654296875,-0.258941650390625,0.1026930883526802,-0.015373097732663155,0.10939493030309677,-25.780303955078125,-115.60400390625,-340.3503112792969,0.03269505500793457,0.06808304786682129,-0.04175059497356415,1.4007596477263422,-0.00024378677706822114,0.004282166101899694,-4.1253017116105184e-05,-0.9855785369873047,-0.16921760141849518,0.022568458691239357,0.22279614210128784,0.1147918701171875,Walking,,,,,,,
4230,COMPASS,40.443609963742055,-79.94456678813971,289.748592376709,300.3978271484375,15.424332618713379,-0.095123291015625,98.07048797607422,-1.0,-1.0,N/A,0.024993896484375,-1.12420654296875,-0.258941650390625,0.1026930883526802,-0.015373097732663155,0.10939493030309677,-25.780303955078125,-115.60400390625,-340.3503112792969,0.03269505500793457,0.06808304786682129,-0.04175059497356415,1.4007596477263422,-0.00024378677706822114,0.004282166101899694,-4.1253017116105184e-05,-0.9855785369873047,-0.16921760141849518,0.022568458691239357,0.22279614210128784,0.1147918701171875,Walking,,,,,,,
4258,Gyrometer,40.443609963742055,-79.94456678813971,289.748592376709,300.3978271484375,15.424332618713379,-0.095123291015625,98.07048797607422,-1.0,-1.0,N/A,0.024993896484375,-1.12420654296875,-0.258941650390625,-0.1094772219657898,0.11490927636623383,0.21657784283161163,-25.780303955078125,-115.60400390625,-340.3503112792969,0.03269505500793457,0.06808304786682129,-0.04175059497356415,1.4007596477263422,-0.00024378677706822114,0.004282166101899694,-4.1253017116105184e-05,-0.9855785369873047,-0.16921760141849518,0.022568458691239357,0.22279614210128784,0.1147918701171875,Walking,,,,,,,
4286,Accelerometer,40.443609963742055,-79.94456678813971,289.748592376709,300.3978271484375,15.424332618713379,-0.095123291015625,98.07048797607422,-1.0,-1.0,N/A,-0.0142974853515625,-0.8210601806640625,-0.1884765625,-0.1094772219657898,0.11490927636623383,0.21657784283161163,-25.780303955078125,-115.60400390625,-340.3503112792969,0.03269505500793457,0.06808304786682129,-0.04175059497356415,1.4007596477263422,-0.00024378677706822114,0.004282166101899694,-4.1253017116105184e-05,-0.9855785369873047,-0.16921760141849518,0.022568458691239357,0.22279614210128784,0.1147918701171875,Walking,,,,,,,
4375,COMPASS,40.443609963742055,-79.94456678813971,289.748592376709,299.3924560546875,15.428276062011719,-0.095123291015625,98.07048797607422,-1.0,-1.0,N/A,-0.0142974853515625,-0.8210601806640625,-0.1884765625,-0.1094772219657898,0.11490927636623383,0.21657784283161163,-25.780303955078125,-115.60400390625,-340.3503112792969,0.03269505500793457,0.06808304786682129,-0.04175059497356415,1.4007596477263422,-0.00024378677706822114,0.004282166101899694,-4.1253017116105184e-05,-0.9855785369873047,-0.16921760141849518,0.022568458691239357,0.22279614210128784,0.1147918701171875,Walking,,,,,,,
4410,Device Motion,40.443609963742055,-79.94456678813971,289.748592376709,299.3924560546875,15.428276062011719,-0.095123291015625,98.07048797607422,-1.0,-1.0,N/A,-0.0142974853515625,-0.8210601806640625,-0.1884765625,-0.1094772219657898,0.11490927636623383,0.21657784283161163,-25.780303955078125,-115.60400390625,-340.3503112792969,0.04240846633911133,0.0499340295791626,0.004783123731613159,1.3750513791073524,-0.10337147380869058,0.15344078379525117,-0.02006959728896618,-0.9809030294418335,-0.1934581995010376,-0.1368168294429779,-0.021075546741485596,-0.000742647796869278,Walking,,,,,,,
4475,COMPASS,40.443609963742055,-79.94456678813971,289.748592376709,300.4120178222656,15.430522918701172,-0.095123291015625,98.07048797607422,-1.0,-1.0,N/A,-0.0142974853515625,-0.8210601806640625,-0.1884765625,-0.1094772219657898,0.11490927636623383,0.21657784283161163,-25.780303955078125,-115.60400390625,-340.3503112792969,0.04240846633911133,0.0499340295791626,0.004783123731613159,1.3750513791073524,-0.10337147380869058,0.15344078379525117,-0.02006959728896618,-0.9809030294418335,-0.1934581995010376,-0.1368168294429779,-0.021075546741485596,-0.000742647796869278,Walking,,,,,,,
4510,Magnetometer,40.443609963742055,-79.94456678813971,289.748592376709,300.4120178222656,15.430522918701172,-0.095123291015625,98.07048797607422,-1.0,-1.0,N/A,-0.0142974853515625,-0.8210601806640625,-0.1884765625,-0.1094772219657898,0.11490927636623383,0.21657784283161163,-26.564529418945312,-117.55532836914062,-335.94580078125,0.04240846633911133,0.0499340295791626,0.004783123731613159,1.3750513791073524,-0.10337147380869058,0.15344078379525117,-0.02006959728896618,-0.9809030294418335,-0.1934581995010376,-0.1368168294429779,-0.021075546741485596,-0.000742647796869278,Walking,,,,,,,
4540,COMPASS,40.443609963742055,-79.94456678813971,289.748592376709,301.5887756347656,15.431451797485352,-0.095123291015625,98.07048797607422,-1.0,-1.0,N/A,-0.0142974853515625,-0.8210601806640625,-0.1884765625,-0.1094772219657898,0.11490927636623383,0.21657784283161163,-26.564529418945312,-117.55532836914062,-335.94580078125,0.04240846633911133,0.0499340295791626,0.004783123731613159,1.3750513791073524,-0.10337147380869058,0.15344078379525117,-0.02006959728896618,-0.9809030294418335,-0.1934581995010376,-0.1368168294429779,-0.021075546741485596,-0.000742647796869278,Walking,,,,,,,
4568,Gyrometer,40.443609963742055,-79.94456678813971,289.748592376709,301.5887756347656,15.431451797485352,-0.095123291015625,98.07048797607422,-1.0,-1.0,N/A,-0.0142974853515625,-0.8210601806640625,-0.1884765625,0.09515661001205444,-0.5202136039733887,-0.10237963497638702,-26.564529418945312,-117.55532836914062,-335.94580078125,0.04240846633911133,0.0499340295791626,0.004783123731613159,1.3750513791073524,-0.10337147380869058,0.15344078379525117,-0.02006959728896618,-0.9809030294418335,-0.1934581995010376,-0.1368168294429779,-0.021075546741485596,-0.000742647796869278,Walking,,,,,,,
4597,COMPASS,40.443609963742055,-79.94456678813971,289.748592376709,302.8932800292969,15.432882308959961,-0.095123291015625,98.07048797607422,-1.0,-1.0,N/A,-0.0142974853515625,-0.8210601806640625,-0.1884765625,0.09515661001205444,-0.5202136039733887,-0.10237963497638702,-26.564529418945312,-117.55532836914062,-335.94580078125,0.04240846633911133,0.0499340295791626,0.004783123731613159,1.3750513791073524,-0.10337147380869058,0.15344078379525117,-0.02006959728896618,-0.9809030294418335,-0.1934581995010376,-0.1368168294429779,-0.021075546741485596,-0.000742647796869278,Walking,,,,,,,
4627,Accelerometer,40.443609963742055,-79.94456678813971,289.748592376709,302.8932800292969,15.432882308959961,-0.095123291015625,98.07048797607422,-1.0,-1.0,N/A,-0.0346832275390625,-1.1468658447265625,-0.254119873046875,0.09515661001205444,-0.5202136039733887,-0.10237963497638702,-26.564529418945312,-117.55532836914062,-335.94580078125,0.04240846633911133,0.0499340295791626,0.004783123731613159,1.3750513791073524,-0.10337147380869058,0.15344078379525117,-0.02006959728896618,-0.9809030294418335,-0.1934581995010376,-0.1368168294429779,-0.021075546741485596,-0.000742647796869278,Walking,,,,,,,
4653,COMPASS,40.443609963742055,-79.94456678813971,289.748592376709,304.0712585449219,15.434229850769043,-0.095123291015625,98.07048797607422,-1.0,-1.0,N/A,-0.0346832275390625,-1.1468658447265625,-0.254119873046875,0.09515661001205444,-0.5202136039733887,-0.10237963497638702,-26.564529418945312,-117.55532836914062,-335.94580078125,0.04240846633911133,0.0499340295791626,0.004783123731613159,1.3750513791073524,-0.10337147380869058,0.15344078379525117,-0.02006959728896618,-0.9809030294418335,-0.1934581995010376,-0.1368168294429779,-0.021075546741485596,-0.000742647796869278,Walking,,,,,,,
4698,Device Motion,40.443609963742055,-79.94456678813971,289.748592376709,304.0712585449219,15.434229850769043,-0.095123291015625,98.07048797607422,-1.0,-1.0,N/A,-0.0346832275390625,-1.1468658447265625,-0.254119873046875,0.09515661001205444,-0.5202136039733887,-0.10237963497638702,-26.564529418945312,-117.55532836914062,-335.94580078125,0.001056105364114046,0.03217583894729614,-0.0576925128698349,1.3887185930260006,-0.02496416119409558,-0.00575715698625545,-0.004519855137914419,-0.9834696054458618,-0.18101614713668823,0.05403674766421318,-0.08047618716955185,-0.07251521944999695,Walking,,,,,,,
4754,COMPASS,40.443609963742055,-79.94456678813971,289.748592376709,305.15576171875,15.436724662780762,-0.095123291015625,98.07048797607422,-1.0,-1.0,N/A,-0.0346832275390625,-1.1468658447265625,-0.254119873046875,0.09515661001205444,-0.5202136039733887,-0.10237963497638702,-26.564529418945312,-117.55532836914062,-335.94580078125,0.001056105364114046,0.03217583894729614,-0.0576925128698349,1.3887185930260006,-0.02496416119409558,-0.00575715698625545,-0.004519855137914419,-0.9834696054458618,-0.18101614713668823,0.05403674766421318,-0.08047618716955185,-0.07251521944999695,Walking,,,,,,,
