Timestamp (ms),Triggering Sensor,Latitude,Longitude,Altitude,Heading (degrees),Heading accuracy (degrees),Relative Altitude (m),Pressure (kPa),Speed (m/s),Speed Accuracy (m/s),Floor,Acceleration - X axis,Acceleration - Y axis,Acceleration - Z axis,Gyrometer - X axis,Gyrometer - Y axis,Gyrometer - Z axis,Magnetometer - X axis,Magnetometer - Y axis,Magnetometer - Z axis,User acceleration - X axis,User acceleration - Y axis,User acceleration - Z axis,Attitude Pitch,Attitude Roll,Attitude Yaw,Gravity - X axis,Gravity - Y axis,Gravity - Z axis,Rotation Rate - X axis,Rotation Rate - Y axis,Rotation Rate - Z axis,Activity Type,Number of Steps,Distance,Floors Ascended,Floors Descended,Current Pace,Current Cadence,Average Active Pace
11,Gyrometer,,,,,,,,,,,,,,0.0002748382103163749,-0.02280012145638466,0.0185244157910347,,,,,,,,,,,,,,,,,,,,,,,
44,Accelerometer,,,,,,,,,,,-0.0193328857421875,-0.9727325439453125,-0.1731719970703125,0.0002748382103163749,-0.02280012145638466,0.0185244157910347,,,,,,,,,,,,,,,,,,,,,,,
82,COMPASS,,,,246.0699462890625,16.16549301147461,,,,,,-0.0193328857421875,-0.9727325439453125,-0.1731719970703125,0.0002748382103163749,-0.02280012145638466,0.0185244157910347,,,,,,,,,,,,,,,,,,,,,,,
113,Magnetometer,,,,246.0699462890625,16.16549301147461,,,,,,-0.0193328857421875,-0.9727325439453125,-0.1731719970703125,0.0002748382103163749,-0.02280012145638466,0.0185244157910347,-25.001953125,-106.42465209960938,-312.75213623046875,,,,,,,,,,,,,,,,,,,,
142,Activity Manager,,,,246.0699462890625,16.16549301147461,,,,,,-0.0193328857421875,-0.9727325439453125,-0.1731719970703125,0.0002748382103163749,-0.02280012145638466,0.0185244157910347,-25.001953125,-106.42465209960938,-312.75213623046875,,,,,,,,,,,,,Automotive,,,,,,,
303,Device Motion,,,,246.0699462890625,16.16549301147461,,,,,,-0.0193328857421875,-0.9727325439453125,-0.1731719970703125,0.0002748382103163749,-0.02280012145638466,0.0185244157910347,-25.001953125,-106.42465209960938,-312.75213623046875,0.016010375693440437,0.021226823329925537,0.07804687321186066,1.3550808097639453,-0.09762340227547907,0.07857002627551102,-0.02086266689002514,-0.9768235087394714,-0.2130262702703476,-0.11681000143289566,-0.023902680724859238,-0.011407987214624882,Automotive,,,,,,,
341,Gyrometer,,,,246.0699462890625,16.16549301147461,,,,,,-0.0193328857421875,-0.9727325439453125,-0.1731719970703125,-0.10517222434282303,-0.014821290038526058,-0.013205550611019135,-25.001953125,-106.42465209960938,-312.75213623046875,0.016010375693440437,0.021226823329925537,0.07804687321186066,1.3550808097639453,-0.09762340227547907,0.07857002627551102,-0.02086266689002514,-0.9768235087394714,-0.2130262702703476,-0.11681000143289566,-0.023902680724859238,-0.011407987214624882,Automotive,,,,,,,
373,Magnetometer,,,,246.0699462890625,16.16549301147461,,,,,,-0.0193328857421875,-0.9727325439453125,-0.1731719970703125,-0.10517222434282303,-0.014821290038526058,-0.013205550611019135,-25.467605590820312,-106.80570983886719,-313.38525390625,0.016010375693440437,0.021226823329925537,0.07804687321186066,1.3550808097639453,-0.09762340227547907,0.07857002627551102,-0.02086266689002514,-0.9768235087394714,-0.2130262702703476,-0.11681000143289566,-0.023902680724859238,-0.011407987214624882,Automotive,,,,,,,
404,Accelerometer,,,,246.0699462890625,16.16549301147461,,,,,,-0.0118865966796875,-0.95733642578125,-0.1493988037109375,-0.10517222434282303,-0.014821290038526058,-0.013205550611019135,-25.467605590820312,-106.80570983886719,-313.38525390625,0.016010375693440437,0.021226823329925537,0.07804687321186066,1.3550808097639453,-0.09762340227547907,0.07857002627551102,-0.02086266689002514,-0.9768235087394714,-0.2130262702703476,-0.11681000143289566,-0.023902680724859238,-0.011407987214624882,Automotive,,,,,,,
602,Device Motion,,,,246.0699462890625,16.16549301147461,,,,,,-0.0118865966796875,-0.95733642578125,-0.1493988037109375,-0.10517222434282303,-0.014821290038526058,-0.013205550611019135,-25.467605590820312,-106.80570983886719,-313.38525390625,0.03190135955810547,-0.018438339233398438,0.03525054454803467,1.3549035525821622,-0.12115058875697486,0.09400017477164817,-0.025889381766319275,-0.9767855405807495,-0.21264934539794922,0.14859992265701294,-0.10157714784145355,0.005004155915230513,Automotive,,,,,,,
636,Gyrometer,,,,246.0699462890625,16.16549301147461,,,,,,-0.0118865966796875,-0.95733642578125,-0.1493988037109375,0.16066238284111023,-0.10460364073514938,0.0062403189949691296,-25.467605590820312,-106.80570983886719,-313.38525390625,0.03190135955810547,-0.018438339233398438,0.03525054454803467,1.3549035525821622,-0.12115058875697486,0.09400017477164817,-0.025889381766319275,-0.9767855405807495,-0.21264934539794922,0.14859992265701294,-0.10157714784145355,0.005004155915230513,Automotive,,,,,,,
669,Magnetometer,,,,246.0699462890625,16.16549301147461,,,,,,-0.0118865966796875,-0.95733642578125,-0.1493988037109375,0.16066238284111023,-0.10460364073514938,0.0062403189949691296,-25.660354614257812,-107.02838134765625,-312.9869384765625,0.03190135955810547,-0.018438339233398438,0.03525054454803467,1.3549035525821622,-0.12115058875697486,0.09400017477164817,-0.025889381766319275,-0.9767855405807495,-0.21264934539794922,0.14859992265701294,-0.10157714784145355,0.005004155915230513,Automotive,,,,,,,
685,Accelerometer,,,,246.0699462890625,16.16549301147461,,,,,,0.004638671875,-0.9901580810546875,-0.172698974609375,0.16066238284111023,-0.10460364073514938,0.0062403189949691296,-25.660354614257812,-107.02838134765625,-312.9869384765625,0.03190135955810547,-0.018438339233398438,0.03525054454803467,1.3549035525821622,-0.12115058875697486,0.09400017477164817,-0.025889381766319275,-0.9767855405807495,-0.21264934539794922,0.14859992265701294,-0.10157714784145355,0.005004155915230513,Automotive,,,,,,,
798,COMPASS,,,,247.09017944335938,16.15827751159668,,,,,,0.004638671875,-0.9901580810546875,-0.172698974609375,0.16066238284111023,-0.10460364073514938,0.0062403189949691296,-25.660354614257812,-107.02838134765625,-312.9869384765625,0.03190135955810547,-0.018438339233398438,0.03525054454803467,1.3549035525821622,-0.12115058875697486,0.09400017477164817,-0.025889381766319275,-0.9767855405807495,-0.21264934539794922,0.14859992265701294,-0.10157714784145355,0.005004155915230513,Automotive,,,,,,,
901,Device Motion,,,,247.09017944335938,16.15827751159668,,,,,,0.004638671875,-0.9901580810546875,-0.172698974609375,0.16066238284111023,-0.10460364073514938,0.0062403189949691296,-25.660354614257812,-107.02838134765625,-312.9869384765625,-0.012468662112951279,0.01227957010269165,-0.024277493357658386,1.3574196857184864,-0.15101760567909403,0.0947714208480982,-0.03185809403657913,-0.977321445941925,-0.20935000479221344,-0.04604330658912659,-0.06632733345031738,-0.02288876660168171,Automotive,,,,,,,
937,Gyrometer,,,,247.09017944335938,16.15827751159668,,,,,,0.004638671875,-0.9901580810546875,-0.172698974609375,-0.05692506954073906,-0.07240282744169235,-0.03409698233008385,-25.660354614257812,-107.02838134765625,-312.9869384765625,-0.012468662112951279,0.01227957010269165,-0.024277493357658386,1.3574196857184864,-0.15101760567909403,0.0947714208480982,-0.03185809403657913,-0.977321445941925,-0.20935000479221344,-0.04604330658912659,-0.06632733345031738,-0.02288876660168171,Automotive,,,,,,,
967,Magnetometer,,,,247.09017944335938,16.15827751159668,,,,,,0.004638671875,-0.9901580810546875,-0.172698974609375,-0.05692506954073906,-0.07240282744169235,-0.03409698233008385,-25.327743530273438,-107.50764465332031,-312.009521484375,-0.012468662112951279,0.01227957010269165,-0.024277493357658386,1.3574196857184864,-0.15101760567909403,0.0947714208480982,-0.03185809403657913,-0.977321445941925,-0.20935000479221344,-0.04604330658912659,-0.06632733345031738,-0.02288876660168171,Automotive,,,,,,,
997,COMPASS,,,,248.189697265625,16.15770721435547,,,,,,0.004638671875,-0.9901580810546875,-0.172698974609375,-0.05692506954073906,-0.07240282744169235,-0.03409698233008385,-25.327743530273438,-107.50764465332031,-312.009521484375,-0.012468662112951279,0.01227957010269165,-0.024277493357658386,1.3574196857184864,-0.15101760567909403,0.0947714208480982,-0.03185809403657913,-0.977321445941925,-0.20935000479221344,-0.04604330658912659,-0.06632733345031738,-0.02288876660168171,Automotive,,,,,,,
1026,Accelerometer,,,,248.189697265625,16.15770721435547,,,,,,-0.0195159912109375,-0.968109130859375,-0.227691650390625,-0.05692506954073906,-0.07240282744169235,-0.03409698233008385,-25.327743530273438,-107.50764465332031,-312.009521484375,-0.012468662112951279,0.01227957010269165,-0.024277493357658386,1.3574196857184864,-0.15101760567909403,0.0947714208480982,-0.03185809403657913,-0.977321445941925,-0.20935000479221344,-0.04604330658912659,-0.06632733345031738,-0.02288876660168171,Automotive,,,,,,,
1057,Altimeter,,,,248.189697265625,16.15770721435547,0,98.20512390136719,,,,-0.0195159912109375,-0.968109130859375,-0.227691650390625,-0.05692506954073906,-0.07240282744169235,-0.03409698233008385,-25.327743530273438,-107.50764465332031,-312.009521484375,-0.012468662112951279,0.01227957010269165,-0.024277493357658386,1.3574196857184864,-0.15101760567909403,0.0947714208480982,-0.03185809403657913,-0.977321445941925,-0.20935000479221344,-0.04604330658912659,-0.06632733345031738,-0.02288876660168171,Automotive,,,,,,,
1087,COMPASS,,,,249.19805908203125,16.156850814819336,0,98.20512390136719,,,,-0.0195159912109375,-0.968109130859375,-0.227691650390625,-0.05692506954073906,-0.07240282744169235,-0.03409698233008385,-25.327743530273438,-107.50764465332031,-312.009521484375,-0.012468662112951279,0.01227957010269165,-0.024277493357658386,1.3574196857184864,-0.15101760567909403,0.0947714208480982,-0.03185809403657913,-0.977321445941925,-0.20935000479221344,-0.04604330658912659,-0.06632733345031738,-0.02288876660168171,Automotive,,,,,,,
1200,Device Motion,,,,249.19805908203125,16.156850814819336,0,98.20512390136719,,,,-0.0195159912109375,-0.968109130859375,-0.227691650390625,-0.05692506954073906,-0.07240282744169235,-0.03409698233008385,-25.327743530273438,-107.50764465332031,-312.009521484375,-0.02009725198149681,0.02069270610809326,0.003757670521736145,1.3749447717507057,-0.16731636462028496,0.08681561168772284,-0.032408230006694794,-0.9808822870254517,-0.19188345968723297,0.010920388624072075,0.0579296313226223,0.09306477755308151,Automotive,,,,,,,
1239,Gyrometer,,,,249.19805908203125,16.156850814819336,0,98.20512390136719,,,,-0.0195159912109375,-0.968109130859375,-0.227691650390625,-0.0031529164407402277,0.0551370233297348,0.0837409719824791,-25.327743530273438,-107.50764465332031,-312.009521484375,-0.02009725198149681,0.02069270610809326,0.003757670521736145,1.3749447717507057,-0.16731636462028496,0.08681561168772284,-0.032408230006694794,-0.9808822870254517,-0.19188345968723297,0.010920388624072075,0.0579296313226223,0.09306477755308151,Automotive,,,,,,,
1273,Magnetometer,,,,249.19805908203125,16.156850814819336,0,98.20512390136719,,,,-0.0195159912109375,-0.968109130859375,-0.227691650390625,-0.0031529164407402277,0.0551370233297348,0.0837409719824791,-25.205215454101562,-107.6510009765625,-310.9250793457031,-0.02009725198149681,0.02069270610809326,0.003757670521736145,1.3749447717507057,-0.16731636462028496,0.08681561168772284,-0.032408230006694794,-0.9808822870254517,-0.19188345968723297,0.010920388624072075,0.0579296313226223,0.09306477755308151,Automotive,,,,,,,
1303,Accelerometer,,,,249.19805908203125,16.156850814819336,0,98.20512390136719,,,,-0.031402587890625,-0.9579925537109375,-0.1558837890625,-0.0031529164407402277,0.0551370233297348,0.0837409719824791,-25.205215454101562,-107.6510009765625,-310.9250793457031,-0.02009725198149681,0.02069270610809326,0.003757670521736145,1.3749447717507057,-0.16731636462028496,0.08681561168772284,-0.032408230006694794,-0.9808822870254517,-0.19188345968723297,0.010920388624072075,0.0579296313226223,0.09306477755308151,Automotive,,,,,,,
1436,COMPASS,,,,248.1192626953125,16.155248641967773,0,98.20512390136719,,,,-0.031402587890625,-0.9579925537109375,-0.1558837890625,-0.0031529164407402277,0.0551370233297348,0.0837409719824791,-25.205215454101562,-107.6510009765625,-310.9250793457031,-0.02009725198149681,0.02069270610809326,0.003757670521736145,1.3749447717507057,-0.16731636462028496,0.08681561168772284,-0.032408230006694794,-0.9808822870254517,-0.19188345968723297,0.010920388624072075,0.0579296313226223,0.09306477755308151,Automotive,,,,,,,
1500,Device Motion,,,,248.1192626953125,16.155248641967773,0,98.20512390136719,,,,-0.031402587890625,-0.9579925537109375,-0.1558837890625,-0.0031529164407402277,0.0551370233297348,0.0837409719824791,-25.205215454101562,-107.6510009765625,-310.9250793457031,-0.021308839321136475,-0.03993570804595947,0.05150562524795532,1.356415013954466,-0.14622866911953786,0.07997312624935583,-0.03099827654659748,-0.9771081805229187,-0.21047185361385345,0.03490924835205078,0.15133152902126312,0.03724643588066101,Automotive,,,,,,,
1534,Gyrometer,,,,248.1192626953125,16.155248641967773,0,98.20512390136719,,,,-0.031402587890625,-0.9579925537109375,-0.1558837890625,0.05856184661388397,0.16196493804454803,0.044434309005737305,-25.205215454101562,-107.6510009765625,-310.9250793457031,-0.021308839321136475,-0.03993570804595947,0.05150562524795532,1.356415013954466,-0.14622866911953786,0.07997312624935583,-0.03099827654659748,-0.9771081805229187,-0.21047185361385345,0.03490924835205078,0.15133152902126312,0.03724643588066101,Automotive,,,,,,,
1566,Magnetometer,,,,248.1192626953125,16.155248641967773,0,98.20512390136719,,,,-0.031402587890625,-0.9579925537109375,-0.1558837890625,0.05856184661388397,0.16196493804454803,0.044434309005737305,-25.379806518554688,-108.24171447753906,-311.89385986328125,-0.021308839321136475,-0.03993570804595947,0.05150562524795532,1.356415013954466,-0.14622866911953786,0.07997312624935583,-0.03099827654659748,-0.9771081805229187,-0.21047185361385345,0.03490924835205078,0.15133152902126312,0.03724643588066101,Automotive,,,,,,,
1595,COMPASS,,,,247.11636352539062,16.154497146606445,0,98.20512390136719,,,,-0.031402587890625,-0.9579925537109375,-0.1558837890625,0.05856184661388397,0.16196493804454803,0.044434309005737305,-25.379806518554688,-108.24171447753906,-311.89385986328125,-0.021308839321136475,-0.03993570804595947,0.05150562524795532,1.356415013954466,-0.14622866911953786,0.07997312624935583,-0.03099827654659748,-0.9771081805229187,-0.21047185361385345,0.03490924835205078,0.15133152902126312,0.03724643588066101,Automotive,,,,,,,
1624,Accelerometer,,,,247.11636352539062,16.154497146606445,0,98.20512390136719,,,,-0.0427703857421875,-1.0087432861328125,-0.172943115234375,0.05856184661388397,0.16196493804454803,0.044434309005737305,-25.379806518554688,-108.24171447753906,-311.89385986328125,-0.021308839321136475,-0.03993570804595947,0.05150562524795532,1.356415013954466,-0.14622866911953786,0.07997312624935583,-0.03099827654659748,-0.9771081805229187,-0.21047185361385345,0.03490924835205078,0.15133152902126312,0.03724643588066101,Automotive,,,,,,,
1674,COMPASS,,,,246.04617309570312,16.154247283935547,0,98.20512390136719,,,,-0.0427703857421875,-1.0087432861328125,-0.172943115234375,0.05856184661388397,0.16196493804454803,0.044434309005737305,-25.379806518554688,-108.24171447753906,-311.89385986328125,-0.021308839321136475,-0.03993570804595947,0.05150562524795532,1.356415013954466,-0.14622866911953786,0.07997312624935583,-0.03099827654659748,-0.9771081805229187,-0.21047185361385345,0.03490924835205078,0.15133152902126312,0.03724643588066101,Automotive,,,,,,,
1799,Device Motion,,,,246.04617309570312,16.154247283935547,0,98.20512390136719,,,,-0.0427703857421875,-1.0087432861328125,-0.172943115234375,0.05856184661388397,0.16196493804454803,0.044434309005737305,-25.379806518554688,-108.24171447753906,-311.89385986328125,0.005090802907943726,0.062421560287475586,0.031235575675964355,1.3730519228487486,-0.21665161863405788,0.18431733129199643,-0.04223068058490753,-0.9805122017860413,-0.1918649971485138,0.07213902473449707,0.04230947047472,0.09836959838867188,Automotive,,,,,,,
1834,COMPASS,,,,244.93490600585938,16.154191970825195,0,98.20512390136719,,,,-0.0427703857421875,-1.0087432861328125,-0.172943115234375,0.05856184661388397,0.16196493804454803,0.044434309005737305,-25.379806518554688,-108.24171447753906,-311.89385986328125,0.005090802907943726,0.062421560287475586,0.031235575675964355,1.3730519228487486,-0.21665161863405788,0.18431733129199643,-0.04223068058490753,-0.9805122017860413,-0.1918649971485138,0.07213902473449707,0.04230947047472,0.09836959838867188,Automotive,,,,,,,
1866,Gyrometer,,,,244.93490600585938,16.154191970825195,0,98.20512390136719,,,,-0.0427703857421875,-1.0087432861328125,-0.172943115234375,0.06881821155548096,0.03390097618103027,0.13396260142326355,-25.379806518554688,-108.24171447753906,-311.89385986328125,0.005090802907943726,0.062421560287475586,0.031235575675964355,1.3730519228487486,-0.21665161863405788,0.18431733129199643,-0.04223068058490753,-0.9805122017860413,-0.1918649971485138,0.07213902473449707,0.04230947047472,0.09836959838867188,Automotive,,,,,,,
1896,Magnetometer,,,,244.93490600585938,16.154191970825195,0,98.20512390136719,,,,-0.0427703857421875,-1.0087432861328125,-0.172943115234375,0.06881821155548096,0.03390097618103027,0.13396260142326355,-26.498779296875,-108.87570190429688,-311.3600158691406,0.005090802907943726,0.062421560287475586,0.031235575675964355,1.3730519228487486,-0.21665161863405788,0.18431733129199643,-0.04223068058490753,-0.9805122017860413,-0.1918649971485138,0.07213902473449707,0.04230947047472,0.09836959838867188,Automotive,,,,,,,
1925,Accelerometer,,,,244.93490600585938,16.154191970825195,0,98.20512390136719,,,,-0.0460662841796875,-0.94940185546875,-0.1800689697265625,0.06881821155548096,0.03390097618103027,0.13396260142326355,-26.498779296875,-108.87570190429688,-311.3600158691406,0.005090802907943726,0.062421560287475586,0.031235575675964355,1.3730519228487486,-0.21665161863405788,0.18431733129199643,-0.04223068058490753,-0.9805122017860413,-0.1918649971485138,0.07213902473449707,0.04230947047472,0.09836959838867188,Automotive,,,,,,,
1954,COMPASS,,,,243.8925018310547,16.154132843017578,0,98.20512390136719,,,,-0.0460662841796875,-0.94940185546875,-0.1800689697265625,0.06881821155548096,0.03390097618103027,0.13396260142326355,-26.498779296875,-108.87570190429688,-311.3600158691406,0.005090802907943726,0.062421560287475586,0.031235575675964355,1.3730519228487486,-0.21665161863405788,0.18431733129199643,-0.04223068058490753,-0.9805122017860413,-0.1918649971485138,0.07213902473449707,0.04230947047472,0.09836959838867188,Automotive,,,,,,,
2020,Altimeter,,,,243.8925018310547,16.154132843017578,-0.01849365234375,98.20535278320312,,,,-0.0460662841796875,-0.94940185546875,-0.1800689697265625,0.06881821155548096,0.03390097618103027,0.13396260142326355,-26.498779296875,-108.87570190429688,-311.3600158691406,0.005090802907943726,0.062421560287475586,0.031235575675964355,1.3730519228487486,-0.21665161863405788,0.18431733129199643,-0.04223068058490753,-0.9805122017860413,-0.1918649971485138,0.07213902473449707,0.04230947047472,0.09836959838867188,Automotive,,,,,,,
2098,Device Motion,,,,243.8925018310547,16.154132843017578,-0.01849365234375,98.20535278320312,,,,-0.0460662841796875,-0.94940185546875,-0.1800689697265625,0.06881821155548096,0.03390097618103027,0.13396260142326355,-26.498779296875,-108.87570190429688,-311.3600158691406,-0.0113430917263031,0.028659701347351074,-0.04436773061752319,1.3821424944428502,-0.27205965460051873,0.25756499278965345,-0.0503939613699913,-0.982257604598999,-0.18063852190971375,0.020756199955940247,0.027946367859840393,-0.14502277970314026,Automotive,,,,,,,
2136,Gyrometer,,,,243.8925018310547,16.154132843017578,-0.01849365234375,98.20535278320312,,,,-0.0460662841796875,-0.94940185546875,-0.1800689697265625,0.03941718116402626,0.048358477652072906,-0.13764867186546326,-26.498779296875,-108.87570190429688,-311.3600158691406,-0.0113430917263031,0.028659701347351074,-0.04436773061752319,1.3821424944428502,-0.27205965460051873,0.25756499278965345,-0.0503939613699913,-0.982257604598999,-0.18063852190971375,0.020756199955940247,0.027946367859840393,-0.14502277970314026,Automotive,,,,,,,
2166,Magnetometer,,,,243.8925018310547,16.154132843017578,-0.01849365234375,98.20535278320312,,,,-0.0460662841796875,-0.94940185546875,-0.1800689697265625,0.03941718116402626,0.048358477652072906,-0.13764867186546326,-27.061782836914062,-109.28948974609375,-311.4537353515625,-0.0113430917263031,0.028659701347351074,-0.04436773061752319,1.3821424944428502,-0.27205965460051873,0.25756499278965345,-0.0503939613699913,-0.982257604598999,-0.18063852190971375,0.020756199955940247,0.027946367859840393,-0.14502277970314026,Automotive,,,,,,,
2197,Accelerometer,,,,243.8925018310547,16.154132843017578,-0.01849365234375,98.20535278320312,,,,-0.01934814453125,-0.9547119140625,-0.1856231689453125,0.03941718116402626,0.048358477652072906,-0.13764867186546326,-27.061782836914062,-109.28948974609375,-311.4537353515625,-0.0113430917263031,0.028659701347351074,-0.04436773061752319,1.3821424944428502,-0.27205965460051873,0.25756499278965345,-0.0503939613699913,-0.982257604598999,-0.18063852190971375,0.020756199955940247,0.027946367859840393,-0.14502277970314026,Automotive,,,,,,,
2333,COMPASS,,,,244.9892120361328,16.153316497802734,-0.01849365234375,98.20535278320312,,,,-0.01934814453125,-0.9547119140625,-0.1856231689453125,0.03941718116402626,0.048358477652072906,-0.13764867186546326,-27.061782836914062,-109.28948974609375,-311.4537353515625,-0.0113430917263031,0.028659701347351074,-0.04436773061752319,1.3821424944428502,-0.27205965460051873,0.25756499278965345,-0.0503939613699913,-0.982257604598999,-0.18063852190971375,0.020756199955940247,0.027946367859840393,-0.14502277970314026,Automotive,,,,,,,
2397,Device Motion,,,,244.9892120361328,16.153316497802734,-0.01849365234375,98.20535278320312,,,,-0.01934814453125,-0.9547119140625,-0.1856231689453125,0.03941718116402626,0.048358477652072906,-0.13764867186546326,-27.061782836914062,-109.28948974609375,-311.4537353515625,0.018555019050836563,-0.005978226661682129,0.047653928399086,1.395722689016595,-0.23771253740094242,0.20309569979190636,-0.04101593419909477,-0.9847137331962585,-0.1692819446325302,0.033969469368457794,-0.11091257631778717,-0.027525335550308228,Automotive,,,,,,,
2433,Gyrometer,,,,244.9892120361328,16.153316497802734,-0.01849365234375,98.20535278320312,,,,-0.01934814453125,-0.9547119140625,-0.1856231689453125,0.04014608636498451,-0.09033335745334625,-0.018022676929831505,-27.061782836914062,-109.28948974609375,-311.4537353515625,0.018555019050836563,-0.005978226661682129,0.047653928399086,1.395722689016595,-0.23771253740094242,0.20309569979190636,-0.04101593419909477,-0.9847137331962585,-0.1692819446325302,0.033969469368457794,-0.11091257631778717,-0.027525335550308228,Automotive,,,,,,,
2464,Magnetometer,,,,244.9892120361328,16.153316497802734,-0.01849365234375,98.20535278320312,,,,-0.01934814453125,-0.9547119140625,-0.1856231689453125,0.04014608636498451,-0.09033335745334625,-0.018022676929831505,-26.603195190429688,-109.55134582519531,-311.3728942871094,0.018555019050836563,-0.005978226661682129,0.047653928399086,1.395722689016595,-0.23771253740094242,0.20309569979190636,-0.04101593419909477,-0.9847137331962585,-0.1692819446325302,0.033969469368457794,-0.11091257631778717,-0.027525335550308228,Automotive,,,,,,,
2494,Accelerometer,,,,244.9892120361328,16.153316497802734,-0.01849365234375,98.20535278320312,,,,-0.0263519287109375,-1.0053253173828125,-0.1483154296875,0.04014608636498451,-0.09033335745334625,-0.018022676929831505,-26.603195190429688,-109.55134582519531,-311.3728942871094,0.018555019050836563,-0.005978226661682129,0.047653928399086,1.395722689016595,-0.23771253740094242,0.20309569979190636,-0.04101593419909477,-0.9847137331962585,-0.1692819446325302,0.033969469368457794,-0.11091257631778717,-0.027525335550308228,Automotive,,,,,,,
2523,COMPASS,,,,246.01748657226562,16.152124404907227,-0.01849365234375,98.20535278320312,,,,-0.0263519287109375,-1.0053253173828125,-0.1483154296875,0.04014608636498451,-0.09033335745334625,-0.018022676929831505,-26.603195190429688,-109.55134582519531,-311.3728942871094,0.018555019050836563,-0.005978226661682129,0.047653928399086,1.395722689016595,-0.23771253740094242,0.20309569979190636,-0.04101593419909477,-0.9847137331962585,-0.1692819446325302,0.033969469368457794,-0.11091257631778717,-0.027525335550308228,Automotive,,,,,,,
2696,Device Motion,,,,246.01748657226562,16.152124404907227,-0.01849365234375,98.20535278320312,,,,-0.0263519287109375,-1.0053253173828125,-0.1483154296875,0.04014608636498451,-0.09033335745334625,-0.018022676929831505,-26.603195190429688,-109.55134582519531,-311.3728942871094,0.0016258955001831055,0.011500358581542969,0.0019392967224121094,1.4014646921422436,-0.27805931339964596,0.22168955197729265,-0.046257857233285904,-0.9856976270675659,-0.16204994916915894,0.09696151316165924,-0.06792975217103958,-0.038203585892915726,Automotive,,,,,,,
2731,Gyrometer,,,,246.01748657226562,16.152124404907227,-0.01849365234375,98.20535278320312,,,,-0.0263519287109375,-1.0053253173828125,-0.1483154296875,0.06844590604305267,-0.07643245905637741,-0.06640592217445374,-26.603195190429688,-109.55134582519531,-311.3728942871094,0.0016258955001831055,0.011500358581542969,0.0019392967224121094,1.4014646921422436,-0.27805931339964596,0.22168955197729265,-0.046257857233285904,-0.9856976270675659,-0.16204994916915894,0.09696151316165924,-0.06792975217103958,-0.038203585892915726,Automotive,,,,,,,
2762,Magnetometer,,,,246.01748657226562,16.152124404907227,-0.01849365234375,98.20535278320312,,,,-0.0263519287109375,-1.0053253173828125,-0.1483154296875,0.06844590604305267,-0.07643245905637741,-0.06640592217445374,-27.2100830078125,-110.07858276367188,-310.84149169921875,0.0016258955001831055,0.011500358581542969,0.0019392967224121094,1.4014646921422436,-0.27805931339964596,0.22168955197729265,-0.046257857233285904,-0.9856976270675659,-0.16204994916915894,0.09696151316165924,-0.06792975217103958,-0.038203585892915726,Automotive,,,,,,,
2792,COMPASS,,,,247.34506225585938,16.151716232299805,-0.01849365234375,98.20535278320312,,,,-0.0263519287109375,-1.0053253173828125,-0.1483154296875,0.06844590604305267,-0.07643245905637741,-0.06640592217445374,-27.2100830078125,-110.07858276367188,-310.84149169921875,0.0016258955001831055,0.011500358581542969,0.0019392967224121094,1.4014646921422436,-0.27805931339964596,0.22168955197729265,-0.046257857233285904,-0.9856976270675659,-0.16204994916915894,0.09696151316165924,-0.06792975217103958,-0.038203585892915726,Automotive,,,,,,,
2826,Accelerometer,,,,247.34506225585938,16.151716232299805,-0.01849365234375,98.20535278320312,,,,-0.0736846923828125,-0.9701080322265625,-0.1981201171875,0.06844590604305267,-0.07643245905637741,-0.06640592217445374,-27.2100830078125,-110.07858276367188,-310.84149169921875,0.0016258955001831055,0.011500358581542969,0.0019392967224121094,1.4014646921422436,-0.27805931339964596,0.22168955197729265,-0.046257857233285904,-0.9856976270675659,-0.16204994916915894,0.09696151316165924,-0.06792975217103958,-0.038203585892915726,Automotive,,,,,,,
2870,COMPASS,,,,248.56356811523438,16.151514053344727,-0.01849365234375,98.20535278320312,,,,-0.0736846923828125,-0.9701080322265625,-0.1981201171875,0.06844590604305267,-0.07643245905637741,-0.06640592217445374,-27.2100830078125,-110.07858276367188,-310.84149169921875,0.0016258955001831055,0.011500358581542969,0.0019392967224121094,1.4014646921422436,-0.27805931339964596,0.22168955197729265,-0.046257857233285904,-0.9856976270675659,-0.16204994916915894,0.09696151316165924,-0.06792975217103958,-0.038203585892915726,Automotive,,,,,,,
2995,Device Motion,,,,248.56356811523438,16.151514053344727,-0.01849365234375,98.20535278320312,,,,-0.0736846923828125,-0.9701080322265625,-0.1981201171875,0.06844590604305267,-0.07643245905637741,-0.06640592217445374,-27.2100830078125,-110.07858276367188,-310.84149169921875,-0.019385814666748047,0.00634998083114624,0.0014014244079589844,1.4108170784743153,-0.1858949115193741,0.10036799016083361,-0.029442332684993744,-0.9872305989265442,-0.1565529853105545,0.08282794803380966,-0.03277314454317093,-0.029230250045657158,Automotive,,,,,,,
3030,Gyrometer,,,,248.56356811523438,16.151514053344727,-0.01849365234375,98.20535278320312,,,,-0.0736846923828125,-0.9701080322265625,-0.1981201171875,0.04226143658161163,-0.012685434892773628,0.008569253608584404,-27.2100830078125,-110.07858276367188,-310.84149169921875,-0.019385814666748047,0.00634998083114624,0.0014014244079589844,1.4108170784743153,-0.1858949115193741,0.10036799016083361,-0.029442332684993744,-0.9872305989265442,-0.1565529853105545,0.08282794803380966,-0.03277314454317093,-0.029230250045657158,Automotive,,,,,,,
3061,Magnetometer,,,,248.56356811523438,16.151514053344727,-0.01849365234375,98.20535278320312,,,,-0.0736846923828125,-0.9701080322265625,-0.1981201171875,0.04226143658161163,-0.012685434892773628,0.008569253608584404,-28.126358032226562,-110.00636291503906,-310.2947998046875,-0.019385814666748047,0.00634998083114624,0.0014014244079589844,1.4108170784743153,-0.1858949115193741,0.10036799016083361,-0.029442332684993744,-0.9872305989265442,-0.1565529853105545,0.08282794803380966,-0.03277314454317093,-0.029230250045657158,Automotive,,,,,,,
3090,Altimeter,,,,248.56356811523438,16.151514053344727,-0.0369873046875,98.20558166503906,,,,-0.0736846923828125,-0.9701080322265625,-0.1981201171875,0.04226143658161163,-0.012685434892773628,0.008569253608584404,-28.126358032226562,-110.00636291503906,-310.2947998046875,-0.019385814666748047,0.00634998083114624,0.0014014244079589844,1.4108170784743153,-0.1858949115193741,0.10036799016083361,-0.029442332684993744,-0.9872305989265442,-0.1565529853105545,0.08282794803380966,-0.03277314454317093,-0.029230250045657158,Automotive,,,,,,,
3118,Accelerometer,,,,248.56356811523438,16.151514053344727,-0.0369873046875,98.20558166503906,,,,-0.0395355224609375,-0.973480224609375,-0.155548095703125,0.04226143658161163,-0.012685434892773628,0.008569253608584404,-28.126358032226562,-110.00636291503906,-310.2947998046875,-0.019385814666748047,0.00634998083114624,0.0014014244079589844,1.4108170784743153,-0.1858949115193741,0.10036799016083361,-0.029442332684993744,-0.9872305989265442,-0.1565529853105545,0.08282794803380966,-0.03277314454317093,-0.029230250045657158,Automotive,,,,,,,
3294,Device Motion,,,,248.56356811523438,16.151514053344727,-0.0369873046875,98.20558166503906,,,,-0.0395355224609375,-0.973480224609375,-0.155548095703125,0.04226143658161163,-0.012685434892773628,0.008569253608584404,-28.126358032226562,-110.00636291503906,-310.2947998046875,-0.005507735535502434,-0.015487432479858398,0.02861703932285309,1.4191614048071717,-0.1957071108159816,0.12157018923577631,-0.029373861849308014,-0.9885254502296448,-0.14816978573799133,0.04872941970825195,0.13801047205924988,-0.00695409718900919,Automotive,,,,,,,
3329,Magnetometer,,,,248.56356811523438,16.151514053344727,-0.0369873046875,98.20558166503906,,,,-0.0395355224609375,-0.973480224609375,-0.155548095703125,0.04226143658161163,-0.012685434892773628,0.008569253608584404,-29.866851806640625,-110.54826354980469,-310.3765869140625,-0.005507735535502434,-0.015487432479858398,0.02861703932285309,1.4191614048071717,-0.1957071108159816,0.12157018923577631,-0.029373861849308014,-0.9885254502296448,-0.14816978573799133,0.04872941970825195,0.13801047205924988,-0.00695409718900919,Automotive,,,,,,,
3359,Gyrometer,,,,248.56356811523438,16.151514053344727,-0.0369873046875,98.20558166503906,,,,-0.0395355224609375,-0.973480224609375,-0.155548095703125,0.1203162893652916,0.1422540843486786,0.01728125289082527,-29.866851806640625,-110.54826354980469,-310.3765869140625,-0.005507735535502434,-0.015487432479858398,0.02861703932285309,1.4191614048071717,-0.1957071108159816,0.12157018923577631,-0.029373861849308014,-0.9885254502296448,-0.14816978573799133,0.04872941970825195,0.13801047205924988,-0.00695409718900919,Automotive,,,,,,,
3389,COMPASS,,,,247.32275390625,16.149517059326172,-0.0369873046875,98.20558166503906,,,,-0.0395355224609375,-0.973480224609375,-0.155548095703125,0.1203162893652916,0.1422540843486786,0.01728125289082527,-29.866851806640625,-110.54826354980469,-310.3765869140625,-0.005507735535502434,-0.015487432479858398,0.02861703932285309,1.4191614048071717,-0.1957071108159816,0.12157018923577631,-0.029373861849308014,-0.9885254502296448,-0.14816978573799133,0.04872941970825195,0.13801047205924988,-0.00695409718900919,Automotive,,,,,,,
3418,Accelerometer,,,,247.32275390625,16.149517059326172,-0.0369873046875,98.20558166503906,,,,-0.047393798828125,-0.9919586181640625,-0.1286163330078125,0.1203162893652916,0.1422540843486786,0.01728125289082527,-29.866851806640625,-110.54826354980469,-310.3765869140625,-0.005507735535502434,-0.015487432479858398,0.02861703932285309,1.4191614048071717,-0.1957071108159816,0.12157018923577631,-0.029373861849308014,-0.9885254502296448,-0.14816978573799133,0.04872941970825195,0.13801047205924988,-0.00695409718900919,Automotive,,,,,,,
3449,COMPASS,,,,246.23788452148438,16.14944076538086,-0.0369873046875,98.20558166503906,,,,-0.047393798828125,-0.9919586181640625,-0.1286163330078125,0.1203162893652916,0.1422540843486786,0.01728125289082527,-29.866851806640625,-110.54826354980469,-310.3765869140625,-0.005507735535502434,-0.015487432479858398,0.02861703932285309,1.4191614048071717,-0.1957071108159816,0.12157018923577631,-0.029373861849308014,-0.9885254502296448,-0.14816978573799133,0.04872941970825195,0.13801047205924988,-0.00695409718900919,Automotive,,,,,,,
3572,COMPASS,,,,245.21192932128906,16.149473190307617,-0.0369873046875,98.20558166503906,,,,-0.047393798828125,-0.9919586181640625,-0.1286163330078125,0.1203162893652916,0.1422540843486786,0.01728125289082527,-29.866851806640625,-110.54826354980469,-310.3765869140625,-0.005507735535502434,-0.015487432479858398,0.02861703932285309,1.4191614048071717,-0.1957071108159816,0.12157018923577631,-0.029373861849308014,-0.9885254502296448,-0.14816978573799133,0.04872941970825195,0.13801047205924988,-0.00695409718900919,Automotive,,,,,,,
3608,Device Motion,,,,245.21192932128906,16.149473190307617,-0.0369873046875,98.20558166503906,,,,-0.047393798828125,-0.9919586181640625,-0.1286163330078125,0.1203162893652916,0.1422540843486786,0.01728125289082527,-29.866851806640625,-110.54826354980469,-310.3765869140625,-0.01593613252043724,0.026153624057769775,-0.021630391478538513,1.4278951073560886,-0.27346327480191723,0.249969733566732,-0.03846144676208496,-0.9898070096969604,-0.13712221384048462,0.04773431643843651,0.09077800065279007,0.1452777236700058,Automotive,,,,,,,
3637,Magnetometer,,,,245.21192932128906,16.149473190307617,-0.0369873046875,98.20558166503906,,,,-0.047393798828125,-0.9919586181640625,-0.1286163330078125,0.1203162893652916,0.1422540843486786,0.01728125289082527,-31.774765014648438,-111.18212890625,-311.1845703125,-0.01593613252043724,0.026153624057769775,-0.021630391478538513,1.4278951073560886,-0.27346327480191723,0.249969733566732,-0.03846144676208496,-0.9898070096969604,-0.13712221384048462,0.04773431643843651,0.09077800065279007,0.1452777236700058,Automotive,,,,,,,
3669,COMPASS,,,,244.1756591796875,16.14922523498535,-0.0369873046875,98.20558166503906,,,,-0.047393798828125,-0.9919586181640625,-0.1286163330078125,0.1203162893652916,0.1422540843486786,0.01728125289082527,-31.774765014648438,-111.18212890625,-311.1845703125,-0.01593613252043724,0.026153624057769775,-0.021630391478538513,1.4278951073560886,-0.27346327480191723,0.249969733566732,-0.03846144676208496,-0.9898070096969604,-0.13712221384048462,0.04773431643843651,0.09077800065279007,0.1452777236700058,Automotive,,,,,,,
3697,Gyrometer,,,,244.1756591796875,16.14922523498535,-0.0369873046875,98.20558166503906,,,,-0.047393798828125,-0.9919586181640625,-0.1286163330078125,0.037266410887241364,0.13338175415992737,0.12023399770259857,-31.774765014648438,-111.18212890625,-311.1845703125,-0.01593613252043724,0.026153624057769775,-0.021630391478538513,1.4278951073560886,-0.27346327480191723,0.249969733566732,-0.03846144676208496,-0.9898070096969604,-0.13712221384048462,0.04773431643843651,0.09077800065279007,0.1452777236700058,Automotive,,,,,,,
3725,Accelerometer,,,,244.1756591796875,16.14922523498535,-0.0369873046875,98.20558166503906,,,,-0.05303955078125,-0.9771728515625,-0.2209320068359375,0.037266410887241364,0.13338175415992737,0.12023399770259857,-31.774765014648438,-111.18212890625,-311.1845703125,-0.01593613252043724,0.026153624057769775,-0.021630391478538513,1.4278951073560886,-0.27346327480191723,0.249969733566732,-0.03846144676208496,-0.9898070096969604,-0.13712221384048462,0.04773431643843651,0.09077800065279007,0.1452777236700058,Automotive,,,,,,,
3892,Device Motion,,,,244.1756591796875,16.14922523498535,-0.0369873046875,98.20558166503906,,,,-0.05303955078125,-0.9771728515625,-0.2209320068359375,0.037266410887241364,0.13338175415992737,0.12023399770259857,-31.774765014648438,-111.18212890625,-311.1845703125,0.018035471439361572,0.0012129545211791992,-0.0009184479713439941,1.4135550201229907,-0.22193589432291758,0.211533919915054,-0.034469179809093475,-0.9876630306243896,-0.15275302529335022,-0.08401166647672653,-0.028692856431007385,-0.03375891596078873,Automotive,,,,,,,
3928,Magnetometer,,,,244.1756591796875,16.14922523498535,-0.0369873046875,98.20558166503906,,,,-0.05303955078125,-0.9771728515625,-0.2209320068359375,0.037266410887241364,0.13338175415992737,0.12023399770259857,-31.31854248046875,-112.03355407714844,-312.55572509765625,0.018035471439361572,0.0012129545211791992,-0.0009184479713439941,1.4135550201229907,-0.22193589432291758,0.211533919915054,-0.034469179809093475,-0.9876630306243896,-0.15275302529335022,-0.08401166647672653,-0.028692856431007385,-0.03375891596078873,Automotive,,,,,,,
3957,Gyrometer,,,,244.1756591796875,16.14922523498535,-0.0369873046875,98.20558166503906,,,,-0.05303955078125,-0.9771728515625,-0.2209320068359375,-0.061701979488134384,-0.04761013016104698,-0.054845672100782394,-31.31854248046875,-112.03355407714844,-312.55572509765625,0.018035471439361572,0.0012129545211791992,-0.0009184479713439941,1.4135550201229907,-0.22193589432291758,0.211533919915054,-0.034469179809093475,-0.9876630306243896,-0.15275302529335022,-0.08401166647672653,-0.028692856431007385,-0.03375891596078873,Automotive,,,,,,,
3988,Accelerometer,,,,244.1756591796875,16.14922523498535,-0.0369873046875,98.20558166503906,,,,-0.0108184814453125,-0.9795989990234375,-0.152984619140625,-0.061701979488134384,-0.04761013016104698,-0.054845672100782394,-31.31854248046875,-112.03355407714844,-312.55572509765625,0.018035471439361572,0.0012129545211791992,-0.0009184479713439941,1.4135550201229907,-0.22193589432291758,0.211533919915054,-0.034469179809093475,-0.9876630306243896,-0.15275302529335022,-0.08401166647672653,-0.028692856431007385,-0.03375891596078873,Automotive,,,,,,,
4025,Altimeter,,,,244.1756591796875,16.14922523498535,-0.079254150390625,98.20607757568359,,,,-0.0108184814453125,-0.9795989990234375,-0.152984619140625,-0.061701979488134384,-0.04761013016104698,-0.054845672100782394,-31.31854248046875,-112.03355407714844,-312.55572509765625,0.018035471439361572,0.0012129545211791992,-0.0009184479713439941,1.4135550201229907,-0.22193589432291758,0.211533919915054,-0.034469179809093475,-0.9876630306243896,-0.15275302529335022,-0.08401166647672653,-0.028692856431007385,-0.03375891596078873,Automotive,,,,,,,
4053,COMPASS,,,,245.21463012695312,16.148269653320312,-0.079254150390625,98.20607757568359,,,,-0.0108184814453125,-0.9795989990234375,-0.152984619140625,-0.061701979488134384,-0.04761013016104698,-0.054845672100782394,-31.31854248046875,-112.03355407714844,-312.55572509765625,0.018035471439361572,0.0012129545211791992,-0.0009184479713439941,1.4135550201229907,-0.22193589432291758,0.211533919915054,-0.034469179809093475,-0.9876630306243896,-0.15275302529335022,-0.08401166647672653,-0.028692856431007385,-0.03375891596078873,Automotive,,,,,,,
4191,Device Motion,,,,245.21463012695312,16.148269653320312,-0.079254150390625,98.20607757568359,,,,-0.0108184814453125,-0.9795989990234375,-0.152984619140625,-0.061701979488134384,-0.04761013016104698,-0.054845672100782394,-31.31854248046875,-112.03355407714844,-312.55572509765625,0.013013452291488647,-0.005825638771057129,0.022701501846313477,1.418174516863336,-0.21132164905895276,0.1830677169632316,-0.031888578087091446,-0.9883759021759033,-0.14864769577980042,0.016652442514896393,-0.05539428070187569,-0.004000496119260788,Automotive,,,,,,,
4236,Magnetometer,,,,245.21463012695312,16.148269653320312,-0.079254150390625,98.20607757568359,,,,-0.0108184814453125,-0.9795989990234375,-0.152984619140625,-0.061701979488134384,-0.04761013016104698,-0.054845672100782394,-29.981094360351562,-112.16018676757812,-312.94451904296875,0.013013452291488647,-0.005825638771057129,0.022701501846313477,1.418174516863336,-0.21132164905895276,0.1830677169632316,-0.031888578087091446,-0.9883759021759033,-0.14864769577980042,0.016652442514896393,-0.05539428070187569,-0.004000496119260788,Automotive,,,,,,,
4269,Gyrometer,,,,245.21463012695312,16.148269653320312,-0.079254150390625,98.20607757568359,,,,-0.0108184814453125,-0.9795989990234375,-0.152984619140625,0.019821109250187874,-0.04631716385483742,-0.025676866993308067,-29.981094360351562,-112.16018676757812,-312.94451904296875,0.013013452291488647,-0.005825638771057129,0.022701501846313477,1.418174516863336,-0.21132164905895276,0.1830677169632316,-0.031888578087091446,-0.9883759021759033,-0.14864769577980042,0.016652442514896393,-0.05539428070187569,-0.004000496119260788,Automotive,,,,,,,
4300,Accelerometer,,,,245.21463012695312,16.148269653320312,-0.079254150390625,98.20607757568359,,,,-0.009979248046875,-1.014251708984375,-0.1230010986328125,0.019821109250187874,-0.04631716385483742,-0.025676866993308067,-29.981094360351562,-112.16018676757812,-312.94451904296875,0.013013452291488647,-0.005825638771057129,0.022701501846313477,1.418174516863336,-0.21132164905895276,0.1830677169632316,-0.031888578087091446,-0.9883759021759033,-0.14864769577980042,0.016652442514896393,-0.05539428070187569,-0.004000496119260788,Automotive,,,,,,,
4327,COMPASS,,,,246.4136962890625,16.147245407104492,-0.079254150390625,98.20607757568359,,,,-0.009979248046875,-1.014251708984375,-0.1230010986328125,0.019821109250187874,-0.04631716385483742,-0.025676866993308067,-29.981094360351562,-112.16018676757812,-312.94451904296875,0.013013452291488647,-0.005825638771057129,0.022701501846313477,1.418174516863336,-0.21132164905895276,0.1830677169632316,-0.031888578087091446,-0.9883759021759033,-0.14864769577980042,0.016652442514896393,-0.05539428070187569,-0.004000496119260788,Automotive,,,,,,,
4447,COMPASS,,,,247.48321533203125,16.147302627563477,-0.079254150390625,98.20607757568359,,,,-0.009979248046875,-1.014251708984375,-0.1230010986328125,0.019821109250187874,-0.04631716385483742,-0.025676866993308067,-29.981094360351562,-112.16018676757812,-312.94451904296875,0.013013452291488647,-0.005825638771057129,0.022701501846313477,1.418174516863336,-0.21132164905895276,0.1830677169632316,-0.031888578087091446,-0.9883759021759033,-0.14864769577980042,0.016652442514896393,-0.05539428070187569,-0.004000496119260788,Automotive,,,,,,,
4491,Device Motion,,,,247.48321533203125,16.147302627563477,-0.079254150390625,98.20607757568359,,,,-0.009979248046875,-1.014251708984375,-0.1230010986328125,0.019821109250187874,-0.04631716385483742,-0.025676866993308067,-29.981094360351562,-112.16018676757812,-312.94451904296875,-0.004781752824783325,0.0018499493598937988,-0.0077103376388549805,1.433159768354701,-0.24289585746598188,0.17824440551754892,-0.032999008893966675,-0.990543007850647,-0.13317427039146423,0.09599381685256958,-0.09844961762428284,0.06544294953346252,Automotive,,,,,,,
4525,Magnetometer,,,,247.48321533203125,16.147302627563477,-0.079254150390625,98.20607757568359,,,,-0.009979248046875,-1.014251708984375,-0.1230010986328125,0.019821109250187874,-0.04631716385483742,-0.025676866993308067,-28.241973876953125,-111.56254577636719,-312.75079345703125,-0.004781752824783325,0.0018499493598937988,-0.0077103376388549805,1.433159768354701,-0.24289585746598188,0.17824440551754892,-0.032999008893966675,-0.990543007850647,-0.13317427039146423,0.09599381685256958,-0.09844961762428284,0.06544294953346252,Automotive,,,,,,,
4555,Gyrometer,,,,247.48321533203125,16.147302627563477,-0.079254150390625,98.20607757568359,,,,-0.009979248046875,-1.014251708984375,-0.1230010986328125,0.03852555528283119,-0.08538520336151123,0.057139184325933456,-28.241973876953125,-111.56254577636719,-312.75079345703125,-0.004781752824783325,0.0018499493598937988,-0.0077103376388549805,1.433159768354701,-0.24289585746598188,0.17824440551754892,-0.032999008893966675,-0.990543007850647,-0.13317427039146423,0.09599381685256958,-0.09844961762428284,0.06544294953346252,Automotive,,,,,,,
4570,Accelerometer,,,,247.48321533203125,16.147302627563477,-0.079254150390625,98.20607757568359,,,,-0.0538330078125,-0.97015380859375,-0.1746368408203125,0.03852555528283119,-0.08538520336151123,0.057139184325933456,-28.241973876953125,-111.56254577636719,-312.75079345703125,-0.004781752824783325,0.0018499493598937988,-0.0077103376388549805,1.433159768354701,-0.24289585746598188,0.17824440551754892,-0.032999008893966675,-0.990543007850647,-0.13317427039146423,0.09599381685256958,-0.09844961762428284,0.06544294953346252,Automotive,,,,,,,
4686,COMPASS,,,,248.52810668945312,16.147018432617188,-0.079254150390625,98.20607757568359,,,,-0.0538330078125,-0.97015380859375,-0.1746368408203125,0.03852555528283119,-0.08538520336151123,0.057139184325933456,-28.241973876953125,-111.56254577636719,-312.75079345703125,-0.004781752824783325,0.0018499493598937988,-0.0077103376388549805,1.433159768354701,-0.24289585746598188,0.17824440551754892,-0.032999008893966675,-0.990543007850647,-0.13317427039146423,0.09599381685256958,-0.09844961762428284,0.06544294953346252,Automotive,,,,,,,
4790,Device Motion,,,,248.52810668945312,16.147018432617188,-0.079254150390625,98.20607757568359,,,,-0.0538330078125,-0.97015380859375,-0.1746368408203125,0.03852555528283119,-0.08538520336151123,0.057139184325933456,-28.241973876953125,-111.56254577636719,-312.75079345703125,0.0023175831884145737,0.020351767539978027,0.01942393183708191,1.4255320320034843,-0.19862450910858184,0.12057156317710924,-0.028562691062688828,-0.9894676804542542,-0.14190636575222015,-0.09632861614227295,0.010009046643972397,0.041916053742170334,Automotive,,,,,,,
4822,Magnetometer,,,,248.52810668945312,16.147018432617188,-0.079254150390625,98.20607757568359,,,,-0.0538330078125,-0.97015380859375,-0.1746368408203125,0.03852555528283119,-0.08538520336151123,0.057139184325933456,-27.449737548828125,-111.58694458007812,-311.55181884765625,0.0023175831884145737,0.020351767539978027,0.01942393183708191,1.4255320320034843,-0.19862450910858184,0.12057156317710924,-0.028562691062688828,-0.9894676804542542,-0.14190636575222015,-0.09632861614227295,0.010009046643972397,0.041916053742170334,Automotive,,,,,,,
4855,Gyrometer,,,,248.52810668945312,16.147018432617188,-0.079254150390625,98.20607757568359,,,,-0.0538330078125,-0.97015380859375,-0.1746368408203125,-0.0821947380900383,0.030312897637486458,0.017347298562526703,-27.449737548828125,-111.58694458007812,-311.55181884765625,0.0023175831884145737,0.020351767539978027,0.01942393183708191,1.4255320320034843,-0.19862450910858184,0.12057156317710924,-0.028562691062688828,-0.9894676804542542,-0.14190636575222015,-0.09632861614227295,0.010009046643972397,0.041916053742170334,Automotive,,,,,,,
4883,Accelerometer,,,,248.52810668945312,16.147018432617188,-0.079254150390625,98.20607757568359,,,,-0.04193115234375,-0.9770355224609375,-0.11566162109375,-0.0821947380900383,0.030312897637486458,0.017347298562526703,-27.449737548828125,-111.58694458007812,-311.55181884765625,0.0023175831884145737,0.020351767539978027,0.01942393183708191,1.4255320320034843,-0.19862450910858184,0.12057156317710924,-0.028562691062688828,-0.9894676804542542,-0.14190636575222015,-0.09632861614227295,0.010009046643972397,0.041916053742170334,Automotive,,,,,,,
5006,COMPASS,,,,247.43359375,16.146503448486328,-0.079254150390625,98.20607757568359,,,,-0.04193115234375,-0.9770355224609375,-0.11566162109375,-0.0821947380900383,0.030312897637486458,0.017347298562526703,-27.449737548828125,-111.58694458007812,-311.55181884765625,0.0023175831884145737,0.020351767539978027,0.01942393183708191,1.4255320320034843,-0.19862450910858184,0.12057156317710924,-0.028562691062688828,-0.9894676804542542,-0.14190636575222015,-0.09632861614227295,0.010009046643972397,0.041916053742170334,Automotive,,,,,,,
5041,Altimeter,,,,247.43359375,16.146503448486328,-0.13739013671875,98.20674896240234,,,,-0.04193115234375,-0.9770355224609375,-0.11566162109375,-0.0821947380900383,0.030312897637486458,0.017347298562526703,-27.449737548828125,-111.58694458007812,-311.55181884765625,0.0023175831884145737,0.020351767539978027,0.01942393183708191,1.4255320320034843,-0.19862450910858184,0.12057156317710924,-0.028562691062688828,-0.9894676804542542,-0.14190636575222015,-0.09632861614227295,0.010009046643972397,0.041916053742170334,Automotive,,,,,,,
5089,Device Motion,,,,247.43359375,16.146503448486328,-0.13739013671875,98.20674896240234,,,,-0.04193115234375,-0.9770355224609375,-0.11566162109375,-0.0821947380900383,0.030312897637486458,0.017347298562526703,-27.449737548828125,-111.58694458007812,-311.55181884765625,-0.02976098656654358,-0.023748278617858887,-0.0011268258094787598,1.4273210833434151,-0.2132971795417922,0.16088102285618366,-0.03026708960533142,-0.9897250533103943,-0.13974250853061676,0.15738357603549957,0.096892349421978,-0.017757277935743332,Automotive,,,,,,,
5122,Magnetometer,,,,247.43359375,16.146503448486328,-0.13739013671875,98.20674896240234,,,,-0.04193115234375,-0.9770355224609375,-0.11566162109375,-0.0821947380900383,0.030312897637486458,0.017347298562526703,-28.10693359375,-110.67678833007812,-311.6219482421875,-0.02976098656654358,-0.023748278617858887,-0.0011268258094787598,1.4273210833434151,-0.2132971795417922,0.16088102285618366,-0.03026708960533142,-0.9897250533103943,-0.13974250853061676,0.15738357603549957,0.096892349421978,-0.017757277935743332,Automotive,,,,,,,
5152,Gyrometer,,,,247.43359375,16.146503448486328,-0.13739013671875,98.20674896240234,,,,-0.04193115234375,-0.9770355224609375,-0.11566162109375,0.07143769413232803,0.08808404952287674,-0.016934774816036224,-28.10693359375,-110.67678833007812,-311.6219482421875,-0.02976098656654358,-0.023748278617858887,-0.0011268258094787598,1.4273210833434151,-0.2132971795417922,0.16088102285618366,-0.03026708960533142,-0.9897250533103943,-0.13974250853061676,0.15738357603549957,0.096892349421978,-0.017757277935743332,Automotive,,,,,,,
5182,Accelerometer,,,,247.43359375,16.146503448486328,-0.13739013671875,98.20674896240234,,,,-0.061920166015625,-1.081695556640625,-0.165008544921875,0.07143769413232803,0.08808404952287674,-0.016934774816036224,-28.10693359375,-110.67678833007812,-311.6219482421875,-0.02976098656654358,-0.023748278617858887,-0.0011268258094787598,1.4273210833434151,-0.2132971795417922,0.16088102285618366,-0.03026708960533142,-0.9897250533103943,-0.13974250853061676,0.15738357603549957,0.096892349421978,-0.017757277935743332,Automotive,,,,,,,
5324,COMPASS,,,,246.33731079101562,16.146350860595703,-0.13739013671875,98.20674896240234,,,,-0.061920166015625,-1.081695556640625,-0.165008544921875,0.07143769413232803,0.08808404952287674,-0.016934774816036224,-28.10693359375,-110.67678833007812,-311.6219482421875,-0.02976098656654358,-0.023748278617858887,-0.0011268258094787598,1.4273210833434151,-0.2132971795417922,0.16088102285618366,-0.03026708960533142,-0.9897250533103943,-0.13974250853061676,0.15738357603549957,0.096892349421978,-0.017757277935743332,Automotive,,,,,,,
5388,Device Motion,,,,246.33731079101562,16.146350860595703,-0.13739013671875,98.20674896240234,,,,-0.061920166015625,-1.081695556640625,-0.165008544921875,0.07143769413232803,0.08808404952287674,-0.016934774816036224,-28.10693359375,-110.67678833007812,-311.6219482421875,0.01948407292366028,0.028853654861450195,-0.056140780448913574,1.4365049083646648,-0.32081167997343785,0.2845617718129959,-0.04221964254975319,-0.9909964799880981,-0.12705643475055695,0.11654746532440186,0.2123316079378128,0.06840184330940247,Automotive,,,,,,,
5422,COMPASS,,,,245.23580932617188,16.14632225036621,-0.13739013671875,98.20674896240234,,,,-0.061920166015625,-1.081695556640625,-0.165008544921875,0.07143769413232803,0.08808404952287674,-0.016934774816036224,-28.10693359375,-110.67678833007812,-311.6219482421875,0.01948407292366028,0.028853654861450195,-0.056140780448913574,1.4365049083646648,-0.32081167997343785,0.2845617718129959,-0.04221964254975319,-0.9909964799880981,-0.12705643475055695,0.11654746532440186,0.2123316079378128,0.06840184330940247,Automotive,,,,,,,
5452,Magnetometer,,,,245.23580932617188,16.14632225036621,-0.13739013671875,98.20674896240234,,,,-0.061920166015625,-1.081695556640625,-0.165008544921875,0.07143769413232803,0.08808404952287674,-0.016934774816036224,-29.82623291015625,-110.38265991210938,-311.15655517578125,0.01948407292366028,0.028853654861450195,-0.056140780448913574,1.4365049083646648,-0.32081167997343785,0.2845617718129959,-0.04221964254975319,-0.9909964799880981,-0.12705643475055695,0.11654746532440186,0.2123316079378128,0.06840184330940247,Automotive,,,,,,,
5484,Gyrometer,,,,245.23580932617188,16.14632225036621,-0.13739013671875,98.20674896240234,,,,-0.061920166015625,-1.081695556640625,-0.165008544921875,0.12124653160572052,0.17272783815860748,0.08344455808401108,-29.82623291015625,-110.38265991210938,-311.15655517578125,0.01948407292366028,0.028853654861450195,-0.056140780448913574,1.4365049083646648,-0.32081167997343785,0.2845617718129959,-0.04221964254975319,-0.9909964799880981,-0.12705643475055695,0.11654746532440186,0.2123316079378128,0.06840184330940247,Automotive,,,,,,,
5514,Accelerometer,,,,245.23580932617188,16.14632225036621,-0.13739013671875,98.20674896240234,,,,-0.0101776123046875,-0.9798736572265625,-0.1610565185546875,0.12124653160572052,0.17272783815860748,0.08344455808401108,-29.82623291015625,-110.38265991210938,-311.15655517578125,0.01948407292366028,0.028853654861450195,-0.056140780448913574,1.4365049083646648,-0.32081167997343785,0.2845617718129959,-0.04221964254975319,-0.9909964799880981,-0.12705643475055695,0.11654746532440186,0.2123316079378128,0.06840184330940247,Automotive,,,,,,,
5687,Device Motion,,,,245.23580932617188,16.14632225036621,-0.13739013671875,98.20674896240234,,,,-0.0101776123046875,-0.9798736572265625,-0.1610565185546875,0.12124653160572052,0.17272783815860748,0.08344455808401108,-29.82623291015625,-110.38265991210938,-311.15655517578125,0.002875741571187973,0.009653687477111816,0.01255856454372406,1.4256275761963393,-0.23804070045537468,0.21924665023866963,-0.03411049023270607,-0.989481508731842,-0.14058004319667816,-0.14336849749088287,-0.0007972428575158119,-0.04558100551366806,Automotive,,,,,,,
5724,Magnetometer,,,,245.23580932617188,16.14632225036621,-0.13739013671875,98.20674896240234,,,,-0.0101776123046875,-0.9798736572265625,-0.1610565185546875,0.12124653160572052,0.17272783815860748,0.08344455808401108,-30.356765747070312,-109.89961242675781,-312.07489013671875,0.002875741571187973,0.009653687477111816,0.01255856454372406,1.4256275761963393,-0.23804070045537468,0.21924665023866963,-0.03411049023270607,-0.989481508731842,-0.14058004319667816,-0.14336849749088287,-0.0007972428575158119,-0.04558100551366806,Automotive,,,,,,,
5753,Gyrometer,,,,245.23580932617188,16.14632225036621,-0.13739013671875,98.20674896240234,,,,-0.0101776123046875,-0.9798736572265625,-0.1610565185546875,-0.10348724573850632,-0.00879002921283245,-0.08225546032190323,-30.356765747070312,-109.89961242675781,-312.07489013671875,0.002875741571187973,0.009653687477111816,0.01255856454372406,1.4256275761963393,-0.23804070045537468,0.21924665023866963,-0.03411049023270607,-0.989481508731842,-0.14058004319667816,-0.14336849749088287,-0.0007972428575158119,-0.04558100551366806,Automotive,,,,,,,
5783,Accelerometer,,,,245.23580932617188,16.14632225036621,-0.13739013671875,98.20674896240234,,,,-0.011993408203125,-0.9885101318359375,-0.1178436279296875,-0.10348724573850632,-0.00879002921283245,-0.08225546032190323,-30.356765747070312,-109.89961242675781,-312.07489013671875,0.002875741571187973,0.009653687477111816,0.01255856454372406,1.4256275761963393,-0.23804070045537468,0.21924665023866963,-0.03411049023270607,-0.989481508731842,-0.14058004319667816,-0.14336849749088287,-0.0007972428575158119,-0.04558100551366806,Automotive,,,,,,,
5886,COMPASS,,,,246.308837890625,16.145761489868164,-0.13739013671875,98.20674896240234,,,,-0.011993408203125,-0.9885101318359375,-0.1178436279296875,-0.10348724573850632,-0.00879002921283245,-0.08225546032190323,-30.356765747070312,-109.89961242675781,-312.07489013671875,0.002875741571187973,0.009653687477111816,0.01255856454372406,1.4256275761963393,-0.23804070045537468,0.21924665023866963,-0.03411049023270607,-0.989481508731842,-0.14058004319667816,-0.14336849749088287,-0.0007972428575158119,-0.04558100551366806,Automotive,,,,,,,
5986,Device Motion,,,,246.308837890625,16.145761489868164,-0.13739013671875,98.20674896240234,,,,-0.011993408203125,-0.9885101318359375,-0.1178436279296875,-0.10348724573850632,-0.00879002921283245,-0.08225546032190323,-30.356765747070312,-109.89961242675781,-312.07489013671875,0.01990830898284912,-0.03422701358795166,0.027716219425201416,1.4376429919260585,-0.1853841206693122,0.13622225216329242,-0.024470699951052666,-0.9911481738090515,-0.13048434257507324,-0.052241045981645584,-0.11449039727449417,0.059425607323646545,Automotive,,,,,,,
6014,Magnetometer,,,,246.308837890625,16.145761489868164,-0.13739013671875,98.20674896240234,,,,-0.011993408203125,-0.9885101318359375,-0.1178436279296875,-0.10348724573850632,-0.00879002921283245,-0.08225546032190323,-29.749237060546875,-109.64344787597656,-310.93817138671875,0.01990830898284912,-0.03422701358795166,0.027716219425201416,1.4376429919260585,-0.1853841206693122,0.13622225216329242,-0.024470699951052666,-0.9911481738090515,-0.13048434257507324,-0.052241045981645584,-0.11449039727449417,0.059425607323646545,Automotive,,,,,,,
6047,Gyrometer,,,,246.308837890625,16.145761489868164,-0.13739013671875,98.20674896240234,,,,-0.011993408203125,-0.9885101318359375,-0.1178436279296875,-0.029870014637708664,-0.06882274150848389,0.06809543073177338,-29.749237060546875,-109.64344787597656,-310.93817138671875,0.01990830898284912,-0.03422701358795166,0.027716219425201416,1.4376429919260585,-0.1853841206693122,0.13622225216329242,-0.024470699951052666,-0.9911481738090515,-0.13048434257507324,-0.052241045981645584,-0.11449039727449417,0.059425607323646545,Automotive,,,,,,,
6078,Altimeter,,,,246.308837890625,16.145761489868164,-0.169097900390625,98.20712280273438,,,,-0.011993408203125,-0.9885101318359375,-0.1178436279296875,-0.029870014637708664,-0.06882274150848389,0.06809543073177338,-29.749237060546875,-109.64344787597656,-310.93817138671875,0.01990830898284912,-0.03422701358795166,0.027716219425201416,1.4376429919260585,-0.1853841206693122,0.13622225216329242,-0.024470699951052666,-0.9911481738090515,-0.13048434257507324,-0.052241045981645584,-0.11449039727449417,0.059425607323646545,Automotive,,,,,,,
