Timestamp (ms),Triggering Sensor,Latitude,Longitude,Altitude,Heading (degrees),Heading accuracy (degrees),Relative Altitude (m),Pressure (kPa),Speed (m/s),Speed Accuracy (m/s),Floor,Acceleration - X axis,Acceleration - Y axis,Acceleration - Z axis,Gyrometer - X axis,Gyrometer - Y axis,Gyrometer - Z axis,Magnetometer - X axis,Magnetometer - Y axis,Magnetometer - Z axis,User acceleration - X axis,User acceleration - Y axis,User acceleration - Z axis,Attitude Pitch,Attitude Roll,Attitude Yaw,Gravity - X axis,Gravity - Y axis,Gravity - Z axis,Rotation Rate - X axis,Rotation Rate - Y axis,Rotation Rate - Z axis,Activity Type,Number of Steps,Distance,Floors Ascended,Floors Descended,Current Pace,Current Cadence,Average Active Pace
8,Activity Manager,,,,,,,,,,,,,,,,,,,,,,,,,,,,,,,,,,,,,,,
36,COMPASS,,,,193.77041625976562,16.852222442626953,,,,,,,,,,,,,,,,,,,,,,,,,,,,,,,,,,
69,Gyrometer,,,,193.77041625976562,16.852222442626953,,,,,,,,,-0.012522716075181961,-0.0049556102603673935,0.004159324802458286,,,,,,,,,,,,,,,,,,,,,,,
100,Accelerometer,,,,193.77041625976562,16.852222442626953,,,,,,-0.000213623046875,-0.9836883544921875,-0.181182861328125,-0.012522716075181961,-0.0049556102603673935,0.004159324802458286,,,,,,,,,,,,,,,,,,,,,,,
131,Magnetometer,,,,193.77041625976562,16.852222442626953,,,,,,-0.000213623046875,-0.9836883544921875,-0.181182861328125,-0.012522716075181961,-0.0049556102603673935,0.004159324802458286,-29.924468994140625,-116.54237365722656,-319.9957275390625,,,,,,,,,,,,,,,,,,,,
160,Device Motion,,,,193.77041625976562,16.852222442626953,,,,,,-0.000213623046875,-0.9836883544921875,-0.181182861328125,-0.012522716075181961,-0.0049556102603673935,0.004159324802458286,-29.924468994140625,-116.54237365722656,-319.9957275390625,0.00677800178527832,-0.0018526911735534668,0.009595394134521484,1.371946964369594,-0.062468888489781944,0.051141826314246304,-0.012332189828157425,-0.9802945256233215,-0.19715644419193268,0.0046981461346149445,0.0016296971589326859,-0.006335901562124491,,,,,,,,
303,Gyrometer,,,,193.77041625976562,16.852222442626953,,,,,,-0.000213623046875,-0.9836883544921875,-0.181182861328125,-0.053643252700567245,-0.03780730068683624,0.023540746420621872,-29.924468994140625,-116.54237365722656,-319.9957275390625,0.00677800178527832,-0.0018526911735534668,0.009595394134521484,1.371946964369594,-0.062468888489781944,0.051141826314246304,-0.012332189828157425,-0.9802945256233215,-0.19715644419193268,0.0046981461346149445,0.0016296971589326859,-0.006335901562124491,,,,,,,,
340,Accelerometer,,,,193.77041625976562,16.852222442626953,,,,,,-0.0193634033203125,-0.976715087890625,-0.18402099609375,-0.053643252700567245,-0.03780730068683624,0.023540746420621872,-29.924468994140625,-116.54237365722656,-319.9957275390625,0.00677800178527832,-0.0018526911735534668,0.009595394134521484,1.371946964369594,-0.062468888489781944,0.051141826314246304,-0.012332189828157425,-0.9802945256233215,-0.19715644419193268,0.0046981461346149445,0.0016296971589326859,-0.006335901562124491,,,,,,,,
371,Magnetometer,,,,193.77041625976562,16.852222442626953,,,,,,-0.0193634033203125,-0.976715087890625,-0.18402099609375,-0.053643252700567245,-0.03780730068683624,0.023540746420621872,-30.00506591796875,-116.74092102050781,-320.44873046875,0.00677800178527832,-0.0018526911735534668,0.009595394134521484,1.371946964369594,-0.062468888489781944,0.051141826314246304,-0.012332189828157425,-0.9802945256233215,-0.19715644419193268,0.0046981461346149445,0.0016296971589326859,-0.006335901562124491,,,,,,,,
410,Device Motion,,,,193.77041625976562,16.852222442626953,,,,,,-0.0193634033203125,-0.976715087890625,-0.18402099609375,-0.053643252700567245,-0.03780730068683624,0.023540746420621872,-30.00506591796875,-116.74092102050781,-320.44873046875,0.008692651987075806,-0.0025777816772460938,0.0075560808181762695,1.3662706383502505,-0.07186066811399809,0.051269090979426016,-0.014582550153136253,-0.9791574478149414,-0.20257869362831116,-0.02802314981818199,-0.06024421751499176,0.01642186939716339,,,,,,,,
603,Gyrometer,,,,193.77041625976562,16.852222442626953,,,,,,-0.0193634033203125,-0.976715087890625,-0.18402099609375,0.03687652572989464,0.01956171728670597,0.0014599448768422008,-30.00506591796875,-116.74092102050781,-320.44873046875,0.008692651987075806,-0.0025777816772460938,0.0075560808181762695,1.3662706383502505,-0.07186066811399809,0.051269090979426016,-0.014582550153136253,-0.9791574478149414,-0.20257869362831116,-0.02802314981818199,-0.06024421751499176,0.01642186939716339,,,,,,,,
640,Magnetometer,,,,193.77041625976562,16.852222442626953,,,,,,-0.0193634033203125,-0.976715087890625,-0.18402099609375,0.03687652572989464,0.01956171728670597,0.0014599448768422008,-30.284194946289062,-116.71290588378906,-320.55035400390625,0.008692651987075806,-0.0025777816772460938,0.0075560808181762695,1.3662706383502505,-0.07186066811399809,0.051269090979426016,-0.014582550153136253,-0.9791574478149414,-0.20257869362831116,-0.02802314981818199,-0.06024421751499176,0.01642186939716339,,,,,,,,
672,Accelerometer,,,,193.77041625976562,16.852222442626953,,,,,,-0.0267486572265625,-0.9836883544921875,-0.20208740234375,0.03687652572989464,0.01956171728670597,0.0014599448768422008,-30.284194946289062,-116.71290588378906,-320.55035400390625,0.008692651987075806,-0.0025777816772460938,0.0075560808181762695,1.3662706383502505,-0.07186066811399809,0.051269090979426016,-0.014582550153136253,-0.9791574478149414,-0.20257869362831116,-0.02802314981818199,-0.06024421751499176,0.01642186939716339,,,,,,,,
709,Device Motion,,,,193.77041625976562,16.852222442626953,,,,,,-0.0267486572265625,-0.9836883544921875,-0.20208740234375,0.03687652572989464,0.01956171728670597,0.0014599448768422008,-30.284194946289062,-116.71290588378906,-320.55035400390625,0.0018087327480316162,0.006088972091674805,0.003558814525604248,1.3642510335114935,-0.07510992461315401,0.05081186009177395,-0.015389065258204937,-0.9787452220916748,-0.20450180768966675,-0.008821293711662292,-0.0066485218703746796,-0.006875068414956331,,,,,,,,
904,Gyrometer,,,,193.77041625976562,16.852222442626953,,,,,,-0.0267486572265625,-0.9836883544921875,-0.20208740234375,0.01955932006239891,0.051776111125946045,0.02141980454325676,-30.284194946289062,-116.71290588378906,-320.55035400390625,0.0018087327480316162,0.006088972091674805,0.003558814525604248,1.3642510335114935,-0.07510992461315401,0.05081186009177395,-0.015389065258204937,-0.9787452220916748,-0.20450180768966675,-0.008821293711662292,-0.0066485218703746796,-0.006875068414956331,,,,,,,,
940,Magnetometer,,,,193.77041625976562,16.852222442626953,,,,,,-0.0267486572265625,-0.9836883544921875,-0.20208740234375,0.01955932006239891,0.051776111125946045,0.02141980454325676,-30.06573486328125,-116.74520874023438,-320.47589111328125,0.0018087327480316162,0.006088972091674805,0.003558814525604248,1.3642510335114935,-0.07510992461315401,0.05081186009177395,-0.015389065258204937,-0.9787452220916748,-0.20450180768966675,-0.008821293711662292,-0.0066485218703746796,-0.006875068414956331,,,,,,,,
973,Accelerometer,,,,193.77041625976562,16.852222442626953,,,,,,-0.0109100341796875,-0.9800262451171875,-0.201263427734375,0.01955932006239891,0.051776111125946045,0.02141980454325676,-30.06573486328125,-116.74520874023438,-320.47589111328125,0.0018087327480316162,0.006088972091674805,0.003558814525604248,1.3642510335114935,-0.07510992461315401,0.05081186009177395,-0.015389065258204937,-0.9787452220916748,-0.20450180768966675,-0.008821293711662292,-0.0066485218703746796,-0.006875068414956331,,,,,,,,
1009,Device Motion,,,,193.77041625976562,16.852222442626953,,,,,,-0.0109100341796875,-0.9800262451171875,-0.201263427734375,0.01955932006239891,0.051776111125946045,0.02141980454325676,-30.06573486328125,-116.74520874023438,-320.47589111328125,0.010429532267153263,0.011163890361785889,0.02190817892551422,1.364518009993084,-0.07243991904706663,0.058688116075871405,-0.014824055135250092,-0.9787999391555786,-0.20428124070167542,-0.006861404981464148,0.05849761515855789,-0.0035521062090992928,,,,,,,,
1038,Altimeter,,,,193.77041625976562,16.852222442626953,0,98.15024566650391,,,,-0.0109100341796875,-0.9800262451171875,-0.201263427734375,0.01955932006239891,0.051776111125946045,0.02141980454325676,-30.06573486328125,-116.74520874023438,-320.47589111328125,0.010429532267153263,0.011163890361785889,0.02190817892551422,1.364518009993084,-0.07243991904706663,0.058688116075871405,-0.014824055135250092,-0.9787999391555786,-0.20428124070167542,-0.006861404981464148,0.05849761515855789,-0.0035521062090992928,,,,,,,,
1204,Gyrometer,,,,193.77041625976562,16.852222442626953,0,98.15024566650391,,,,-0.0109100341796875,-0.9800262451171875,-0.201263427734375,0.03482509031891823,-0.029142705723643303,-0.003346794517710805,-30.06573486328125,-116.74520874023438,-320.47589111328125,0.010429532267153263,0.011163890361785889,0.02190817892551422,1.364518009993084,-0.07243991904706663,0.058688116075871405,-0.014824055135250092,-0.9787999391555786,-0.20428124070167542,-0.006861404981464148,0.05849761515855789,-0.0035521062090992928,,,,,,,,
1241,Magnetometer,,,,193.77041625976562,16.852222442626953,0,98.15024566650391,,,,-0.0109100341796875,-0.9800262451171875,-0.201263427734375,0.03482509031891823,-0.029142705723643303,-0.003346794517710805,-30.526779174804688,-116.77964782714844,-320.3266906738281,0.010429532267153263,0.011163890361785889,0.02190817892551422,1.364518009993084,-0.07243991904706663,0.058688116075871405,-0.014824055135250092,-0.9787999391555786,-0.20428124070167542,-0.006861404981464148,0.05849761515855789,-0.0035521062090992928,,,,,,,,
1273,Accelerometer,,,,193.77041625976562,16.852222442626953,0,98.15024566650391,,,,-0.00396728515625,-0.9886322021484375,-0.18389892578125,0.03482509031891823,-0.029142705723643303,-0.003346794517710805,-30.526779174804688,-116.77964782714844,-320.3266906738281,0.010429532267153263,0.011163890361785889,0.02190817892551422,1.364518009993084,-0.07243991904706663,0.058688116075871405,-0.014824055135250092,-0.9787999391555786,-0.20428124070167542,-0.006861404981464148,0.05849761515855789,-0.0035521062090992928,,,,,,,,
1308,Device Motion,,,,193.77041625976562,16.852222442626953,0,98.15024566650391,,,,-0.00396728515625,-0.9886322021484375,-0.18389892578125,0.03482509031891823,-0.029142705723643303,-0.003346794517710805,-30.526779174804688,-116.77964782714844,-320.3266906738281,0.003874482586979866,0.013432919979095459,0.02010144293308258,1.3641982813625202,-0.09617360690476777,0.07616421792921643,-0.019697830080986023,-0.9787344336509705,-0.20418347418308258,0.08621951192617416,-0.045262034982442856,-0.034533239901065826,,,,,,,,
1468,COMPASS,,,,194.80831909179688,16.85085105895996,0,98.15024566650391,,,,-0.00396728515625,-0.9886322021484375,-0.18389892578125,0.03482509031891823,-0.029142705723643303,-0.003346794517710805,-30.526779174804688,-116.77964782714844,-320.3266906738281,0.003874482586979866,0.013432919979095459,0.02010144293308258,1.3641982813625202,-0.09617360690476777,0.07616421792921643,-0.019697830080986023,-0.9787344336509705,-0.20418347418308258,0.08621951192617416,-0.045262034982442856,-0.034533239901065826,,,,,,,,
1505,Gyrometer,,,,194.80831909179688,16.85085105895996,0,98.15024566650391,,,,-0.00396728515625,-0.9886322021484375,-0.18389892578125,-0.04836167395114899,-0.04063264653086662,-0.08356919884681702,-30.526779174804688,-116.77964782714844,-320.3266906738281,0.003874482586979866,0.013432919979095459,0.02010144293308258,1.3641982813625202,-0.09617360690476777,0.07616421792921643,-0.019697830080986023,-0.9787344336509705,-0.20418347418308258,0.08621951192617416,-0.045262034982442856,-0.034533239901065826,,,,,,,,
1537,Magnetometer,,,,194.80831909179688,16.85085105895996,0,98.15024566650391,,,,-0.00396728515625,-0.9886322021484375,-0.18389892578125,-0.04836167395114899,-0.04063264653086662,-0.08356919884681702,-30.529556274414062,-116.7623291015625,-320.4161071777344,0.003874482586979866,0.013432919979095459,0.02010144293308258,1.3641982813625202,-0.09617360690476777,0.07616421792921643,-0.019697830080986023,-0.9787344336509705,-0.20418347418308258,0.08621951192617416,-0.045262034982442856,-0.034533239901065826,,,,,,,,
1567,Accelerometer,,,,194.80831909179688,16.85085105895996,0,98.15024566650391,,,,-0.0494537353515625,-0.9910736083984375,-0.165496826171875,-0.04836167395114899,-0.04063264653086662,-0.08356919884681702,-30.529556274414062,-116.7623291015625,-320.4161071777344,0.003874482586979866,0.013432919979095459,0.02010144293308258,1.3641982813625202,-0.09617360690476777,0.07616421792921643,-0.019697830080986023,-0.9787344336509705,-0.20418347418308258,0.08621951192617416,-0.045262034982442856,-0.034533239901065826,,,,,,,,
1607,Device Motion,,,,194.80831909179688,16.85085105895996,0,98.15024566650391,,,,-0.0494537353515625,-0.9910736083984375,-0.165496826171875,-0.04836167395114899,-0.04063264653086662,-0.08356919884681702,-30.529556274414062,-116.7623291015625,-320.4161071777344,0.02421662211418152,0.017850816249847412,0.030193880200386047,1.360184758663413,-0.05798967748687689,0.030479905189360664,-0.012116405181586742,-0.9779032468795776,-0.20870646834373474,-0.022143082693219185,0.10776741802692413,0.004407094791531563,,,,,,,,
1805,Gyrometer,,,,194.80831909179688,16.85085105895996,0,98.15024566650391,,,,-0.0494537353515625,-0.9910736083984375,-0.165496826171875,-0.01942482963204384,0.09345165640115738,0.011635350994765759,-30.529556274414062,-116.7623291015625,-320.4161071777344,0.02421662211418152,0.017850816249847412,0.030193880200386047,1.360184758663413,-0.05798967748687689,0.030479905189360664,-0.012116405181586742,-0.9779032468795776,-0.20870646834373474,-0.022143082693219185,0.10776741802692413,0.004407094791531563,,,,,,,,
1841,Magnetometer,,,,194.80831909179688,16.85085105895996,0,98.15024566650391,,,,-0.0494537353515625,-0.9910736083984375,-0.165496826171875,-0.01942482963204384,0.09345165640115738,0.011635350994765759,-30.462188720703125,-116.65289306640625,-321.2803955078125,0.02421662211418152,0.017850816249847412,0.030193880200386047,1.360184758663413,-0.05798967748687689,0.030479905189360664,-0.012116405181586742,-0.9779032468795776,-0.20870646834373474,-0.022143082693219185,0.10776741802692413,0.004407094791531563,,,,,,,,
1873,Accelerometer,,,,194.80831909179688,16.85085105895996,0,98.15024566650391,,,,-0.0287322998046875,-1.016632080078125,-0.156158447265625,-0.01942482963204384,0.09345165640115738,0.011635350994765759,-30.462188720703125,-116.65289306640625,-321.2803955078125,0.02421662211418152,0.017850816249847412,0.030193880200386047,1.360184758663413,-0.05798967748687689,0.030479905189360664,-0.012116405181586742,-0.9779032468795776,-0.20870646834373474,-0.022143082693219185,0.10776741802692413,0.004407094791531563,,,,,,,,
1906,Device Motion,,,,194.80831909179688,16.85085105895996,0,98.15024566650391,,,,-0.0287322998046875,-1.016632080078125,-0.156158447265625,-0.01942482963204384,0.09345165640115738,0.011635350994765759,-30.462188720703125,-116.65289306640625,-321.2803955078125,-0.01648169755935669,-0.03985518217086792,0.06343960762023926,1.3517517459012964,-0.049164218287756536,0.03982251959887621,-0.010678939521312714,-0.9761055111885071,-0.21703454852104187,0.0850088894367218,0.08339184522628784,0.010806847363710403,,,,,,,,
1936,COMPASS,,,,193.70022583007812,16.851119995117188,0,98.15024566650391,,,,-0.0287322998046875,-1.016632080078125,-0.156158447265625,-0.01942482963204384,0.09345165640115738,0.011635350994765759,-30.462188720703125,-116.65289306640625,-321.2803955078125,-0.01648169755935669,-0.03985518217086792,0.06343960762023926,1.3517517459012964,-0.049164218287756536,0.03982251959887621,-0.010678939521312714,-0.9761055111885071,-0.21703454852104187,0.0850088894367218,0.08339184522628784,0.010806847363710403,,,,,,,,
2030,Altimeter,,,,193.70022583007812,16.851119995117188,0.047576904296875,98.14968872070312,,,,-0.0287322998046875,-1.016632080078125,-0.156158447265625,-0.01942482963204384,0.09345165640115738,0.011635350994765759,-30.462188720703125,-116.65289306640625,-321.2803955078125,-0.01648169755935669,-0.03985518217086792,0.06343960762023926,1.3517517459012964,-0.049164218287756536,0.03982251959887621,-0.010678939521312714,-0.9761055111885071,-0.21703454852104187,0.0850088894367218,0.08339184522628784,0.010806847363710403,,,,,,,,
2066,COMPASS,,,,192.6132049560547,16.8514404296875,0.047576904296875,98.14968872070312,,,,-0.0287322998046875,-1.016632080078125,-0.156158447265625,-0.01942482963204384,0.09345165640115738,0.011635350994765759,-30.462188720703125,-116.65289306640625,-321.2803955078125,-0.01648169755935669,-0.03985518217086792,0.06343960762023926,1.3517517459012964,-0.049164218287756536,0.03982251959887621,-0.010678939521312714,-0.9761055111885071,-0.21703454852104187,0.0850088894367218,0.08339184522628784,0.010806847363710403,,,,,,,,
2105,Magnetometer,,,,192.6132049560547,16.8514404296875,0.047576904296875,98.14968872070312,,,,-0.0287322998046875,-1.016632080078125,-0.156158447265625,-0.01942482963204384,0.09345165640115738,0.011635350994765759,-30.416290283203125,-116.1103515625,-318.60589599609375,-0.01648169755935669,-0.03985518217086792,0.06343960762023926,1.3517517459012964,-0.049164218287756536,0.03982251959887621,-0.010678939521312714,-0.9761055111885071,-0.21703454852104187,0.0850088894367218,0.08339184522628784,0.010806847363710403,,,,,,,,
2137,Gyrometer,,,,192.6132049560547,16.8514404296875,0.047576904296875,98.14968872070312,,,,-0.0287322998046875,-1.016632080078125,-0.156158447265625,0.07447396963834763,0.09193258732557297,0.003620833856984973,-30.416290283203125,-116.1103515625,-318.60589599609375,-0.01648169755935669,-0.03985518217086792,0.06343960762023926,1.3517517459012964,-0.049164218287756536,0.03982251959887621,-0.010678939521312714,-0.9761055111885071,-0.21703454852104187,0.0850088894367218,0.08339184522628784,0.010806847363710403,,,,,,,,
2167,Accelerometer,,,,192.6132049560547,16.8514404296875,0.047576904296875,98.14968872070312,,,,-0.014556884765625,-0.9628448486328125,-0.175018310546875,0.07447396963834763,0.09193258732557297,0.003620833856984973,-30.416290283203125,-116.1103515625,-318.60589599609375,-0.01648169755935669,-0.03985518217086792,0.06343960762023926,1.3517517459012964,-0.049164218287756536,0.03982251959887621,-0.010678939521312714,-0.9761055111885071,-0.21703454852104187,0.0850088894367218,0.08339184522628784,0.010806847363710403,,,,,,,,
2205,Device Motion,,,,192.6132049560547,16.8514404296875,0.047576904296875,98.14968872070312,,,,-0.014556884765625,-0.9628448486328125,-0.175018310546875,0.07447396963834763,0.09193258732557297,0.003620833856984973,-30.416290283203125,-116.1103515625,-318.60589599609375,-0.0038583874702453613,0.01907050609588623,-0.010383188724517822,1.3833320228843315,-0.0448934703006177,0.06420591351943089,-0.008363910019397736,-0.982479989528656,-0.18618054687976837,0.011956850066781044,-0.11769423633813858,0.05040765553712845,,,,,,,,
2306,COMPASS,,,,191.60482788085938,16.851877212524414,0.047576904296875,98.14968872070312,,,,-0.014556884765625,-0.9628448486328125,-0.175018310546875,0.07447396963834763,0.09193258732557297,0.003620833856984973,-30.416290283203125,-116.1103515625,-318.60589599609375,-0.0038583874702453613,0.01907050609588623,-0.010383188724517822,1.3833320228843315,-0.0448934703006177,0.06420591351943089,-0.008363910019397736,-0.982479989528656,-0.18618054687976837,0.011956850066781044,-0.11769423633813858,0.05040765553712845,,,,,,,,
2406,Magnetometer,,,,191.60482788085938,16.851877212524414,0.047576904296875,98.14968872070312,,,,-0.014556884765625,-0.9628448486328125,-0.175018310546875,0.07447396963834763,0.09193258732557297,0.003620833856984973,-30.9013671875,-115.26947021484375,-317.1112060546875,-0.0038583874702453613,0.01907050609588623,-0.010383188724517822,1.3833320228843315,-0.0448934703006177,0.06420591351943089,-0.008363910019397736,-0.982479989528656,-0.18618054687976837,0.011956850066781044,-0.11769423633813858,0.05040765553712845,,,,,,,,
2441,Gyrometer,,,,191.60482788085938,16.851877212524414,0.047576904296875,98.14968872070312,,,,-0.014556884765625,-0.9628448486328125,-0.175018310546875,-0.11510341614484787,0.00564164062961936,0.06112460792064667,-30.9013671875,-115.26947021484375,-317.1112060546875,-0.0038583874702453613,0.01907050609588623,-0.010383188724517822,1.3833320228843315,-0.0448934703006177,0.06420591351943089,-0.008363910019397736,-0.982479989528656,-0.18618054687976837,0.011956850066781044,-0.11769423633813858,0.05040765553712845,,,,,,,,
2473,Accelerometer,,,,191.60482788085938,16.851877212524414,0.047576904296875,98.14968872070312,,,,-0.0052337646484375,-0.98883056640625,-0.16815185546875,-0.11510341614484787,0.00564164062961936,0.06112460792064667,-30.9013671875,-115.26947021484375,-317.1112060546875,-0.0038583874702453613,0.01907050609588623,-0.010383188724517822,1.3833320228843315,-0.0448934703006177,0.06420591351943089,-0.008363910019397736,-0.982479989528656,-0.18618054687976837,0.011956850066781044,-0.11769423633813858,0.05040765553712845,,,,,,,,
2504,Device Motion,,,,191.60482788085938,16.851877212524414,0.047576904296875,98.14968872070312,,,,-0.0052337646484375,-0.98883056640625,-0.16815185546875,-0.11510341614484787,0.00564164062961936,0.06112460792064667,-30.9013671875,-115.26947021484375,-317.1112060546875,0.01186487078666687,0.008757948875427246,0.005721569061279297,1.386232489389764,-0.11688456303353742,0.15325404653821875,-0.021401606500148773,-0.9830163717269897,-0.1822657734155655,-0.05925658717751503,0.031765252351760864,0.03751586750149727,,,,,,,,
2534,COMPASS,,,,190.5590362548828,16.852256774902344,0.047576904296875,98.14968872070312,,,,-0.0052337646484375,-0.98883056640625,-0.16815185546875,-0.11510341614484787,0.00564164062961936,0.06112460792064667,-30.9013671875,-115.26947021484375,-317.1112060546875,0.01186487078666687,0.008757948875427246,0.005721569061279297,1.386232489389764,-0.11688456303353742,0.15325404653821875,-0.021401606500148773,-0.9830163717269897,-0.1822657734155655,-0.05925658717751503,0.031765252351760864,0.03751586750149727,,,,,,,,
2704,Magnetometer,,,,190.5590362548828,16.852256774902344,0.047576904296875,98.14968872070312,,,,-0.0052337646484375,-0.98883056640625,-0.16815185546875,-0.11510341614484787,0.00564164062961936,0.06112460792064667,-31.141876220703125,-114.88578796386719,-318.15667724609375,0.01186487078666687,0.008757948875427246,0.005721569061279297,1.386232489389764,-0.11688456303353742,0.15325404653821875,-0.021401606500148773,-0.9830163717269897,-0.1822657734155655,-0.05925658717751503,0.031765252351760864,0.03751586750149727,,,,,,,,
2739,Gyrometer,,,,190.5590362548828,16.852256774902344,0.047576904296875,98.14968872070312,,,,-0.0052337646484375,-0.98883056640625,-0.16815185546875,-0.06958946585655212,0.016590693965554237,-0.017446368932724,-31.141876220703125,-114.88578796386719,-318.15667724609375,0.01186487078666687,0.008757948875427246,0.005721569061279297,1.386232489389764,-0.11688456303353742,0.15325404653821875,-0.021401606500148773,-0.9830163717269897,-0.1822657734155655,-0.05925658717751503,0.031765252351760864,0.03751586750149727,,,,,,,,
2770,Accelerometer,,,,190.5590362548828,16.852256774902344,0.047576904296875,98.14968872070312,,,,0.0059051513671875,-0.9505615234375,-0.1397247314453125,-0.06958946585655212,0.016590693965554237,-0.017446368932724,-31.141876220703125,-114.88578796386719,-318.15667724609375,0.01186487078666687,0.008757948875427246,0.005721569061279297,1.386232489389764,-0.11688456303353742,0.15325404653821875,-0.021401606500148773,-0.9830163717269897,-0.1822657734155655,-0.05925658717751503,0.031765252351760864,0.03751586750149727,,,,,,,,
2803,Device Motion,,,,190.5590362548828,16.852256774902344,0.047576904296875,98.14968872070312,,,,0.0059051513671875,-0.9505615234375,-0.1397247314453125,-0.06958946585655212,0.016590693965554237,-0.017446368932724,-31.141876220703125,-114.88578796386719,-318.15667724609375,0.0004234910011291504,-0.0311318039894104,0.049915313720703125,1.3652727600598187,-0.09658325972094858,0.1323584126252796,-0.019680080935359,-0.9789542555809021,-0.2031288743019104,-0.0010484736412763596,-0.09630658477544785,-0.023420052602887154,,,,,,,,
3003,Magnetometer,,,,190.5590362548828,16.852256774902344,0.047576904296875,98.14968872070312,,,,0.0059051513671875,-0.9505615234375,-0.1397247314453125,-0.06958946585655212,0.016590693965554237,-0.017446368932724,-30.4976806640625,-114.04609680175781,-317.70458984375,0.0004234910011291504,-0.0311318039894104,0.049915313720703125,1.3652727600598187,-0.09658325972094858,0.1323584126252796,-0.019680080935359,-0.9789542555809021,-0.2031288743019104,-0.0010484736412763596,-0.09630658477544785,-0.023420052602887154,,,,,,,,
3038,COMPASS,,,,191.68853759765625,16.853086471557617,0.047576904296875,98.14968872070312,,,,0.0059051513671875,-0.9505615234375,-0.1397247314453125,-0.06958946585655212,0.016590693965554237,-0.017446368932724,-30.4976806640625,-114.04609680175781,-317.70458984375,0.0004234910011291504,-0.0311318039894104,0.049915313720703125,1.3652727600598187,-0.09658325972094858,0.1323584126252796,-0.019680080935359,-0.9789542555809021,-0.2031288743019104,-0.0010484736412763596,-0.09630658477544785,-0.023420052602887154,,,,,,,,
3071,Gyrometer,,,,191.68853759765625,16.853086471557617,0.047576904296875,98.14968872070312,,,,0.0059051513671875,-0.9505615234375,-0.1397247314453125,-0.04315679147839546,0.003064499469473958,-0.17475077509880066,-30.4976806640625,-114.04609680175781,-317.70458984375,0.0004234910011291504,-0.0311318039894104,0.049915313720703125,1.3652727600598187,-0.09658325972094858,0.1323584126252796,-0.019680080935359,-0.9789542555809021,-0.2031288743019104,-0.0010484736412763596,-0.09630658477544785,-0.023420052602887154,,,,,,,,
3101,Altimeter,,,,191.68853759765625,16.853086471557617,0.095123291015625,98.14913940429688,,,,0.0059051513671875,-0.9505615234375,-0.1397247314453125,-0.04315679147839546,0.003064499469473958,-0.17475077509880066,-30.4976806640625,-114.04609680175781,-317.70458984375,0.0004234910011291504,-0.0311318039894104,0.049915313720703125,1.3652727600598187,-0.09658325972094858,0.1323584126252796,-0.019680080935359,-0.9789542555809021,-0.2031288743019104,-0.0010484736412763596,-0.09630658477544785,-0.023420052602887154,,,,,,,,
3130,Accelerometer,,,,191.68853759765625,16.853086471557617,0.095123291015625,98.14913940429688,,,,0.001129150390625,-1.0003509521484375,-0.2733612060546875,-0.04315679147839546,0.003064499469473958,-0.17475077509880066,-30.4976806640625,-114.04609680175781,-317.70458984375,0.0004234910011291504,-0.0311318039894104,0.049915313720703125,1.3652727600598187,-0.09658325972094858,0.1323584126252796,-0.019680080935359,-0.9789542555809021,-0.2031288743019104,-0.0010484736412763596,-0.09630658477544785,-0.023420052602887154,,,,,,,,
3160,Device Motion,,,,191.68853759765625,16.853086471557617,0.095123291015625,98.14913940429688,,,,0.001129150390625,-1.0003509521484375,-0.2733612060546875,-0.04315679147839546,0.003064499469473958,-0.17475077509880066,-30.4976806640625,-114.04609680175781,-317.70458984375,0.018763216212391853,0.04761302471160889,0.01934477686882019,1.3788453304545119,-0.09618185694810966,0.11116938737024364,-0.01832071878015995,-0.9816339015960693,-0.1898922473192215,0.23912803828716278,-0.06299484521150589,-0.008570748381316662,,,,,,,,
3190,COMPASS,,,,192.7403564453125,16.853635787963867,0.095123291015625,98.14913940429688,,,,0.001129150390625,-1.0003509521484375,-0.2733612060546875,-0.04315679147839546,0.003064499469473958,-0.17475077509880066,-30.4976806640625,-114.04609680175781,-317.70458984375,0.018763216212391853,0.04761302471160889,0.01934477686882019,1.3788453304545119,-0.09618185694810966,0.11116938737024364,-0.01832071878015995,-0.9816339015960693,-0.1898922473192215,0.23912803828716278,-0.06299484521150589,-0.008570748381316662,,,,,,,,
3303,Magnetometer,,,,192.7403564453125,16.853635787963867,0.095123291015625,98.14913940429688,,,,0.001129150390625,-1.0003509521484375,-0.2733612060546875,-0.04315679147839546,0.003064499469473958,-0.17475077509880066,-29.86553955078125,-114.04849243164062,-316.506591796875,0.018763216212391853,0.04761302471160889,0.01934477686882019,1.3788453304545119,-0.09618185694810966,0.11116938737024364,-0.01832071878015995,-0.9816339015960693,-0.1898922473192215,0.23912803828716278,-0.06299484521150589,-0.008570748381316662,,,,,,,,
3339,COMPASS,,,,193.7696990966797,16.85395050048828,0.095123291015625,98.14913940429688,,,,0.001129150390625,-1.0003509521484375,-0.2733612060546875,-0.04315679147839546,0.003064499469473958,-0.17475077509880066,-29.86553955078125,-114.04849243164062,-316.506591796875,0.018763216212391853,0.04761302471160889,0.01934477686882019,1.3788453304545119,-0.09618185694810966,0.11116938737024364,-0.01832071878015995,-0.9816339015960693,-0.1898922473192215,0.23912803828716278,-0.06299484521150589,-0.008570748381316662,,,,,,,,
3366,Gyrometer,,,,193.7696990966797,16.85395050048828,0.095123291015625,98.14913940429688,,,,0.001129150390625,-1.0003509521484375,-0.2733612060546875,-0.024935442954301834,-0.12823520600795746,0.030791468918323517,-29.86553955078125,-114.04849243164062,-316.506591796875,0.018763216212391853,0.04761302471160889,0.01934477686882019,1.3788453304545119,-0.09618185694810966,0.11116938737024364,-0.01832071878015995,-0.9816339015960693,-0.1898922473192215,0.23912803828716278,-0.06299484521150589,-0.008570748381316662,,,,,,,,
3395,Accelerometer,,,,193.7696990966797,16.85395050048828,0.095123291015625,98.14913940429688,,,,-0.048797607421875,-0.951568603515625,-0.178131103515625,-0.024935442954301834,-0.12823520600795746,0.030791468918323517,-29.86553955078125,-114.04849243164062,-316.506591796875,0.018763216212391853,0.04761302471160889,0.01934477686882019,1.3788453304545119,-0.09618185694810966,0.11116938737024364,-0.01832071878015995,-0.9816339015960693,-0.1898922473192215,0.23912803828716278,-0.06299484521150589,-0.008570748381316662,,,,,,,,
3427,Device Motion,,,,193.7696990966797,16.85395050048828,0.095123291015625,98.14913940429688,,,,-0.048797607421875,-0.951568603515625,-0.178131103515625,-0.024935442954301834,-0.12823520600795746,0.030791468918323517,-29.86553955078125,-114.04849243164062,-316.506591796875,-0.009002001956105232,0.009856760501861572,0.025161728262901306,1.3967577923003078,-0.09328053782239917,0.07163063103105717,-0.016129223629832268,-0.9848935008049011,-0.17240911722183228,-0.027002669870853424,0.02057134360074997,-0.06101202592253685,,,,,,,,
3603,Magnetometer,,,,193.7696990966797,16.85395050048828,0.095123291015625,98.14913940429688,,,,-0.048797607421875,-0.951568603515625,-0.178131103515625,-0.024935442954301834,-0.12823520600795746,0.030791468918323517,-28.329833984375,-113.74284362792969,-316.4844970703125,-0.009002001956105232,0.009856760501861572,0.025161728262901306,1.3967577923003078,-0.09328053782239917,0.07163063103105717,-0.016129223629832268,-0.9848935008049011,-0.17240911722183228,-0.027002669870853424,0.02057134360074997,-0.06101202592253685,,,,,,,,
3641,Gyrometer,,,,193.7696990966797,16.85395050048828,0.095123291015625,98.14913940429688,,,,-0.048797607421875,-0.951568603515625,-0.178131103515625,0.006777478381991386,0.0882640853524208,-0.03717586398124695,-28.329833984375,-113.74284362792969,-316.4844970703125,-0.009002001956105232,0.009856760501861572,0.025161728262901306,1.3967577923003078,-0.09328053782239917,0.07163063103105717,-0.016129223629832268,-0.9848935008049011,-0.17240911722183228,-0.027002669870853424,0.02057134360074997,-0.06101202592253685,,,,,,,,
3673,Accelerometer,,,,193.7696990966797,16.85395050048828,0.095123291015625,98.14913940429688,,,,-0.006195068359375,-0.9871368408203125,-0.121063232421875,0.006777478381991386,0.0882640853524208,-0.03717586398124695,-28.329833984375,-113.74284362792969,-316.4844970703125,-0.009002001956105232,0.009856760501861572,0.025161728262901306,1.3967577923003078,-0.09328053782239917,0.07163063103105717,-0.016129223629832268,-0.9848935008049011,-0.17240911722183228,-0.027002669870853424,0.02057134360074997,-0.06101202592253685,,,,,,,,
3704,Device Motion,,,,193.7696990966797,16.85395050048828,0.095123291015625,98.14913940429688,,,,-0.006195068359375,-0.9871368408203125,-0.121063232421875,0.006777478381991386,0.0882640853524208,-0.03717586398124695,-28.329833984375,-113.74284362792969,-316.4844970703125,-0.004903078079223633,-0.03217869997024536,0.03715349733829498,1.3904515752705584,-0.019369084802597882,0.01817729043274918,-0.0034739866387099028,-0.9837819337844849,-0.1793348640203476,0.10248133540153503,0.176869735121727,0.037390150129795074,,,,,,,,
3782,COMPASS,,,,192.712890625,16.85462188720703,0.095123291015625,98.14913940429688,,,,-0.006195068359375,-0.9871368408203125,-0.121063232421875,0.006777478381991386,0.0882640853524208,-0.03717586398124695,-28.329833984375,-113.74284362792969,-316.4844970703125,-0.004903078079223633,-0.03217869997024536,0.03715349733829498,1.3904515752705584,-0.019369084802597882,0.01817729043274918,-0.0034739866387099028,-0.9837819337844849,-0.1793348640203476,0.10248133540153503,0.176869735121727,0.037390150129795074,,,,,,,,
3861,COMPASS,,,,191.3760986328125,16.854902267456055,0.095123291015625,98.14913940429688,,,,-0.006195068359375,-0.9871368408203125,-0.121063232421875,0.006777478381991386,0.0882640853524208,-0.03717586398124695,-28.329833984375,-113.74284362792969,-316.4844970703125,-0.004903078079223633,-0.03217869997024536,0.03715349733829498,1.3904515752705584,-0.019369084802597882,0.01817729043274918,-0.0034739866387099028,-0.9837819337844849,-0.1793348640203476,0.10248133540153503,0.176869735121727,0.037390150129795074,,,,,,,,
3902,Magnetometer,,,,191.3760986328125,16.854902267456055,0.095123291015625,98.14913940429688,,,,-0.006195068359375,-0.9871368408203125,-0.121063232421875,0.006777478381991386,0.0882640853524208,-0.03717586398124695,-27.992950439453125,-112.68849182128906,-314.75274658203125,-0.004903078079223633,-0.03217869997024536,0.03715349733829498,1.3904515752705584,-0.019369084802597882,0.01817729043274918,-0.0034739866387099028,-0.9837819337844849,-0.1793348640203476,0.10248133540153503,0.176869735121727,0.037390150129795074,,,,,,,,
3935,Gyrometer,,,,191.3760986328125,16.854902267456055,0.095123291015625,98.14913940429688,,,,-0.006195068359375,-0.9871368408203125,-0.121063232421875,0.18446971476078033,0.17657823860645294,0.04562048241496086,-27.992950439453125,-112.68849182128906,-314.75274658203125,-0.004903078079223633,-0.03217869997024536,0.03715349733829498,1.3904515752705584,-0.019369084802597882,0.01817729043274918,-0.0034739866387099028,-0.9837819337844849,-0.1793348640203476,0.10248133540153503,0.176869735121727,0.037390150129795074,,,,,,,,
3965,COMPASS,,,,190.33627319335938,16.85518455505371,0.095123291015625,98.14913940429688,,,,-0.006195068359375,-0.9871368408203125,-0.121063232421875,0.18446971476078033,0.17657823860645294,0.04562048241496086,-27.992950439453125,-112.68849182128906,-314.75274658203125,-0.004903078079223633,-0.03217869997024536,0.03715349733829498,1.3904515752705584,-0.019369084802597882,0.01817729043274918,-0.0034739866387099028,-0.9837819337844849,-0.1793348640203476,0.10248133540153503,0.176869735121727,0.037390150129795074,,,,,,,,
3993,Accelerometer,,,,190.33627319335938,16.85518455505371,0.095123291015625,98.14913940429688,,,,-0.0149993896484375,-0.927703857421875,-0.14959716796875,0.18446971476078033,0.17657823860645294,0.04562048241496086,-27.992950439453125,-112.68849182128906,-314.75274658203125,-0.004903078079223633,-0.03217869997024536,0.03715349733829498,1.3904515752705584,-0.019369084802597882,0.01817729043274918,-0.0034739866387099028,-0.9837819337844849,-0.1793348640203476,0.10248133540153503,0.176869735121727,0.037390150129795074,,,,,,,,
4023,COMPASS,,,,189.2281036376953,16.855470657348633,0.095123291015625,98.14913940429688,,,,-0.0149993896484375,-0.927703857421875,-0.14959716796875,0.18446971476078033,0.17657823860645294,0.04562048241496086,-27.992950439453125,-112.68849182128906,-314.75274658203125,-0.004903078079223633,-0.03217869997024536,0.03715349733829498,1.3904515752705584,-0.019369084802597882,0.01817729043274918,-0.0034739866387099028,-0.9837819337844849,-0.1793348640203476,0.10248133540153503,0.176869735121727,0.037390150129795074,,,,,,,,
4054,Device Motion,,,,189.2281036376953,16.855470657348633,0.095123291015625,98.14913940429688,,,,-0.0149993896484375,-0.927703857421875,-0.14959716796875,0.18446971476078033,0.17657823860645294,0.04562048241496086,-27.992950439453125,-112.68849182128906,-314.75274658203125,0.00949716567993164,0.057258009910583496,-0.04092395305633545,1.4402631947358437,-0.11294392288513318,0.17487968921112945,-0.01466988306492567,-0.9914926290512085,-0.12933367490768433,0.20579877495765686,0.11061439663171768,0.14125148952007294,,,,,,,,
4085,Altimeter,,,,189.2281036376953,16.855470657348633,0.147979736328125,98.14851379394531,,,,-0.0149993896484375,-0.927703857421875,-0.14959716796875,0.18446971476078033,0.17657823860645294,0.04562048241496086,-27.992950439453125,-112.68849182128906,-314.75274658203125,0.00949716567993164,0.057258009910583496,-0.04092395305633545,1.4402631947358437,-0.11294392288513318,0.17487968921112945,-0.01466988306492567,-0.9914926290512085,-0.12933367490768433,0.20579877495765686,0.11061439663171768,0.14125148952007294,,,,,,,,
4117,COMPASS,,,,188.1214141845703,16.855758666992188,0.147979736328125,98.14851379394531,,,,-0.0149993896484375,-0.927703857421875,-0.14959716796875,0.18446971476078033,0.17657823860645294,0.04562048241496086,-27.992950439453125,-112.68849182128906,-314.75274658203125,0.00949716567993164,0.057258009910583496,-0.04092395305633545,1.4402631947358437,-0.11294392288513318,0.17487968921112945,-0.01466988306492567,-0.9914926290512085,-0.12933367490768433,0.20579877495765686,0.11061439663171768,0.14125148952007294,,,,,,,,
4201,Magnetometer,,,,188.1214141845703,16.855758666992188,0.147979736328125,98.14851379394531,,,,-0.0149993896484375,-0.927703857421875,-0.14959716796875,0.18446971476078033,0.17657823860645294,0.04562048241496086,-28.273208618164062,-112.21755981445312,-314.456298828125,0.00949716567993164,0.057258009910583496,-0.04092395305633545,1.4402631947358437,-0.11294392288513318,0.17487968921112945,-0.01466988306492567,-0.9914926290512085,-0.12933367490768433,0.20579877495765686,0.11061439663171768,0.14125148952007294,,,,,,,,
4234,Gyrometer,,,,188.1214141845703,16.855758666992188,0.147979736328125,98.14851379394531,,,,-0.0149993896484375,-0.927703857421875,-0.14959716796875,-0.17740674316883087,0.04551049321889877,-0.027332555502653122,-28.273208618164062,-112.21755981445312,-314.456298828125,0.00949716567993164,0.057258009910583496,-0.04092395305633545,1.4402631947358437,-0.11294392288513318,0.17487968921112945,-0.01466988306492567,-0.9914926290512085,-0.12933367490768433,0.20579877495765686,0.11061439663171768,0.14125148952007294,,,,,,,,
4266,Accelerometer,,,,188.1214141845703,16.855758666992188,0.147979736328125,98.14851379394531,,,,-0.02069091796875,-0.9737548828125,-0.1609954833984375,-0.17740674316883087,0.04551049321889877,-0.027332555502653122,-28.273208618164062,-112.21755981445312,-314.456298828125,0.00949716567993164,0.057258009910583496,-0.04092395305633545,1.4402631947358437,-0.11294392288513318,0.17487968921112945,-0.01466988306492567,-0.9914926290512085,-0.12933367490768433,0.20579877495765686,0.11061439663171768,0.14125148952007294,,,,,,,,
4299,Device Motion,,,,188.1214141845703,16.855758666992188,0.147979736328125,98.14851379394531,,,,-0.02069091796875,-0.9737548828125,-0.1609954833984375,-0.17740674316883087,0.04551049321889877,-0.027332555502653122,-28.273208618164062,-112.21755981445312,-314.456298828125,0.019831806421279907,0.008530974388122559,0.025816917419433594,1.4097612621043294,-0.14157330192070916,0.2255947965269883,-0.022624170407652855,-0.9870618581771851,-0.15873625874519348,-0.11044645309448242,0.009268660098314285,-0.03274102136492729,,,,,,,,
4501,Magnetometer,,,,188.1214141845703,16.855758666992188,0.147979736328125,98.14851379394531,,,,-0.02069091796875,-0.9737548828125,-0.1609954833984375,-0.17740674316883087,0.04551049321889877,-0.027332555502653122,-29.028900146484375,-112.23239135742188,-314.87249755859375,0.019831806421279907,0.008530974388122559,0.025816917419433594,1.4097612621043294,-0.14157330192070916,0.2255947965269883,-0.022624170407652855,-0.9870618581771851,-0.15873625874519348,-0.11044645309448242,0.009268660098314285,-0.03274102136492729,,,,,,,,
4536,Gyrometer,,,,188.1214141845703,16.855758666992188,0.147979736328125,98.14851379394531,,,,-0.02069091796875,-0.9737548828125,-0.1609954833984375,-0.025549301877617836,-0.01565699093043804,0.02136094868183136,-29.028900146484375,-112.23239135742188,-314.87249755859375,0.019831806421279907,0.008530974388122559,0.025816917419433594,1.4097612621043294,-0.14157330192070916,0.2255947965269883,-0.022624170407652855,-0.9870618581771851,-0.15873625874519348,-0.11044645309448242,0.009268660098314285,-0.03274102136492729,,,,,,,,
4567,Accelerometer,,,,188.1214141845703,16.855758666992188,0.147979736328125,98.14851379394531,,,,-0.0097808837890625,-1.0344696044921875,-0.1371307373046875,-0.025549301877617836,-0.01565699093043804,0.02136094868183136,-29.028900146484375,-112.23239135742188,-314.87249755859375,0.019831806421279907,0.008530974388122559,0.025816917419433594,1.4097612621043294,-0.14157330192070916,0.2255947965269883,-0.022624170407652855,-0.9870618581771851,-0.15873625874519348,-0.11044645309448242,0.009268660098314285,-0.03274102136492729,,,,,,,,
4598,Device Motion,,,,188.1214141845703,16.855758666992188,0.147979736328125,98.14851379394531,,,,-0.0097808837890625,-1.0344696044921875,-0.1371307373046875,-0.025549301877617836,-0.01565699093043804,0.02136094868183136,-29.028900146484375,-112.23239135742188,-314.87249755859375,0.021393567323684692,-0.043997764587402344,0.029543161392211914,1.4065083816291477,-0.15607072610320308,0.22496620273317042,-0.025421878322958946,-0.9865350723266602,-0.1615622192621231,0.061845749616622925,-0.04226681590080261,0.038477104157209396,,,,,,,,
4801,Magnetometer,,,,188.1214141845703,16.855758666992188,0.147979736328125,98.14851379394531,,,,-0.0097808837890625,-1.0344696044921875,-0.1371307373046875,-0.025549301877617836,-0.01565699093043804,0.02136094868183136,-29.677230834960938,-111.95906066894531,-314.65179443359375,0.021393567323684692,-0.043997764587402344,0.029543161392211914,1.4065083816291477,-0.15607072610320308,0.22496620273317042,-0.025421878322958946,-0.9865350723266602,-0.1615622192621231,0.061845749616622925,-0.04226681590080261,0.038477104157209396,,,,,,,,
4842,Gyrometer,,,,188.1214141845703,16.855758666992188,0.147979736328125,98.14851379394531,,,,-0.0097808837890625,-1.0344696044921875,-0.1371307373046875,0.14192411303520203,-0.01272538211196661,0.004477838985621929,-29.677230834960938,-111.95906066894531,-314.65179443359375,0.021393567323684692,-0.043997764587402344,0.029543161392211914,1.4065083816291477,-0.15607072610320308,0.22496620273317042,-0.025421878322958946,-0.9865350723266602,-0.1615622192621231,0.061845749616622925,-0.04226681590080261,0.038477104157209396,,,,,,,,
4873,Accelerometer,,,,188.1214141845703,16.855758666992188,0.147979736328125,98.14851379394531,,,,-0.029754638671875,-0.9324188232421875,-0.1910858154296875,0.14192411303520203,-0.01272538211196661,0.004477838985621929,-29.677230834960938,-111.95906066894531,-314.65179443359375,0.021393567323684692,-0.043997764587402344,0.029543161392211914,1.4065083816291477,-0.15607072610320308,0.22496620273317042,-0.025421878322958946,-0.9865350723266602,-0.1615622192621231,0.061845749616622925,-0.04226681590080261,0.038477104157209396,,,,,,,,
4903,COMPASS,,,,189.3121795654297,16.8566951751709,0.147979736328125,98.14851379394531,,,,-0.029754638671875,-0.9324188232421875,-0.1910858154296875,0.14192411303520203,-0.01272538211196661,0.004477838985621929,-29.677230834960938,-111.95906066894531,-314.65179443359375,0.021393567323684692,-0.043997764587402344,0.029543161392211914,1.4065083816291477,-0.15607072610320308,0.22496620273317042,-0.025421878322958946,-0.9865350723266602,-0.1615622192621231,0.061845749616622925,-0.04226681590080261,0.038477104157209396,,,,,,,,
4934,Device Motion,,,,189.3121795654297,16.8566951751709,0.147979736328125,98.14851379394531,,,,-0.029754638671875,-0.9324188232421875,-0.1910858154296875,0.14192411303520203,-0.01272538211196661,0.004477838985621929,-29.677230834960938,-111.95906066894531,-314.65179443359375,-0.011180579662322998,0.02777087688446045,-0.07680666446685791,1.4274676954307217,-0.20692699216452914,0.25828651441621614,-0.0293467678129673,-0.9897460341453552,-0.1397918313741684,0.12915343046188354,-0.24194030463695526,-0.1744786947965622,,,,,,,,
4963,COMPASS,,,,190.57481384277344,16.856828689575195,0.147979736328125,98.14851379394531,,,,-0.029754638671875,-0.9324188232421875,-0.1910858154296875,0.14192411303520203,-0.01272538211196661,0.004477838985621929,-29.677230834960938,-111.95906066894531,-314.65179443359375,-0.011180579662322998,0.02777087688446045,-0.07680666446685791,1.4274676954307217,-0.20692699216452914,0.25828651441621614,-0.0293467678129673,-0.9897460341453552,-0.1397918313741684,0.12915343046188354,-0.24194030463695526,-0.1744786947965622,,,,,,,,
5031,Altimeter,,,,190.57481384277344,16.856828689575195,0.15325927734375,98.14844512939453,,,,-0.029754638671875,-0.9324188232421875,-0.1910858154296875,0.14192411303520203,-0.01272538211196661,0.004477838985621929,-29.677230834960938,-111.95906066894531,-314.65179443359375,-0.011180579662322998,0.02777087688446045,-0.07680666446685791,1.4274676954307217,-0.20692699216452914,0.25828651441621614,-0.0293467678129673,-0.9897460341453552,-0.1397918313741684,0.12915343046188354,-0.24194030463695526,-0.1744786947965622,,,,,,,,
5100,Magnetometer,,,,190.57481384277344,16.856828689575195,0.15325927734375,98.14844512939453,,,,-0.029754638671875,-0.9324188232421875,-0.1910858154296875,0.14192411303520203,-0.01272538211196661,0.004477838985621929,-28.55072021484375,-111.52804565429688,-314.84466552734375,-0.011180579662322998,0.02777087688446045,-0.07680666446685791,1.4274676954307217,-0.20692699216452914,0.25828651441621614,-0.0293467678129673,-0.9897460341453552,-0.1397918313741684,0.12915343046188354,-0.24194030463695526,-0.1744786947965622,,,,,,,,
5136,Gyrometer,,,,190.57481384277344,16.856828689575195,0.15325927734375,98.14844512939453,,,,-0.029754638671875,-0.9324188232421875,-0.1910858154296875,-0.038248851895332336,-0.013338708318769932,-0.013154949992895126,-28.55072021484375,-111.52804565429688,-314.84466552734375,-0.011180579662322998,0.02777087688446045,-0.07680666446685791,1.4274676954307217,-0.20692699216452914,0.25828651441621614,-0.0293467678129673,-0.9897460341453552,-0.1397918313741684,0.12915343046188354,-0.24194030463695526,-0.1744786947965622,,,,,,,,
5166,Accelerometer,,,,190.57481384277344,16.856828689575195,0.15325927734375,98.14844512939453,,,,-0.0400390625,-0.975616455078125,-0.1313018798828125,-0.038248851895332336,-0.013338708318769932,-0.013154949992895126,-28.55072021484375,-111.52804565429688,-314.84466552734375,-0.011180579662322998,0.02777087688446045,-0.07680666446685791,1.4274676954307217,-0.20692699216452914,0.25828651441621614,-0.0293467678129673,-0.9897460341453552,-0.1397918313741684,0.12915343046188354,-0.24194030463695526,-0.1744786947965622,,,,,,,,
5197,Device Motion,,,,190.57481384277344,16.856828689575195,0.15325927734375,98.14844512939453,,,,-0.0400390625,-0.975616455078125,-0.1313018798828125,-0.038248851895332336,-0.013338708318769932,-0.013154949992895126,-28.55072021484375,-111.52804565429688,-314.84466552734375,-0.030689239501953125,0.00956815481185913,0.019814729690551758,1.420180821138181,-0.10378620456402224,0.1383788719949731,-0.015544887632131577,-0.9886789321899414,-0.14923980832099915,-0.03403756022453308,0.0508684441447258,-0.031259022653102875,,,,,,,,
5399,Magnetometer,,,,190.57481384277344,16.856828689575195,0.15325927734375,98.14844512939453,,,,-0.0400390625,-0.975616455078125,-0.1313018798828125,-0.038248851895332336,-0.013338708318769932,-0.013154949992895126,-27.851394653320312,-110.97332763671875,-313.9381408691406,-0.030689239501953125,0.00956815481185913,0.019814729690551758,1.420180821138181,-0.10378620456402224,0.1383788719949731,-0.015544887632131577,-0.9886789321899414,-0.14923980832099915,-0.03403756022453308,0.0508684441447258,-0.031259022653102875,,,,,,,,
5435,Gyrometer,,,,190.57481384277344,16.856828689575195,0.15325927734375,98.14844512939453,,,,-0.0400390625,-0.975616455078125,-0.1313018798828125,0.057797785848379135,0.20444661378860474,0.05664224177598953,-27.851394653320312,-110.97332763671875,-313.9381408691406,-0.030689239501953125,0.00956815481185913,0.019814729690551758,1.420180821138181,-0.10378620456402224,0.1383788719949731,-0.015544887632131577,-0.9886789321899414,-0.14923980832099915,-0.03403756022453308,0.0508684441447258,-0.031259022653102875,,,,,,,,
5467,COMPASS,,,,189.3264923095703,16.857173919677734,0.15325927734375,98.14844512939453,,,,-0.0400390625,-0.975616455078125,-0.1313018798828125,0.057797785848379135,0.20444661378860474,0.05664224177598953,-27.851394653320312,-110.97332763671875,-313.9381408691406,-0.030689239501953125,0.00956815481185913,0.019814729690551758,1.420180821138181,-0.10378620456402224,0.1383788719949731,-0.015544887632131577,-0.9886789321899414,-0.14923980832099915,-0.03403756022453308,0.0508684441447258,-0.031259022653102875,,,,,,,,
5498,COMPASS,,,,188.28150939941406,16.857290267944336,0.15325927734375,98.14844512939453,,,,-0.0400390625,-0.975616455078125,-0.1313018798828125,0.057797785848379135,0.20444661378860474,0.05664224177598953,-27.851394653320312,-110.97332763671875,-313.9381408691406,-0.030689239501953125,0.00956815481185913,0.019814729690551758,1.420180821138181,-0.10378620456402224,0.1383788719949731,-0.015544887632131577,-0.9886789321899414,-0.14923980832099915,-0.03403756022453308,0.0508684441447258,-0.031259022653102875,,,,,,,,
5526,Accelerometer,,,,188.28150939941406,16.857290267944336,0.15325927734375,98.14844512939453,,,,-0.0377349853515625,-1.0486907958984375,-0.080535888671875,0.057797785848379135,0.20444661378860474,0.05664224177598953,-27.851394653320312,-110.97332763671875,-313.9381408691406,-0.030689239501953125,0.00956815481185913,0.019814729690551758,1.420180821138181,-0.10378620456402224,0.1383788719949731,-0.015544887632131577,-0.9886789321899414,-0.14923980832099915,-0.03403756022453308,0.0508684441447258,-0.031259022653102875,,,,,,,,
5555,Device Motion,,,,188.28150939941406,16.857290267944336,0.15325927734375,98.14844512939453,,,,-0.0377349853515625,-1.0486907958984375,-0.080535888671875,0.057797785848379135,0.20444661378860474,0.05664224177598953,-27.851394653320312,-110.97332763671875,-313.9381408691406,-0.012371450662612915,-0.08564621210098267,0.058438658714294434,1.4382422045827226,-0.11259737912450243,0.19554286553298383,-0.014850210398435593,-0.9912275671958923,-0.13132987916469574,0.04967806115746498,0.20647844672203064,0.0849265605211258,,,,,,,,
5584,COMPASS,,,,187.10633850097656,16.85758399963379,0.15325927734375,98.14844512939453,,,,-0.0377349853515625,-1.0486907958984375,-0.080535888671875,0.057797785848379135,0.20444661378860474,0.05664224177598953,-27.851394653320312,-110.97332763671875,-313.9381408691406,-0.012371450662612915,-0.08564621210098267,0.058438658714294434,1.4382422045827226,-0.11259737912450243,0.19554286553298383,-0.014850210398435593,-0.9912275671958923,-0.13132987916469574,0.04967806115746498,0.20647844672203064,0.0849265605211258,,,,,,,,
5676,COMPASS,,,,186.0183563232422,16.857948303222656,0.15325927734375,98.14844512939453,,,,-0.0377349853515625,-1.0486907958984375,-0.080535888671875,0.057797785848379135,0.20444661378860474,0.05664224177598953,-27.851394653320312,-110.97332763671875,-313.9381408691406,-0.012371450662612915,-0.08564621210098267,0.058438658714294434,1.4382422045827226,-0.11259737912450243,0.19554286553298383,-0.014850210398435593,-0.9912275671958923,-0.13132987916469574,0.04967806115746498,0.20647844672203064,0.0849265605211258,,,,,,,,
5713,Magnetometer,,,,186.0183563232422,16.857948303222656,0.15325927734375,98.14844512939453,,,,-0.0377349853515625,-1.0486907958984375,-0.080535888671875,0.057797785848379135,0.20444661378860474,0.05664224177598953,-28.806671142578125,-110.75375366210938,-313.002197265625,-0.012371450662612915,-0.08564621210098267,0.058438658714294434,1.4382422045827226,-0.11259737912450243,0.19554286553298383,-0.014850210398435593,-0.9912275671958923,-0.13132987916469574,0.04967806115746498,0.20647844672203064,0.0849265605211258,,,,,,,,
5744,Gyrometer,,,,186.0183563232422,16.857948303222656,0.15325927734375,98.14844512939453,,,,-0.0377349853515625,-1.0486907958984375,-0.080535888671875,0.1540399044752121,0.12674543261528015,0.10224221646785736,-28.806671142578125,-110.75375366210938,-313.002197265625,-0.012371450662612915,-0.08564621210098267,0.058438658714294434,1.4382422045827226,-0.11259737912450243,0.19554286553298383,-0.014850210398435593,-0.9912275671958923,-0.13132987916469574,0.04967806115746498,0.20647844672203064,0.0849265605211258,,,,,,,,
5774,Accelerometer,,,,186.0183563232422,16.857948303222656,0.15325927734375,98.14844512939453,,,,-0.011260986328125,-0.95147705078125,-0.213043212890625,0.1540399044752121,0.12674543261528015,0.10224221646785736,-28.806671142578125,-110.75375366210938,-313.002197265625,-0.012371450662612915,-0.08564621210098267,0.058438658714294434,1.4382422045827226,-0.11259737912450243,0.19554286553298383,-0.014850210398435593,-0.9912275671958923,-0.13132987916469574,0.04967806115746498,0.20647844672203064,0.0849265605211258,,,,,,,,
5803,COMPASS,,,,184.8197784423828,16.858257293701172,0.15325927734375,98.14844512939453,,,,-0.011260986328125,-0.95147705078125,-0.213043212890625,0.1540399044752121,0.12674543261528015,0.10224221646785736,-28.806671142578125,-110.75375366210938,-313.002197265625,-0.012371450662612915,-0.08564621210098267,0.058438658714294434,1.4382422045827226,-0.11259737912450243,0.19554286553298383,-0.014850210398435593,-0.9912275671958923,-0.13132987916469574,0.04967806115746498,0.20647844672203064,0.0849265605211258,,,,,,,,
5831,Device Motion,,,,184.8197784423828,16.858257293701172,0.15325927734375,98.14844512939453,,,,-0.011260986328125,-0.95147705078125,-0.213043212890625,0.1540399044752121,0.12674543261528015,0.10224221646785736,-28.806671142578125,-110.75375366210938,-313.002197265625,0.03668403998017311,0.0417061448097229,-0.07875638455152512,1.4485920522833504,-0.287217149025319,0.41527679323617667,-0.03453255444765091,-0.9925423264503479,-0.11690708249807358,-0.15252847969532013,0.1275167465209961,0.04498698562383652,,,,,,,,
5999,Magnetometer,,,,184.8197784423828,16.858257293701172,0.15325927734375,98.14844512939453,,,,-0.011260986328125,-0.95147705078125,-0.213043212890625,0.1540399044752121,0.12674543261528015,0.10224221646785736,-29.127914428710938,-110.57438659667969,-314.4178161621094,0.03668403998017311,0.0417061448097229,-0.07875638455152512,1.4485920522833504,-0.287217149025319,0.41527679323617667,-0.03453255444765091,-0.9925423264503479,-0.11690708249807358,-0.15252847969532013,0.1275167465209961,0.04498698562383652,,,,,,,,
6034,Gyrometer,,,,184.8197784423828,16.858257293701172,0.15325927734375,98.14844512939453,,,,-0.011260986328125,-0.95147705078125,-0.213043212890625,0.00030306773260235786,0.08539000153541565,-0.08453139662742615,-29.127914428710938,-110.57438659667969,-314.4178161621094,0.03668403998017311,0.0417061448097229,-0.07875638455152512,1.4485920522833504,-0.287217149025319,0.41527679323617667,-0.03453255444765091,-0.9925423264503479,-0.11690708249807358,-0.15252847969532013,0.1275167465209961,0.04498698562383652,,,,,,,,
6066,Altimeter,,,,184.8197784423828,16.858257293701172,0.16912841796875,98.14828491210938,,,,-0.011260986328125,-0.95147705078125,-0.213043212890625,0.00030306773260235786,0.08539000153541565,-0.08453139662742615,-29.127914428710938,-110.57438659667969,-314.4178161621094,0.03668403998017311,0.0417061448097229,-0.07875638455152512,1.4485920522833504,-0.287217149025319,0.41527679323617667,-0.03453255444765091,-0.9925423264503479,-0.11690708249807358,-0.15252847969532013,0.1275167465209961,0.04498698562383652,,,,,,,,
6096,Accelerometer,,,,184.8197784423828,16.858257293701172,0.16912841796875,98.14828491210938,,,,0.0316619873046875,-0.9807281494140625,-0.130523681640625,0.00030306773260235786,0.08539000153541565,-0.08453139662742615,-29.127914428710938,-110.57438659667969,-314.4178161621094,0.03668403998017311,0.0417061448097229,-0.07875638455152512,1.4485920522833504,-0.287217149025319,0.41527679323617667,-0.03453255444765091,-0.9925423264503479,-0.11690708249807358,-0.15252847969532013,0.1275167465209961,0.04498698562383652,,,,,,,,
6124,Device Motion,,,,184.8197784423828,16.858257293701172,0.16912841796875,98.14828491210938,,,,0.0316619873046875,-0.9807281494140625,-0.130523681640625,0.00030306773260235786,0.08539000153541565,-0.08453139662742615,-29.127914428710938,-110.57438659667969,-314.4178161621094,0.024837706238031387,0.018635869026184082,0.034423843026161194,1.4222546077797342,-0.16266675333149,0.2869845200566098,-0.023967934772372246,-0.988987922668457,-0.1460418850183487,0.03621159866452217,-0.0978284478187561,0.0033002139534801245,,,,,,,,
6298,Magnetometer,,,,184.8197784423828,16.858257293701172,0.16912841796875,98.14828491210938,,,,0.0316619873046875,-0.9807281494140625,-0.130523681640625,0.00030306773260235786,0.08539000153541565,-0.08453139662742615,-29.313522338867188,-110.99301147460938,-314.56817626953125,0.024837706238031387,0.018635869026184082,0.034423843026161194,1.4222546077797342,-0.16266675333149,0.2869845200566098,-0.023967934772372246,-0.988987922668457,-0.1460418850183487,0.03621159866452217,-0.0978284478187561,0.0033002139534801245,,,,,,,,
6334,COMPASS,,,,185.8718719482422,16.859220504760742,0.16912841796875,98.14828491210938,,,,0.0316619873046875,-0.9807281494140625,-0.130523681640625,0.00030306773260235786,0.08539000153541565,-0.08453139662742615,-29.313522338867188,-110.99301147460938,-314.56817626953125,0.024837706238031387,0.018635869026184082,0.034423843026161194,1.4222546077797342,-0.16266675333149,0.2869845200566098,-0.023967934772372246,-0.988987922668457,-0.1460418850183487,0.03621159866452217,-0.0978284478187561,0.0033002139534801245,,,,,,,,
6365,Gyrometer,,,,185.8718719482422,16.859220504760742,0.16912841796875,98.14828491210938,,,,0.0316619873046875,-0.9807281494140625,-0.130523681640625,0.020612601190805435,-0.11797323822975159,0.05301395058631897,-29.313522338867188,-110.99301147460938,-314.56817626953125,0.024837706238031387,0.018635869026184082,0.034423843026161194,1.4222546077797342,-0.16266675333149,0.2869845200566098,-0.023967934772372246,-0.988987922668457,-0.1460418850183487,0.03621159866452217,-0.0978284478187561,0.0033002139534801245,,,,,,,,
6395,Accelerometer,,,,185.8718719482422,16.859220504760742,0.16912841796875,98.14828491210938,,,,-0.0489959716796875,-0.9942779541015625,-0.1240386962890625,0.020612601190805435,-0.11797323822975159,0.05301395058631897,-29.313522338867188,-110.99301147460938,-314.56817626953125,0.024837706238031387,0.018635869026184082,0.034423843026161194,1.4222546077797342,-0.16266675333149,0.2869845200566098,-0.023967934772372246,-0.988987922668457,-0.1460418850183487,0.03621159866452217,-0.0978284478187561,0.0033002139534801245,,,,,,,,
6423,Device Motion,,,,185.8718719482422,16.859220504760742,0.16912841796875,98.14828491210938,,,,-0.0489959716796875,-0.9942779541015625,-0.1240386962890625,0.020612601190805435,-0.11797323822975159,0.05301395058631897,-29.313522338867188,-110.99301147460938,-314.56817626953125,-0.009111404418945312,0.049558043479919434,-0.037893831729888916,1.4380972298417032,-0.2110971920054175,0.3231409641467052,-0.027723323553800583,-0.9912083745002747,-0.12937307357788086,0.035986218601465225,0.07155419886112213,-0.09534654021263123,,,,,,,,
