Timestamp (ms),Triggering Sensor,Latitude,Longitude,Altitude,Heading (degrees),Heading accuracy (degrees),Relative Altitude (m),Pressure (kPa),Speed (m/s),Speed Accuracy (m/s),Floor,Acceleration - X axis,Acceleration - Y axis,Acceleration - Z axis,Gyrometer - X axis,Gyrometer - Y axis,Gyrometer - Z axis,Magnetometer - X axis,Magnetometer - Y axis,Magnetometer - Z axis,User acceleration - X axis,User acceleration - Y axis,User acceleration - Z axis,Attitude Pitch,Attitude Roll,Attitude Yaw,Gravity - X axis,Gravity - Y axis,Gravity - Z axis,Rotation Rate - X axis,Rotation Rate - Y axis,Rotation Rate - Z axis,Activity Type,Number of Steps,Distance,Floors Ascended,Floors Descended,Current Pace,Current Cadence,Average Active Pace
9,Gyrometer,,,,,,,,,,,,,,-0.018639463931322098,-0.0677148625254631,-0.0421714223921299,,,,,,,,,,,,,,,,,,,,,,,
29,GPS,40.44398962311663,-79.94452821428771,286.16655349731445,,,,,-1.0,-1.0,N/A,,,,-0.018639463931322098,-0.0677148625254631,-0.0421714223921299,,,,,,,,,,,,,,,,,,,,,,,
50,Magnetometer,40.44398962311663,-79.94452821428771,286.16655349731445,,,,,-1.0,-1.0,N/A,,,,-0.018639463931322098,-0.0677148625254631,-0.0421714223921299,-15.364166259765625,-114.64863586425781,-308.55255126953125,,,,,,,,,,,,,,,,,,,,
74,GPS,40.44398962311663,-79.94452821428771,286.16655349731445,,,,,-1.0,-1.0,N/A,,,,-0.018639463931322098,-0.0677148625254631,-0.0421714223921299,-15.364166259765625,-114.64863586425781,-308.55255126953125,,,,,,,,,,,,,,,,,,,,
96,COMPASS,40.44398962311663,-79.94452821428771,286.16655349731445,190.8730926513672,15.255826950073242,,,-1.0,-1.0,N/A,,,,-0.018639463931322098,-0.0677148625254631,-0.0421714223921299,-15.364166259765625,-114.64863586425781,-308.55255126953125,,,,,,,,,,,,,,,,,,,,
119,Activity Manager,40.44398962311663,-79.94452821428771,286.16655349731445,190.8730926513672,15.255826950073242,,,-1.0,-1.0,N/A,,,,-0.018639463931322098,-0.0677148625254631,-0.0421714223921299,-15.364166259765625,-114.64863586425781,-308.55255126953125,,,,,,,,,,,,,,,,,,,,
140,Accelerometer,40.44398962311663,-79.94452821428771,286.16655349731445,190.8730926513672,15.255826950073242,,,-1.0,-1.0,N/A,-0.001739501953125,-0.958343505859375,-0.2846527099609375,-0.018639463931322098,-0.0677148625254631,-0.0421714223921299,-15.364166259765625,-114.64863586425781,-308.55255126953125,,,,,,,,,,,,,,,,,,,,
176,GPS,40.44391522594516,-79.94448250007483,286.1695671081543,190.8730926513672,15.255826950073242,,,-1.0,-1.0,N/A,-0.001739501953125,-0.958343505859375,-0.2846527099609375,-0.018639463931322098,-0.0677148625254631,-0.0421714223921299,-15.364166259765625,-114.64863586425781,-308.55255126953125,,,,,,,,,,,,,,,,,,,,
198,GPS,40.44391386297258,-79.9444816950374,286.1695671081543,190.8730926513672,15.255826950073242,,,-1.0,-1.0,N/A,-0.001739501953125,-0.958343505859375,-0.2846527099609375,-0.018639463931322098,-0.0677148625254631,-0.0421714223921299,-15.364166259765625,-114.64863586425781,-308.55255126953125,,,,,,,,,,,,,,,,,,,,
223,Device Motion,40.44391386297258,-79.9444816950374,286.1695671081543,190.8730926513672,15.255826950073242,,,-1.0,-1.0,N/A,-0.001739501953125,-0.958343505859375,-0.2846527099609375,-0.018639463931322098,-0.0677148625254631,-0.0421714223921299,-15.364166259765625,-114.64863586425781,-308.55255126953125,0.020037293434143066,0.012654244899749756,0.015155166387557983,1.2898907327351743,0.0021925863007644744,-0.0016493938134807026,0.0006078406586311758,-0.9608047604560852,-0.27722495794296265,0.0066228401847183704,0.08648025989532471,-0.03055601753294468,,,,,,,,
305,Gyrometer,40.44391386297258,-79.9444816950374,286.1695671081543,190.8730926513672,15.255826950073242,,,-1.0,-1.0,N/A,-0.001739501953125,-0.958343505859375,-0.2846527099609375,-0.03817242011427879,-0.039746880531311035,0.002357163932174444,-15.364166259765625,-114.64863586425781,-308.55255126953125,0.020037293434143066,0.012654244899749756,0.015155166387557983,1.2898907327351743,0.0021925863007644744,-0.0016493938134807026,0.0006078406586311758,-0.9608047604560852,-0.27722495794296265,0.0066228401847183704,0.08648025989532471,-0.03055601753294468,,,,,,,,
327,Magnetometer,40.44391386297258,-79.9444816950374,286.1695671081543,190.8730926513672,15.255826950073242,,,-1.0,-1.0,N/A,-0.001739501953125,-0.958343505859375,-0.2846527099609375,-0.03817242011427879,-0.039746880531311035,0.002357163932174444,-14.941146850585938,-114.64260864257812,-308.740966796875,0.020037293434143066,0.012654244899749756,0.015155166387557983,1.2898907327351743,0.0021925863007644744,-0.0016493938134807026,0.0006078406586311758,-0.9608047604560852,-0.27722495794296265,0.0066228401847183704,0.08648025989532471,-0.03055601753294468,,,,,,,,
352,Accelerometer,40.44391386297258,-79.9444816950374,286.1695671081543,190.8730926513672,15.255826950073242,,,-1.0,-1.0,N/A,0.0220947265625,-0.9571990966796875,-0.271575927734375,-0.03817242011427879,-0.039746880531311035,0.002357163932174444,-14.941146850585938,-114.64260864257812,-308.740966796875,0.020037293434143066,0.012654244899749756,0.015155166387557983,1.2898907327351743,0.0021925863007644744,-0.0016493938134807026,0.0006078406586311758,-0.9608047604560852,-0.27722495794296265,0.0066228401847183704,0.08648025989532471,-0.03055601753294468,,,,,,,,
436,Activity Manager,40.44391386297258,-79.9444816950374,286.1695671081543,190.8730926513672,15.255826950073242,,,-1.0,-1.0,N/A,0.0220947265625,-0.9571990966796875,-0.271575927734375,-0.03817242011427879,-0.039746880531311035,0.002357163932174444,-14.941146850585938,-114.64260864257812,-308.740966796875,0.020037293434143066,0.012654244899749756,0.015155166387557983,1.2898907327351743,0.0021925863007644744,-0.0016493938134807026,0.0006078406586311758,-0.9608047604560852,-0.27722495794296265,0.0066228401847183704,0.08648025989532471,-0.03055601753294468,Walking,,,,,,,
496,Device Motion,40.44391386297258,-79.9444816950374,286.1695671081543,190.8730926513672,15.255826950073242,,,-1.0,-1.0,N/A,0.0220947265625,-0.9571990966796875,-0.271575927734375,-0.03817242011427879,-0.039746880531311035,0.002357163932174444,-14.941146850585938,-114.64260864257812,-308.740966796875,0.014031201601028442,-0.009829401969909668,0.018581390380859375,1.2882174988003796,-0.009552122030392485,0.0023197819289626736,-0.0026634051464498043,-0.9603395462036133,-0.2788201570510864,-0.06090107187628746,6.222212687134743e-05,0.02375863492488861,Walking,,,,,,,
605,Gyrometer,40.44391386297258,-79.9444816950374,286.1695671081543,190.8730926513672,15.255826950073242,,,-1.0,-1.0,N/A,0.0220947265625,-0.9571990966796875,-0.271575927734375,0.05914507806301117,-0.07288539409637451,-0.03653217852115631,-14.941146850585938,-114.64260864257812,-308.740966796875,0.014031201601028442,-0.009829401969909668,0.018581390380859375,1.2882174988003796,-0.009552122030392485,0.0023197819289626736,-0.0026634051464498043,-0.9603395462036133,-0.2788201570510864,-0.06090107187628746,6.222212687134743e-05,0.02375863492488861,Walking,,,,,,,
626,Magnetometer,40.44391386297258,-79.9444816950374,286.1695671081543,190.8730926513672,15.255826950073242,,,-1.0,-1.0,N/A,0.0220947265625,-0.9571990966796875,-0.271575927734375,0.05914507806301117,-0.07288539409637451,-0.03653217852115631,-14.971832275390625,-114.550537109375,-307.9317626953125,0.014031201601028442,-0.009829401969909668,0.018581390380859375,1.2882174988003796,-0.009552122030392485,0.0023197819289626736,-0.0026634051464498043,-0.9603395462036133,-0.2788201570510864,-0.06090107187628746,6.222212687134743e-05,0.02375863492488861,Walking,,,,,,,
647,Accelerometer,40.44391386297258,-79.9444816950374,286.1695671081543,190.8730926513672,15.255826950073242,,,-1.0,-1.0,N/A,0.0001983642578125,-0.960205078125,-0.2578277587890625,0.05914507806301117,-0.07288539409637451,-0.03653217852115631,-14.971832275390625,-114.550537109375,-307.9317626953125,0.014031201601028442,-0.009829401969909668,0.018581390380859375,1.2882174988003796,-0.009552122030392485,0.0023197819289626736,-0.0026634051464498043,-0.9603395462036133,-0.2788201570510864,-0.06090107187628746,6.222212687134743e-05,0.02375863492488861,Walking,,,,,,,
751,COMPASS,40.44391386297258,-79.9444816950374,286.1695671081543,191.8751983642578,15.239997863769531,,,-1.0,-1.0,N/A,0.0001983642578125,-0.960205078125,-0.2578277587890625,0.05914507806301117,-0.07288539409637451,-0.03653217852115631,-14.971832275390625,-114.550537109375,-307.9317626953125,0.014031201601028442,-0.009829401969909668,0.018581390380859375,1.2882174988003796,-0.009552122030392485,0.0023197819289626736,-0.0026634051464498043,-0.9603395462036133,-0.2788201570510864,-0.06090107187628746,6.222212687134743e-05,0.02375863492488861,Walking,,,,,,,
795,Device Motion,40.44391386297258,-79.9444816950374,286.1695671081543,191.8751983642578,15.239997863769531,,,-1.0,-1.0,N/A,0.0001983642578125,-0.960205078125,-0.2578277587890625,0.05914507806301117,-0.07288539409637451,-0.03653217852115631,-14.971832275390625,-114.550537109375,-307.9317626953125,0.003863394260406494,-0.005341291427612305,-0.007906794548034668,1.290863798864531,-0.004373543094910046,-0.01839977378854536,-0.0012083661276847124,-0.9610740542411804,-0.2762882113456726,0.056483734399080276,-0.07373698800802231,-0.018559234216809273,Walking,,,,,,,
840,GPS,40.44396498968144,-79.9445099177162,286.1786575317383,191.8751983642578,15.239997863769531,,,-1.0,-1.0,N/A,0.0001983642578125,-0.960205078125,-0.2578277587890625,0.05914507806301117,-0.07288539409637451,-0.03653217852115631,-14.971832275390625,-114.550537109375,-307.9317626953125,0.003863394260406494,-0.005341291427612305,-0.007906794548034668,1.290863798864531,-0.004373543094910046,-0.01839977378854536,-0.0012083661276847124,-0.9610740542411804,-0.2762882113456726,0.056483734399080276,-0.07373698800802231,-0.018559234216809273,Walking,,,,,,,
906,Magnetometer,40.44396498968144,-79.9445099177162,286.1786575317383,191.8751983642578,15.239997863769531,,,-1.0,-1.0,N/A,0.0001983642578125,-0.960205078125,-0.2578277587890625,0.05914507806301117,-0.07288539409637451,-0.03653217852115631,-14.506072998046875,-114.35295104980469,-308.01025390625,0.003863394260406494,-0.005341291427612305,-0.007906794548034668,1.290863798864531,-0.004373543094910046,-0.01839977378854536,-0.0012083661276847124,-0.9610740542411804,-0.2762882113456726,0.056483734399080276,-0.07373698800802231,-0.018559234216809273,Walking,,,,,,,
932,Gyrometer,40.44396498968144,-79.9445099177162,286.1786575317383,191.8751983642578,15.239997863769531,,,-1.0,-1.0,N/A,0.0001983642578125,-0.960205078125,-0.2578277587890625,0.01949806697666645,-0.03260321542620659,-0.021451495587825775,-14.506072998046875,-114.35295104980469,-308.01025390625,0.003863394260406494,-0.005341291427612305,-0.007906794548034668,1.290863798864531,-0.004373543094910046,-0.01839977378854536,-0.0012083661276847124,-0.9610740542411804,-0.2762882113456726,0.056483734399080276,-0.07373698800802231,-0.018559234216809273,Walking,,,,,,,
957,Accelerometer,40.44396498968144,-79.9445099177162,286.1786575317383,191.8751983642578,15.239997863769531,,,-1.0,-1.0,N/A,0.0029754638671875,-0.951416015625,-0.2442169189453125,0.01949806697666645,-0.03260321542620659,-0.021451495587825775,-14.506072998046875,-114.35295104980469,-308.01025390625,0.003863394260406494,-0.005341291427612305,-0.007906794548034668,1.290863798864531,-0.004373543094910046,-0.01839977378854536,-0.0012083661276847124,-0.9610740542411804,-0.2762882113456726,0.056483734399080276,-0.07373698800802231,-0.018559234216809273,Walking,,,,,,,
1031,COMPASS,40.44396498968144,-79.9445099177162,286.1786575317383,192.87692260742188,15.237109184265137,,,-1.0,-1.0,N/A,0.0029754638671875,-0.951416015625,-0.2442169189453125,0.01949806697666645,-0.03260321542620659,-0.021451495587825775,-14.506072998046875,-114.35295104980469,-308.01025390625,0.003863394260406494,-0.005341291427612305,-0.007906794548034668,1.290863798864531,-0.004373543094910046,-0.01839977378854536,-0.0012083661276847124,-0.9610740542411804,-0.2762882113456726,0.056483734399080276,-0.07373698800802231,-0.018559234216809273,Walking,,,,,,,
1057,Altimeter,40.44396498968144,-79.9445099177162,286.1786575317383,192.87692260742188,15.237109184265137,0,98.13089752197266,-1.0,-1.0,N/A,0.0029754638671875,-0.951416015625,-0.2442169189453125,0.01949806697666645,-0.03260321542620659,-0.021451495587825775,-14.506072998046875,-114.35295104980469,-308.01025390625,0.003863394260406494,-0.005341291427612305,-0.007906794548034668,1.290863798864531,-0.004373543094910046,-0.01839977378854536,-0.0012083661276847124,-0.9610740542411804,-0.2762882113456726,0.056483734399080276,-0.07373698800802231,-0.018559234216809273,Walking,,,,,,,
1094,Device Motion,40.44396498968144,-79.9445099177162,286.1786575317383,192.87692260742188,15.237109184265137,0,98.13089752197266,-1.0,-1.0,N/A,0.0029754638671875,-0.951416015625,-0.2442169189453125,0.01949806697666645,-0.03260321542620659,-0.021451495587825775,-14.506072998046875,-114.35295104980469,-308.01025390625,-0.02443370223045349,-0.007856965065002441,0.06597107648849487,1.2926436454222376,0.006406780362772293,-0.043843861672474053,0.0017591601936146617,-0.961564302444458,-0.2745741307735443,-0.09091776609420776,-0.05461595207452774,-0.0005125442985445261,Walking,,,,,,,
1206,Magnetometer,40.44396498968144,-79.9445099177162,286.1786575317383,192.87692260742188,15.237109184265137,0,98.13089752197266,-1.0,-1.0,N/A,0.0029754638671875,-0.951416015625,-0.2442169189453125,0.01949806697666645,-0.03260321542620659,-0.021451495587825775,-14.336761474609375,-114.26589965820312,-308.791259765625,-0.02443370223045349,-0.007856965065002441,0.06597107648849487,1.2926436454222376,0.006406780362772293,-0.043843861672474053,0.0017591601936146617,-0.961564302444458,-0.2745741307735443,-0.09091776609420776,-0.05461595207452774,-0.0005125442985445261,Walking,,,,,,,
1233,Gyrometer,40.44396498968144,-79.9445099177162,286.1786575317383,192.87692260742188,15.237109184265137,0,98.13089752197266,-1.0,-1.0,N/A,0.0029754638671875,-0.951416015625,-0.2442169189453125,-0.14511911571025848,0.008037686347961426,0.03238856419920921,-14.336761474609375,-114.26589965820312,-308.791259765625,-0.02443370223045349,-0.007856965065002441,0.06597107648849487,1.2926436454222376,0.006406780362772293,-0.043843861672474053,0.0017591601936146617,-0.961564302444458,-0.2745741307735443,-0.09091776609420776,-0.05461595207452774,-0.0005125442985445261,Walking,,,,,,,
1258,Accelerometer,40.44396498968144,-79.9445099177162,286.1786575317383,192.87692260742188,15.237109184265137,0,98.13089752197266,-1.0,-1.0,N/A,-0.03106689453125,-0.9418182373046875,-0.1838226318359375,-0.14511911571025848,0.008037686347961426,0.03238856419920921,-14.336761474609375,-114.26589965820312,-308.791259765625,-0.02443370223045349,-0.007856965065002441,0.06597107648849487,1.2926436454222376,0.006406780362772293,-0.043843861672474053,0.0017591601936146617,-0.961564302444458,-0.2745741307735443,-0.09091776609420776,-0.05461595207452774,-0.0005125442985445261,Walking,,,,,,,
1394,Device Motion,40.44396498968144,-79.9445099177162,286.1786575317383,192.87692260742188,15.237109184265137,0,98.13089752197266,-1.0,-1.0,N/A,-0.03106689453125,-0.9418182373046875,-0.1838226318359375,-0.14511911571025848,0.008037686347961426,0.03238856419920921,-14.336761474609375,-114.26589965820312,-308.791259765625,-0.02005547285079956,-0.049361586570739746,0.09661731123924255,1.2595432131090212,0.0076409262832642065,-0.05159733815994639,0.0023400227073580027,-0.9519505500793457,-0.30624261498451233,-0.10636290162801743,0.06260690093040466,0.02312791347503662,Walking,,,,,,,
1505,Magnetometer,40.44396498968144,-79.9445099177162,286.1786575317383,192.87692260742188,15.237109184265137,0,98.13089752197266,-1.0,-1.0,N/A,-0.03106689453125,-0.9418182373046875,-0.1838226318359375,-0.14511911571025848,0.008037686347961426,0.03238856419920921,-14.266006469726562,-114.21206665039062,-310.3033752441406,-0.02005547285079956,-0.049361586570739746,0.09661731123924255,1.2595432131090212,0.0076409262832642065,-0.05159733815994639,0.0023400227073580027,-0.9519505500793457,-0.30624261498451233,-0.10636290162801743,0.06260690093040466,0.02312791347503662,Walking,,,,,,,
1530,Gyrometer,40.44396498968144,-79.9445099177162,286.1786575317383,192.87692260742188,15.237109184265137,0,98.13089752197266,-1.0,-1.0,N/A,-0.03106689453125,-0.9418182373046875,-0.1838226318359375,0.013978400267660618,0.10450563579797745,0.1326640397310257,-14.266006469726562,-114.21206665039062,-310.3033752441406,-0.02005547285079956,-0.049361586570739746,0.09661731123924255,1.2595432131090212,0.0076409262832642065,-0.05159733815994639,0.0023400227073580027,-0.9519505500793457,-0.30624261498451233,-0.10636290162801743,0.06260690093040466,0.02312791347503662,Walking,,,,,,,
1541,Accelerometer,40.44396498968144,-79.9445099177162,286.1786575317383,192.87692260742188,15.237109184265137,0,98.13089752197266,-1.0,-1.0,N/A,-0.0269927978515625,-1.0719757080078125,-0.2763671875,0.013978400267660618,0.10450563579797745,0.1326640397310257,-14.266006469726562,-114.21206665039062,-310.3033752441406,-0.02005547285079956,-0.049361586570739746,0.09661731123924255,1.2595432131090212,0.0076409262832642065,-0.05159733815994639,0.0023400227073580027,-0.9519505500793457,-0.30624261498451233,-0.10636290162801743,0.06260690093040466,0.02312791347503662,Walking,,,,,,,
1589,COMPASS,40.44396498968144,-79.9445099177162,286.1786575317383,191.8253936767578,15.237835884094238,0,98.13089752197266,-1.0,-1.0,N/A,-0.0269927978515625,-1.0719757080078125,-0.2763671875,0.013978400267660618,0.10450563579797745,0.1326640397310257,-14.266006469726562,-114.21206665039062,-310.3033752441406,-0.02005547285079956,-0.049361586570739746,0.09661731123924255,1.2595432131090212,0.0076409262832642065,-0.05159733815994639,0.0023400227073580027,-0.9519505500793457,-0.30624261498451233,-0.10636290162801743,0.06260690093040466,0.02312791347503662,Walking,,,,,,,
1692,Device Motion,40.44396498968144,-79.9445099177162,286.1786575317383,191.8253936767578,15.237835884094238,0,98.13089752197266,-1.0,-1.0,N/A,-0.0269927978515625,-1.0719757080078125,-0.2763671875,0.013978400267660618,0.10450563579797745,0.1326640397310257,-14.266006469726562,-114.21206665039062,-310.3033752441406,-0.014312267303466797,0.012803077697753906,0.0035046935081481934,1.2942587967354977,-0.01235327799597924,-0.00018754641707846096,-0.0033726845867931843,-0.9620065689086914,-0.27300551533699036,-0.08827265352010727,0.013188796117901802,-0.03178820759057999,Walking,,,,,,,
1804,Magnetometer,40.44396498968144,-79.9445099177162,286.1786575317383,191.8253936767578,15.237835884094238,0,98.13089752197266,-1.0,-1.0,N/A,-0.0269927978515625,-1.0719757080078125,-0.2763671875,0.013978400267660618,0.10450563579797745,0.1326640397310257,-14.591644287109375,-112.92788696289062,-308.3038330078125,-0.014312267303466797,0.012803077697753906,0.0035046935081481934,1.2942587967354977,-0.01235327799597924,-0.00018754641707846096,-0.0033726845867931843,-0.9620065689086914,-0.27300551533699036,-0.08827265352010727,0.013188796117901802,-0.03178820759057999,Walking,,,,,,,
1828,COMPASS,40.44396498968144,-79.9445099177162,286.1786575317383,190.80238342285156,15.239490509033203,0,98.13089752197266,-1.0,-1.0,N/A,-0.0269927978515625,-1.0719757080078125,-0.2763671875,0.013978400267660618,0.10450563579797745,0.1326640397310257,-14.591644287109375,-112.92788696289062,-308.3038330078125,-0.014312267303466797,0.012803077697753906,0.0035046935081481934,1.2942587967354977,-0.01235327799597924,-0.00018754641707846096,-0.0033726845867931843,-0.9620065689086914,-0.27300551533699036,-0.08827265352010727,0.013188796117901802,-0.03178820759057999,Walking,,,,,,,
1851,Gyrometer,40.44396498968144,-79.9445099177162,286.1786575317383,190.80238342285156,15.239490509033203,0,98.13089752197266,-1.0,-1.0,N/A,-0.0269927978515625,-1.0719757080078125,-0.2763671875,0.13234472274780273,0.15497839450836182,0.1685381531715393,-14.591644287109375,-112.92788696289062,-308.3038330078125,-0.014312267303466797,0.012803077697753906,0.0035046935081481934,1.2942587967354977,-0.01235327799597924,-0.00018754641707846096,-0.0033726845867931843,-0.9620065689086914,-0.27300551533699036,-0.08827265352010727,0.013188796117901802,-0.03178820759057999,Walking,,,,,,,
1877,COMPASS,40.44396498968144,-79.9445099177162,286.1786575317383,189.48020935058594,15.239871978759766,0,98.13089752197266,-1.0,-1.0,N/A,-0.0269927978515625,-1.0719757080078125,-0.2763671875,0.13234472274780273,0.15497839450836182,0.1685381531715393,-14.591644287109375,-112.92788696289062,-308.3038330078125,-0.014312267303466797,0.012803077697753906,0.0035046935081481934,1.2942587967354977,-0.01235327799597924,-0.00018754641707846096,-0.0033726845867931843,-0.9620065689086914,-0.27300551533699036,-0.08827265352010727,0.013188796117901802,-0.03178820759057999,Walking,,,,,,,
1902,Accelerometer,40.44396498968144,-79.9445099177162,286.1786575317383,189.48020935058594,15.239871978759766,0,98.13089752197266,-1.0,-1.0,N/A,0.063385009765625,-0.9104766845703125,-0.2228240966796875,0.13234472274780273,0.15497839450836182,0.1685381531715393,-14.591644287109375,-112.92788696289062,-308.3038330078125,-0.014312267303466797,0.012803077697753906,0.0035046935081481934,1.2942587967354977,-0.01235327799597924,-0.00018754641707846096,-0.0033726845867931843,-0.9620065689086914,-0.27300551533699036,-0.08827265352010727,0.013188796117901802,-0.03178820759057999,Walking,,,,,,,
1926,COMPASS,40.44396498968144,-79.9445099177162,286.1786575317383,188.42098999023438,15.240204811096191,0,98.13089752197266,-1.0,-1.0,N/A,0.063385009765625,-0.9104766845703125,-0.2228240966796875,0.13234472274780273,0.15497839450836182,0.1685381531715393,-14.591644287109375,-112.92788696289062,-308.3038330078125,-0.014312267303466797,0.012803077697753906,0.0035046935081481934,1.2942587967354977,-0.01235327799597924,-0.00018754641707846096,-0.0033726845867931843,-0.9620065689086914,-0.27300551533699036,-0.08827265352010727,0.013188796117901802,-0.03178820759057999,Walking,,,,,,,
1992,Device Motion,40.44396498968144,-79.9445099177162,286.1786575317383,188.42098999023438,15.240204811096191,0,98.13089752197266,-1.0,-1.0,N/A,0.063385009765625,-0.9104766845703125,-0.2228240966796875,0.13234472274780273,0.15497839450836182,0.1685381531715393,-14.591644287109375,-112.92788696289062,-308.3038330078125,0.029729336500167847,0.05641603469848633,0.026158690452575684,1.2747116159670995,-0.0815853856909751,0.11091683043140965,-0.0237783994525671,-0.9564862251281738,-0.29080721735954285,-0.0689738467335701,0.0939769595861435,-0.02501847967505455,Walking,,,,,,,
2042,Altimeter,40.44396498968144,-79.9445099177162,286.1786575317383,188.42098999023438,15.240204811096191,0.007904052734375,98.13079833984375,-1.0,-1.0,N/A,0.063385009765625,-0.9104766845703125,-0.2228240966796875,0.13234472274780273,0.15497839450836182,0.1685381531715393,-14.591644287109375,-112.92788696289062,-308.3038330078125,0.029729336500167847,0.05641603469848633,0.026158690452575684,1.2747116159670995,-0.0815853856909751,0.11091683043140965,-0.0237783994525671,-0.9564862251281738,-0.29080721735954285,-0.0689738467335701,0.0939769595861435,-0.02501847967505455,Walking,,,,,,,
2104,Magnetometer,40.44396498968144,-79.9445099177162,286.1786575317383,188.42098999023438,15.240204811096191,0.007904052734375,98.13079833984375,-1.0,-1.0,N/A,0.063385009765625,-0.9104766845703125,-0.2228240966796875,0.13234472274780273,0.15497839450836182,0.1685381531715393,-16.320663452148438,-111.94766235351562,-308.5063781738281,0.029729336500167847,0.05641603469848633,0.026158690452575684,1.2747116159670995,-0.0815853856909751,0.11091683043140965,-0.0237783994525671,-0.9564862251281738,-0.29080721735954285,-0.0689738467335701,0.0939769595861435,-0.02501847967505455,Walking,,,,,,,
2128,Gyrometer,40.44396498968144,-79.9445099177162,286.1786575317383,188.42098999023438,15.240204811096191,0.007904052734375,98.13079833984375,-1.0,-1.0,N/A,0.063385009765625,-0.9104766845703125,-0.2228240966796875,-0.10434957593679428,-0.060450293123722076,0.0008399609941989183,-16.320663452148438,-111.94766235351562,-308.5063781738281,0.029729336500167847,0.05641603469848633,0.026158690452575684,1.2747116159670995,-0.0815853856909751,0.11091683043140965,-0.0237783994525671,-0.9564862251281738,-0.29080721735954285,-0.0689738467335701,0.0939769595861435,-0.02501847967505455,Walking,,,,,,,
2152,Accelerometer,40.44396498968144,-79.9445099177162,286.1786575317383,188.42098999023438,15.240204811096191,0.007904052734375,98.13079833984375,-1.0,-1.0,N/A,0.000732421875,-1.00372314453125,-0.26898193359375,-0.10434957593679428,-0.060450293123722076,0.0008399609941989183,-16.320663452148438,-111.94766235351562,-308.5063781738281,0.029729336500167847,0.05641603469848633,0.026158690452575684,1.2747116159670995,-0.0815853856909751,0.11091683043140965,-0.0237783994525671,-0.9564862251281738,-0.29080721735954285,-0.0689738467335701,0.0939769595861435,-0.02501847967505455,Walking,,,,,,,
2291,Device Motion,40.44396498968144,-79.9445099177162,286.1786575317383,188.42098999023438,15.240204811096191,0.007904052734375,98.13079833984375,-1.0,-1.0,N/A,0.000732421875,-1.00372314453125,-0.26898193359375,-0.10434957593679428,-0.060450293123722076,0.0008399609941989183,-16.320663452148438,-111.94766235351562,-308.5063781738281,0.008705703541636467,-0.10266351699829102,-0.0660490095615387,1.2767878258351604,-0.057453290315477766,0.06884050564221694,-0.016640299931168556,-0.9570899605751038,-0.28931304812431335,-0.004913578741252422,-0.12589751183986664,-0.1174924448132515,Walking,,,,,,,
2315,COMPASS,40.44396498968144,-79.9445099177162,286.1786575317383,189.62127685546875,15.243042945861816,0.007904052734375,98.13079833984375,-1.0,-1.0,N/A,0.000732421875,-1.00372314453125,-0.26898193359375,-0.10434957593679428,-0.060450293123722076,0.0008399609941989183,-16.320663452148438,-111.94766235351562,-308.5063781738281,0.008705703541636467,-0.10266351699829102,-0.0660490095615387,1.2767878258351604,-0.057453290315477766,0.06884050564221694,-0.016640299931168556,-0.9570899605751038,-0.28931304812431335,-0.004913578741252422,-0.12589751183986664,-0.1174924448132515,Walking,,,,,,,
2346,COMPASS,40.44396498968144,-79.9445099177162,286.1786575317383,190.67506408691406,15.243386268615723,0.007904052734375,98.13079833984375,-1.0,-1.0,N/A,0.000732421875,-1.00372314453125,-0.26898193359375,-0.10434957593679428,-0.060450293123722076,0.0008399609941989183,-16.320663452148438,-111.94766235351562,-308.5063781738281,0.008705703541636467,-0.10266351699829102,-0.0660490095615387,1.2767878258351604,-0.057453290315477766,0.06884050564221694,-0.016640299931168556,-0.9570899605751038,-0.28931304812431335,-0.004913578741252422,-0.12589751183986664,-0.1174924448132515,Walking,,,,,,,
2404,Magnetometer,40.44396498968144,-79.9445099177162,286.1786575317383,190.67506408691406,15.243386268615723,0.007904052734375,98.13079833984375,-1.0,-1.0,N/A,0.000732421875,-1.00372314453125,-0.26898193359375,-0.10434957593679428,-0.060450293123722076,0.0008399609941989183,-15.084564208984375,-110.1307373046875,-309.66888427734375,0.008705703541636467,-0.10266351699829102,-0.0660490095615387,1.2767878258351604,-0.057453290315477766,0.06884050564221694,-0.016640299931168556,-0.9570899605751038,-0.28931304812431335,-0.004913578741252422,-0.12589751183986664,-0.1174924448132515,Walking,,,,,,,
2429,COMPASS,40.44396498968144,-79.9445099177162,286.1786575317383,191.82777404785156,15.244060516357422,0.007904052734375,98.13079833984375,-1.0,-1.0,N/A,0.000732421875,-1.00372314453125,-0.26898193359375,-0.10434957593679428,-0.060450293123722076,0.0008399609941989183,-15.084564208984375,-110.1307373046875,-309.66888427734375,0.008705703541636467,-0.10266351699829102,-0.0660490095615387,1.2767878258351604,-0.057453290315477766,0.06884050564221694,-0.016640299931168556,-0.9570899605751038,-0.28931304812431335,-0.004913578741252422,-0.12589751183986664,-0.1174924448132515,Walking,,,,,,,
2454,Gyrometer,40.44396498968144,-79.9445099177162,286.1786575317383,191.82777404785156,15.244060516357422,0.007904052734375,98.13079833984375,-1.0,-1.0,N/A,0.000732421875,-1.00372314453125,-0.26898193359375,-0.0008578042034059763,-0.06057945638895035,-0.14448687434196472,-15.084564208984375,-110.1307373046875,-309.66888427734375,0.008705703541636467,-0.10266351699829102,-0.0660490095615387,1.2767878258351604,-0.057453290315477766,0.06884050564221694,-0.016640299931168556,-0.9570899605751038,-0.28931304812431335,-0.004913578741252422,-0.12589751183986664,-0.1174924448132515,Walking,,,,,,,
2483,Accelerometer,40.44396498968144,-79.9445099177162,286.1786575317383,191.82777404785156,15.244060516357422,0.007904052734375,98.13079833984375,-1.0,-1.0,N/A,-0.0119171142578125,-0.9436187744140625,-0.286651611328125,-0.0008578042034059763,-0.06057945638895035,-0.14448687434196472,-15.084564208984375,-110.1307373046875,-309.66888427734375,0.008705703541636467,-0.10266351699829102,-0.0660490095615387,1.2767878258351604,-0.057453290315477766,0.06884050564221694,-0.016640299931168556,-0.9570899605751038,-0.28931304812431335,-0.004913578741252422,-0.12589751183986664,-0.1174924448132515,Walking,,,,,,,
2508,COMPASS,40.44396498968144,-79.9445099177162,286.1786575317383,192.964111328125,15.244564056396484,0.007904052734375,98.13079833984375,-1.0,-1.0,N/A,-0.0119171142578125,-0.9436187744140625,-0.286651611328125,-0.0008578042034059763,-0.06057945638895035,-0.14448687434196472,-15.084564208984375,-110.1307373046875,-309.66888427734375,0.008705703541636467,-0.10266351699829102,-0.0660490095615387,1.2767878258351604,-0.057453290315477766,0.06884050564221694,-0.016640299931168556,-0.9570899605751038,-0.28931304812431335,-0.004913578741252422,-0.12589751183986664,-0.1174924448132515,Walking,,,,,,,
2590,Device Motion,40.44396498968144,-79.9445099177162,286.1786575317383,192.964111328125,15.244564056396484,0.007904052734375,98.13079833984375,-1.0,-1.0,N/A,-0.0119171142578125,-0.9436187744140625,-0.286651611328125,-0.0008578042034059763,-0.06057945638895035,-0.14448687434196472,-15.084564208984375,-110.1307373046875,-309.66888427734375,-0.029482275247573853,0.10256850719451904,0.008207499980926514,1.2866952504027527,0.10307909878736657,-0.12147528289741936,0.028841394931077957,-0.9599140286445618,-0.27880698442459106,-0.2288103997707367,-0.23098403215408325,-0.019382711499929428,Walking,,,,,,,
2646,COMPASS,40.44396498968144,-79.9445099177162,286.1786575317383,194.06602478027344,15.245652198791504,0.007904052734375,98.13079833984375,-1.0,-1.0,N/A,-0.0119171142578125,-0.9436187744140625,-0.286651611328125,-0.0008578042034059763,-0.06057945638895035,-0.14448687434196472,-15.084564208984375,-110.1307373046875,-309.66888427734375,-0.029482275247573853,0.10256850719451904,0.008207499980926514,1.2866952504027527,0.10307909878736657,-0.12147528289741936,0.028841394931077957,-0.9599140286445618,-0.27880698442459106,-0.2288103997707367,-0.23098403215408325,-0.019382711499929428,Walking,,,,,,,
2703,Magnetometer,40.44396498968144,-79.9445099177162,286.1786575317383,194.06602478027344,15.245652198791504,0.007904052734375,98.13079833984375,-1.0,-1.0,N/A,-0.0119171142578125,-0.9436187744140625,-0.286651611328125,-0.0008578042034059763,-0.06057945638895035,-0.14448687434196472,-15.700408935546875,-108.35552978515625,-312.05133056640625,-0.029482275247573853,0.10256850719451904,0.008207499980926514,1.2866952504027527,0.10307909878736657,-0.12147528289741936,0.028841394931077957,-0.9599140286445618,-0.27880698442459106,-0.2288103997707367,-0.23098403215408325,-0.019382711499929428,Walking,,,,,,,
2727,Gyrometer,40.44396498968144,-79.9445099177162,286.1786575317383,194.06602478027344,15.245652198791504,0.007904052734375,98.13079833984375,-1.0,-1.0,N/A,-0.0119171142578125,-0.9436187744140625,-0.286651611328125,-0.03459419682621956,-0.026154372841119766,-0.013932859525084496,-15.700408935546875,-108.35552978515625,-312.05133056640625,-0.029482275247573853,0.10256850719451904,0.008207499980926514,1.2866952504027527,0.10307909878736657,-0.12147528289741936,0.028841394931077957,-0.9599140286445618,-0.27880698442459106,-0.2288103997707367,-0.23098403215408325,-0.019382711499929428,Walking,,,,,,,
2750,Accelerometer,40.44396498968144,-79.9445099177162,286.1786575317383,194.06602478027344,15.245652198791504,0.007904052734375,98.13079833984375,-1.0,-1.0,N/A,0.0229034423828125,-0.9362640380859375,-0.2743988037109375,-0.03459419682621956,-0.026154372841119766,-0.013932859525084496,-15.700408935546875,-108.35552978515625,-312.05133056640625,-0.029482275247573853,0.10256850719451904,0.008207499980926514,1.2866952504027527,0.10307909878736657,-0.12147528289741936,0.028841394931077957,-0.9599140286445618,-0.27880698442459106,-0.2288103997707367,-0.23098403215408325,-0.019382711499929428,Walking,,,,,,,
2889,Device Motion,40.44396498968144,-79.9445099177162,286.1786575317383,194.06602478027344,15.245652198791504,0.007904052734375,98.13079833984375,-1.0,-1.0,N/A,0.0229034423828125,-0.9362640380859375,-0.2743988037109375,-0.03459419682621956,-0.026154372841119766,-0.013932859525084496,-15.700408935546875,-108.35552978515625,-312.05133056640625,-0.009884209372103214,-0.07568085193634033,0.007747858762741089,1.297864636717609,0.02778469990039399,-0.0731864895870851,0.007488555274903774,-0.9629848003387451,-0.26945146918296814,0.08942863345146179,0.046024564653635025,0.07741763442754745,Walking,,,,,,,
2985,Activity Manager,40.44396498968144,-79.9445099177162,286.1786575317383,194.06602478027344,15.245652198791504,0.007904052734375,98.13079833984375,-1.0,-1.0,N/A,0.0229034423828125,-0.9362640380859375,-0.2743988037109375,-0.03459419682621956,-0.026154372841119766,-0.013932859525084496,-15.700408935546875,-108.35552978515625,-312.05133056640625,-0.009884209372103214,-0.07568085193634033,0.007747858762741089,1.297864636717609,0.02778469990039399,-0.0731864895870851,0.007488555274903774,-0.9629848003387451,-0.26945146918296814,0.08942863345146179,0.046024564653635025,0.07741763442754745,Walking,,,,,,,
3009,Magnetometer,40.44396498968144,-79.9445099177162,286.1786575317383,194.06602478027344,15.245652198791504,0.007904052734375,98.13079833984375,-1.0,-1.0,N/A,0.0229034423828125,-0.9362640380859375,-0.2743988037109375,-0.03459419682621956,-0.026154372841119766,-0.013932859525084496,-17.7012939453125,-107.02638244628906,-311.81158447265625,-0.009884209372103214,-0.07568085193634033,0.007747858762741089,1.297864636717609,0.02778469990039399,-0.0731864895870851,0.007488555274903774,-0.9629848003387451,-0.26945146918296814,0.08942863345146179,0.046024564653635025,0.07741763442754745,Walking,,,,,,,
3033,Gyrometer,40.44396498968144,-79.9445099177162,286.1786575317383,194.06602478027344,15.245652198791504,0.007904052734375,98.13079833984375,-1.0,-1.0,N/A,0.0229034423828125,-0.9362640380859375,-0.2743988037109375,0.17782752215862274,0.0887804701924324,-0.0590827614068985,-17.7012939453125,-107.02638244628906,-311.81158447265625,-0.009884209372103214,-0.07568085193634033,0.007747858762741089,1.297864636717609,0.02778469990039399,-0.0731864895870851,0.007488555274903774,-0.9629848003387451,-0.26945146918296814,0.08942863345146179,0.046024564653635025,0.07741763442754745,Walking,,,,,,,
3057,Altimeter,40.44396498968144,-79.9445099177162,286.1786575317383,194.06602478027344,15.245652198791504,0.015838623046875,98.13069152832031,-1.0,-1.0,N/A,0.0229034423828125,-0.9362640380859375,-0.2743988037109375,0.17782752215862274,0.0887804701924324,-0.0590827614068985,-17.7012939453125,-107.02638244628906,-311.81158447265625,-0.009884209372103214,-0.07568085193634033,0.007747858762741089,1.297864636717609,0.02778469990039399,-0.0731864895870851,0.007488555274903774,-0.9629848003387451,-0.26945146918296814,0.08942863345146179,0.046024564653635025,0.07741763442754745,Walking,,,,,,,
3081,Accelerometer,40.44396498968144,-79.9445099177162,286.1786575317383,194.06602478027344,15.245652198791504,0.015838623046875,98.13069152832031,-1.0,-1.0,N/A,0.0291595458984375,-0.9650726318359375,-0.2987213134765625,0.17782752215862274,0.0887804701924324,-0.0590827614068985,-17.7012939453125,-107.02638244628906,-311.81158447265625,-0.009884209372103214,-0.07568085193634033,0.007747858762741089,1.297864636717609,0.02778469990039399,-0.0731864895870851,0.007488555274903774,-0.9629848003387451,-0.26945146918296814,0.08942863345146179,0.046024564653635025,0.07741763442754745,Walking,,,,,,,
3104,COMPASS,40.44396498968144,-79.9445099177162,286.1786575317383,193.03297424316406,15.248733520507812,0.015838623046875,98.13069152832031,-1.0,-1.0,N/A,0.0291595458984375,-0.9650726318359375,-0.2987213134765625,0.17782752215862274,0.0887804701924324,-0.0590827614068985,-17.7012939453125,-107.02638244628906,-311.81158447265625,-0.009884209372103214,-0.07568085193634033,0.007747858762741089,1.297864636717609,0.02778469990039399,-0.0731864895870851,0.007488555274903774,-0.9629848003387451,-0.26945146918296814,0.08942863345146179,0.046024564653635025,0.07741763442754745,Walking,,,,,,,
3144,COMPASS,40.44396498968144,-79.9445099177162,286.1786575317383,191.77716064453125,15.249165534973145,0.015838623046875,98.13069152832031,-1.0,-1.0,N/A,0.0291595458984375,-0.9650726318359375,-0.2987213134765625,0.17782752215862274,0.0887804701924324,-0.0590827614068985,-17.7012939453125,-107.02638244628906,-311.81158447265625,-0.009884209372103214,-0.07568085193634033,0.007747858762741089,1.297864636717609,0.02778469990039399,-0.0731864895870851,0.007488555274903774,-0.9629848003387451,-0.26945146918296814,0.08942863345146179,0.046024564653635025,0.07741763442754745,Walking,,,,,,,
3188,Device Motion,40.44396498968144,-79.9445099177162,286.1786575317383,191.77716064453125,15.249165534973145,0.015838623046875,98.13069152832031,-1.0,-1.0,N/A,0.0291595458984375,-0.9650726318359375,-0.2987213134765625,0.17782752215862274,0.0887804701924324,-0.0590827614068985,-17.7012939453125,-107.02638244628906,-311.81158447265625,0.04516571760177612,0.050970375537872314,0.0020036697387695312,1.3044647704238375,0.03786814116480463,-0.02971654825565144,0.009964288212358952,-0.96474289894104,-0.2630053758621216,-0.13486424088478088,0.06488335132598877,0.20516210794448853,Walking,,,,,,,
3212,COMPASS,40.44396498968144,-79.9445099177162,286.1786575317383,190.71189880371094,15.249662399291992,0.015838623046875,98.13069152832031,-1.0,-1.0,N/A,0.0291595458984375,-0.9650726318359375,-0.2987213134765625,0.17782752215862274,0.0887804701924324,-0.0590827614068985,-17.7012939453125,-107.02638244628906,-311.81158447265625,0.04516571760177612,0.050970375537872314,0.0020036697387695312,1.3044647704238375,0.03786814116480463,-0.02971654825565144,0.009964288212358952,-0.96474289894104,-0.2630053758621216,-0.13486424088478088,0.06488335132598877,0.20516210794448853,Walking,,,,,,,
3302,Magnetometer,40.44396498968144,-79.9445099177162,286.1786575317383,190.71189880371094,15.249662399291992,0.015838623046875,98.13069152832031,-1.0,-1.0,N/A,0.0291595458984375,-0.9650726318359375,-0.2987213134765625,0.17782752215862274,0.0887804701924324,-0.0590827614068985,-19.648513793945312,-105.19302368164062,-312.7069091796875,0.04516571760177612,0.050970375537872314,0.0020036697387695312,1.3044647704238375,0.03786814116480463,-0.02971654825565144,0.009964288212358952,-0.96474289894104,-0.2630053758621216,-0.13486424088478088,0.06488335132598877,0.20516210794448853,Walking,,,,,,,
3326,COMPASS,40.44396498968144,-79.9445099177162,286.1786575317383,189.6936798095703,15.25064468383789,0.015838623046875,98.13069152832031,-1.0,-1.0,N/A,0.0291595458984375,-0.9650726318359375,-0.2987213134765625,0.17782752215862274,0.0887804701924324,-0.0590827614068985,-19.648513793945312,-105.19302368164062,-312.7069091796875,0.04516571760177612,0.050970375537872314,0.0020036697387695312,1.3044647704238375,0.03786814116480463,-0.02971654825565144,0.009964288212358952,-0.96474289894104,-0.2630053758621216,-0.13486424088478088,0.06488335132598877,0.20516210794448853,Walking,,,,,,,
3351,Gyrometer,40.44396498968144,-79.9445099177162,286.1786575317383,189.6936798095703,15.25064468383789,0.015838623046875,98.13069152832031,-1.0,-1.0,N/A,0.0291595458984375,-0.9650726318359375,-0.2987213134765625,0.09246654808521271,0.07513496279716492,0.10478553175926208,-19.648513793945312,-105.19302368164062,-312.7069091796875,0.04516571760177612,0.050970375537872314,0.0020036697387695312,1.3044647704238375,0.03786814116480463,-0.02971654825565144,0.009964288212358952,-0.96474289894104,-0.2630053758621216,-0.13486424088478088,0.06488335132598877,0.20516210794448853,Walking,,,,,,,
3376,Accelerometer,40.44396498968144,-79.9445099177162,286.1786575317383,189.6936798095703,15.25064468383789,0.015838623046875,98.13069152832031,-1.0,-1.0,N/A,0.0225830078125,-0.904052734375,-0.2185821533203125,0.09246654808521271,0.07513496279716492,0.10478553175926208,-19.648513793945312,-105.19302368164062,-312.7069091796875,0.04516571760177612,0.050970375537872314,0.0020036697387695312,1.3044647704238375,0.03786814116480463,-0.02971654825565144,0.009964288212358952,-0.96474289894104,-0.2630053758621216,-0.13486424088478088,0.06488335132598877,0.20516210794448853,Walking,,,,,,,
3487,Device Motion,40.44396498968144,-79.9445099177162,286.1786575317383,189.6936798095703,15.25064468383789,0.015838623046875,98.13069152832031,-1.0,-1.0,N/A,0.0225830078125,-0.904052734375,-0.2185821533203125,0.09246654808521271,0.07513496279716492,0.10478553175926208,-19.648513793945312,-105.19302368164062,-312.7069091796875,0.03453165292739868,-0.07369637489318848,0.013164728879928589,1.295388644654487,0.002465136251048395,0.014627400595585389,0.0006703672115691006,-0.9623144268989563,-0.27193865180015564,-0.012751257978379726,-0.07856305688619614,-0.04056921973824501,Walking,,,,,,,
3603,Magnetometer,40.44396498968144,-79.9445099177162,286.1786575317383,189.6936798095703,15.25064468383789,0.015838623046875,98.13069152832031,-1.0,-1.0,N/A,0.0225830078125,-0.904052734375,-0.2185821533203125,0.09246654808521271,0.07513496279716492,0.10478553175926208,-21.488616943359375,-104.03456115722656,-313.4560852050781,0.03453165292739868,-0.07369637489318848,0.013164728879928589,1.295388644654487,0.002465136251048395,0.014627400595585389,0.0006703672115691006,-0.9623144268989563,-0.27193865180015564,-0.012751257978379726,-0.07856305688619614,-0.04056921973824501,Walking,,,,,,,
3627,COMPASS,40.44396498968144,-79.9445099177162,286.1786575317383,190.7369842529297,15.252485275268555,0.015838623046875,98.13069152832031,-1.0,-1.0,N/A,0.0225830078125,-0.904052734375,-0.2185821533203125,0.09246654808521271,0.07513496279716492,0.10478553175926208,-21.488616943359375,-104.03456115722656,-313.4560852050781,0.03453165292739868,-0.07369637489318848,0.013164728879928589,1.295388644654487,0.002465136251048395,0.014627400595585389,0.0006703672115691006,-0.9623144268989563,-0.27193865180015564,-0.012751257978379726,-0.07856305688619614,-0.04056921973824501,Walking,,,,,,,
3652,Gyrometer,40.44396498968144,-79.9445099177162,286.1786575317383,190.7369842529297,15.252485275268555,0.015838623046875,98.13069152832031,-1.0,-1.0,N/A,0.0225830078125,-0.904052734375,-0.2185821533203125,0.18209896981716156,-0.24744121730327606,0.05992884561419487,-21.488616943359375,-104.03456115722656,-313.4560852050781,0.03453165292739868,-0.07369637489318848,0.013164728879928589,1.295388644654487,0.002465136251048395,0.014627400595585389,0.0006703672115691006,-0.9623144268989563,-0.27193865180015564,-0.012751257978379726,-0.07856305688619614,-0.04056921973824501,Walking,,,,,,,
3676,Accelerometer,40.44396498968144,-79.9445099177162,286.1786575317383,190.7369842529297,15.252485275268555,0.015838623046875,98.13069152832031,-1.0,-1.0,N/A,-0.035308837890625,-0.9554595947265625,-0.34661865234375,0.18209896981716156,-0.24744121730327606,0.05992884561419487,-21.488616943359375,-104.03456115722656,-313.4560852050781,0.03453165292739868,-0.07369637489318848,0.013164728879928589,1.295388644654487,0.002465136251048395,0.014627400595585389,0.0006703672115691006,-0.9623144268989563,-0.27193865180015564,-0.012751257978379726,-0.07856305688619614,-0.04056921973824501,Walking,,,,,,,
3700,COMPASS,40.44396498968144,-79.9445099177162,286.1786575317383,191.82826232910156,15.252973556518555,0.015838623046875,98.13069152832031,-1.0,-1.0,N/A,-0.035308837890625,-0.9554595947265625,-0.34661865234375,0.18209896981716156,-0.24744121730327606,0.05992884561419487,-21.488616943359375,-104.03456115722656,-313.4560852050781,0.03453165292739868,-0.07369637489318848,0.013164728879928589,1.295388644654487,0.002465136251048395,0.014627400595585389,0.0006703672115691006,-0.9623144268989563,-0.27193865180015564,-0.012751257978379726,-0.07856305688619614,-0.04056921973824501,Walking,,,,,,,
3743,COMPASS,40.44396498968144,-79.9445099177162,286.1786575317383,193.04991149902344,15.253461837768555,0.015838623046875,98.13069152832031,-1.0,-1.0,N/A,-0.035308837890625,-0.9554595947265625,-0.34661865234375,0.18209896981716156,-0.24744121730327606,0.05992884561419487,-21.488616943359375,-104.03456115722656,-313.4560852050781,0.03453165292739868,-0.07369637489318848,0.013164728879928589,1.295388644654487,0.002465136251048395,0.014627400595585389,0.0006703672115691006,-0.9623144268989563,-0.27193865180015564,-0.012751257978379726,-0.07856305688619614,-0.04056921973824501,Walking,,,,,,,
3786,Device Motion,40.44396498968144,-79.9445099177162,286.1786575317383,193.04991149902344,15.253461837768555,0.015838623046875,98.13069152832031,-1.0,-1.0,N/A,-0.035308837890625,-0.9554595947265625,-0.34661865234375,0.18209896981716156,-0.24744121730327606,0.05992884561419487,-21.488616943359375,-104.03456115722656,-313.4560852050781,-0.06261217594146729,0.034779906272888184,-0.003968417644500732,1.3175900683602377,-0.007470749857042743,-0.04840567358407557,-0.0018714765319600701,-0.9681141972541809,-0.2505025267601013,0.09513206779956818,-0.17924833297729492,-0.12837658822536469,Walking,,,,,,,
3810,COMPASS,40.44396498968144,-79.9445099177162,286.1786575317383,194.1947021484375,15.253952026367188,0.015838623046875,98.13069152832031,-1.0,-1.0,N/A,-0.035308837890625,-0.9554595947265625,-0.34661865234375,0.18209896981716156,-0.24744121730327606,0.05992884561419487,-21.488616943359375,-104.03456115722656,-313.4560852050781,-0.06261217594146729,0.034779906272888184,-0.003968417644500732,1.3175900683602377,-0.007470749857042743,-0.04840567358407557,-0.0018714765319600701,-0.9681141972541809,-0.2505025267601013,0.09513206779956818,-0.17924833297729492,-0.12837658822536469,Walking,,,,,,,
3901,Magnetometer,40.44396498968144,-79.9445099177162,286.1786575317383,194.1947021484375,15.253952026367188,0.015838623046875,98.13069152832031,-1.0,-1.0,N/A,-0.035308837890625,-0.9554595947265625,-0.34661865234375,0.18209896981716156,-0.24744121730327606,0.05992884561419487,-21.691650390625,-101.71943664550781,-315.2422180175781,-0.06261217594146729,0.034779906272888184,-0.003968417644500732,1.3175900683602377,-0.007470749857042743,-0.04840567358407557,-0.0018714765319600701,-0.9681141972541809,-0.2505025267601013,0.09513206779956818,-0.17924833297729492,-0.12837658822536469,Walking,,,,,,,
3926,Gyrometer,40.44396498968144,-79.9445099177162,286.1786575317383,194.1947021484375,15.253952026367188,0.015838623046875,98.13069152832031,-1.0,-1.0,N/A,-0.035308837890625,-0.9554595947265625,-0.34661865234375,-0.2701478600502014,-0.13886280357837677,-0.047211721539497375,-21.691650390625,-101.71943664550781,-315.2422180175781,-0.06261217594146729,0.034779906272888184,-0.003968417644500732,1.3175900683602377,-0.007470749857042743,-0.04840567358407557,-0.0018714765319600701,-0.9681141972541809,-0.2505025267601013,0.09513206779956818,-0.17924833297729492,-0.12837658822536469,Walking,,,,,,,
3962,Accelerometer,40.44396498968144,-79.9445099177162,286.1786575317383,194.1947021484375,15.253952026367188,0.015838623046875,98.13069152832031,-1.0,-1.0,N/A,-0.0217742919921875,-0.9014739990234375,-0.2476959228515625,-0.2701478600502014,-0.13886280357837677,-0.047211721539497375,-21.691650390625,-101.71943664550781,-315.2422180175781,-0.06261217594146729,0.034779906272888184,-0.003968417644500732,1.3175900683602377,-0.007470749857042743,-0.04840567358407557,-0.0018714765319600701,-0.9681141972541809,-0.2505025267601013,0.09513206779956818,-0.17924833297729492,-0.12837658822536469,Walking,,,,,,,
3989,COMPASS,40.44396498968144,-79.9445099177162,286.1786575317383,195.27931213378906,15.255265235900879,0.015838623046875,98.13069152832031,-1.0,-1.0,N/A,-0.0217742919921875,-0.9014739990234375,-0.2476959228515625,-0.2701478600502014,-0.13886280357837677,-0.047211721539497375,-21.691650390625,-101.71943664550781,-315.2422180175781,-0.06261217594146729,0.034779906272888184,-0.003968417644500732,1.3175900683602377,-0.007470749857042743,-0.04840567358407557,-0.0018714765319600701,-0.9681141972541809,-0.2505025267601013,0.09513206779956818,-0.17924833297729492,-0.12837658822536469,Walking,,,,,,,
4047,Altimeter,40.44396498968144,-79.9445099177162,286.1786575317383,195.27931213378906,15.255265235900879,0.026397705078125,98.13057708740234,-1.0,-1.0,N/A,-0.0217742919921875,-0.9014739990234375,-0.2476959228515625,-0.2701478600502014,-0.13886280357837677,-0.047211721539497375,-21.691650390625,-101.71943664550781,-315.2422180175781,-0.06261217594146729,0.034779906272888184,-0.003968417644500732,1.3175900683602377,-0.007470749857042743,-0.04840567358407557,-0.0018714765319600701,-0.9681141972541809,-0.2505025267601013,0.09513206779956818,-0.17924833297729492,-0.12837658822536469,Walking,,,,,,,
4086,Device Motion,40.44396498968144,-79.9445099177162,286.1786575317383,195.27931213378906,15.255265235900879,0.026397705078125,98.13057708740234,-1.0,-1.0,N/A,-0.0217742919921875,-0.9014739990234375,-0.2476959228515625,-0.2701478600502014,-0.13886280357837677,-0.047211721539497375,-21.691650390625,-101.71943664550781,-315.2422180175781,-0.04944127798080444,-0.043910443782806396,-0.007554858922958374,1.2743980024013384,0.04176325560548611,-0.09969678969134908,0.012194555252790451,-0.9563946723937988,-0.2918226718902588,0.003900292795151472,0.06392361223697662,0.17149122059345245,Walking,,,,,,,
4122,COMPASS,40.44396498968144,-79.9445099177162,286.1786575317383,194.24668884277344,15.256051063537598,0.026397705078125,98.13057708740234,-1.0,-1.0,N/A,-0.0217742919921875,-0.9014739990234375,-0.2476959228515625,-0.2701478600502014,-0.13886280357837677,-0.047211721539497375,-21.691650390625,-101.71943664550781,-315.2422180175781,-0.04944127798080444,-0.043910443782806396,-0.007554858922958374,1.2743980024013384,0.04176325560548611,-0.09969678969134908,0.012194555252790451,-0.9563946723937988,-0.2918226718902588,0.003900292795151472,0.06392361223697662,0.17149122059345245,Walking,,,,,,,
4201,Magnetometer,40.44396498968144,-79.9445099177162,286.1786575317383,194.24668884277344,15.256051063537598,0.026397705078125,98.13057708740234,-1.0,-1.0,N/A,-0.0217742919921875,-0.9014739990234375,-0.2476959228515625,-0.2701478600502014,-0.13886280357837677,-0.047211721539497375,-23.904449462890625,-99.27955627441406,-315.6046142578125,-0.04944127798080444,-0.043910443782806396,-0.007554858922958374,1.2743980024013384,0.04176325560548611,-0.09969678969134908,0.012194555252790451,-0.9563946723937988,-0.2918226718902588,0.003900292795151472,0.06392361223697662,0.17149122059345245,Walking,,,,,,,
4225,COMPASS,40.44396498968144,-79.9445099177162,286.1786575317383,193.05905151367188,15.256245613098145,0.026397705078125,98.13057708740234,-1.0,-1.0,N/A,-0.0217742919921875,-0.9014739990234375,-0.2476959228515625,-0.2701478600502014,-0.13886280357837677,-0.047211721539497375,-23.904449462890625,-99.27955627441406,-315.6046142578125,-0.04944127798080444,-0.043910443782806396,-0.007554858922958374,1.2743980024013384,0.04176325560548611,-0.09969678969134908,0.012194555252790451,-0.9563946723937988,-0.2918226718902588,0.003900292795151472,0.06392361223697662,0.17149122059345245,Walking,,,,,,,
4250,Gyrometer,40.44396498968144,-79.9445099177162,286.1786575317383,193.05905151367188,15.256245613098145,0.026397705078125,98.13057708740234,-1.0,-1.0,N/A,-0.0217742919921875,-0.9014739990234375,-0.2476959228515625,0.33337637782096863,0.23831216990947723,0.1076367124915123,-23.904449462890625,-99.27955627441406,-315.6046142578125,-0.04944127798080444,-0.043910443782806396,-0.007554858922958374,1.2743980024013384,0.04176325560548611,-0.09969678969134908,0.012194555252790451,-0.9563946723937988,-0.2918226718902588,0.003900292795151472,0.06392361223697662,0.17149122059345245,Walking,,,,,,,
4274,COMPASS,40.44396498968144,-79.9445099177162,286.1786575317383,191.8156280517578,15.256708145141602,0.026397705078125,98.13057708740234,-1.0,-1.0,N/A,-0.0217742919921875,-0.9014739990234375,-0.2476959228515625,0.33337637782096863,0.23831216990947723,0.1076367124915123,-23.904449462890625,-99.27955627441406,-315.6046142578125,-0.04944127798080444,-0.043910443782806396,-0.007554858922958374,1.2743980024013384,0.04176325560548611,-0.09969678969134908,0.012194555252790451,-0.9563946723937988,-0.2918226718902588,0.003900292795151472,0.06392361223697662,0.17149122059345245,Walking,,,,,,,
4299,Accelerometer,40.44396498968144,-79.9445099177162,286.1786575317383,191.8156280517578,15.256708145141602,0.026397705078125,98.13057708740234,-1.0,-1.0,N/A,0.0454864501953125,-1.0725555419921875,-0.26446533203125,0.33337637782096863,0.23831216990947723,0.1076367124915123,-23.904449462890625,-99.27955627441406,-315.6046142578125,-0.04944127798080444,-0.043910443782806396,-0.007554858922958374,1.2743980024013384,0.04176325560548611,-0.09969678969134908,0.012194555252790451,-0.9563946723937988,-0.2918226718902588,0.003900292795151472,0.06392361223697662,0.17149122059345245,Walking,,,,,,,
4381,COMPASS,40.44396498968144,-79.9445099177162,286.1786575317383,190.59129333496094,15.25765609741211,0.026397705078125,98.13057708740234,-1.0,-1.0,N/A,0.0454864501953125,-1.0725555419921875,-0.26446533203125,0.33337637782096863,0.23831216990947723,0.1076367124915123,-23.904449462890625,-99.27955627441406,-315.6046142578125,-0.04944127798080444,-0.043910443782806396,-0.007554858922958374,1.2743980024013384,0.04176325560548611,-0.09969678969134908,0.012194555252790451,-0.9563946723937988,-0.2918226718902588,0.003900292795151472,0.06392361223697662,0.17149122059345245,Walking,,,,,,,
4406,Device Motion,40.44396498968144,-79.9445099177162,286.1786575317383,190.59129333496094,15.25765609741211,0.026397705078125,98.13057708740234,-1.0,-1.0,N/A,0.0454864501953125,-1.0725555419921875,-0.26446533203125,0.33337637782096863,0.23831216990947723,0.1076367124915123,-23.904449462890625,-99.27955627441406,-315.6046142578125,0.06274774670600891,0.030982494354248047,-0.04318755865097046,1.284608998608878,-0.0327743691646014,0.03075019793104473,-0.009250442497432232,-0.9593271613121033,-0.2821451723575592,-0.060811448842287064,0.19774578511714935,0.05355588346719742,Walking,,,,,,,
4500,Magnetometer,40.44396498968144,-79.9445099177162,286.1786575317383,190.59129333496094,15.25765609741211,0.026397705078125,98.13057708740234,-1.0,-1.0,N/A,0.0454864501953125,-1.0725555419921875,-0.26446533203125,0.33337637782096863,0.23831216990947723,0.1076367124915123,-24.477554321289062,-97.76593017578125,-317.84832763671875,0.06274774670600891,0.030982494354248047,-0.04318755865097046,1.284608998608878,-0.0327743691646014,0.03075019793104473,-0.009250442497432232,-0.9593271613121033,-0.2821451723575592,-0.060811448842287064,0.19774578511714935,0.05355588346719742,Walking,,,,,,,
4525,Gyrometer,40.44396498968144,-79.9445099177162,286.1786575317383,190.59129333496094,15.25765609741211,0.026397705078125,98.13057708740234,-1.0,-1.0,N/A,0.0454864501953125,-1.0725555419921875,-0.26446533203125,-0.2560301721096039,0.1566343456506729,-0.0873255804181099,-24.477554321289062,-97.76593017578125,-317.84832763671875,0.06274774670600891,0.030982494354248047,-0.04318755865097046,1.284608998608878,-0.0327743691646014,0.03075019793104473,-0.009250442497432232,-0.9593271613121033,-0.2821451723575592,-0.060811448842287064,0.19774578511714935,0.05355588346719742,Walking,,,,,,,
4568,Accelerometer,40.44396498968144,-79.9445099177162,286.1786575317383,190.59129333496094,15.25765609741211,0.026397705078125,98.13057708740234,-1.0,-1.0,N/A,-0.0013275146484375,-0.8816986083984375,-0.2709503173828125,-0.2560301721096039,0.1566343456506729,-0.0873255804181099,-24.477554321289062,-97.76593017578125,-317.84832763671875,0.06274774670600891,0.030982494354248047,-0.04318755865097046,1.284608998608878,-0.0327743691646014,0.03075019793104473,-0.009250442497432232,-0.9593271613121033,-0.2821451723575592,-0.060811448842287064,0.19774578511714935,0.05355588346719742,Walking,,,,,,,
4684,Device Motion,40.44396498968144,-79.9445099177162,286.1786575317383,190.59129333496094,15.25765609741211,0.026397705078125,98.13057708740234,-1.0,-1.0,N/A,-0.0013275146484375,-0.8816986083984375,-0.2709503173828125,-0.2560301721096039,0.1566343456506729,-0.0873255804181099,-24.477554321289062,-97.76593017578125,-317.84832763671875,0.05972409248352051,0.004593372344970703,0.009021520614624023,1.257061339898249,-0.0022782188551122773,0.009804983002244447,-0.0007030884735286236,-0.9511875510215759,-0.3086127042770386,-0.0064894952811300755,-0.18324218690395355,-0.10192595422267914,Walking,,,,,,,
4760,COMPASS,40.44396498968144,-79.9445099177162,286.1786575317383,191.6110382080078,15.259734153747559,0.026397705078125,98.13057708740234,-1.0,-1.0,N/A,-0.0013275146484375,-0.8816986083984375,-0.2709503173828125,-0.2560301721096039,0.1566343456506729,-0.0873255804181099,-24.477554321289062,-97.76593017578125,-317.84832763671875,0.05972409248352051,0.004593372344970703,0.009021520614624023,1.257061339898249,-0.0022782188551122773,0.009804983002244447,-0.0007030884735286236,-0.9511875510215759,-0.3086127042770386,-0.0064894952811300755,-0.18324218690395355,-0.10192595422267914,Walking,,,,,,,
4800,Magnetometer,40.44396498968144,-79.9445099177162,286.1786575317383,191.6110382080078,15.259734153747559,0.026397705078125,98.13057708740234,-1.0,-1.0,N/A,-0.0013275146484375,-0.8816986083984375,-0.2709503173828125,-0.2560301721096039,0.1566343456506729,-0.0873255804181099,-24.529922485351562,-97.65234375,-320.8045959472656,0.05972409248352051,0.004593372344970703,0.009021520614624023,1.257061339898249,-0.0022782188551122773,0.009804983002244447,-0.0007030884735286236,-0.9511875510215759,-0.3086127042770386,-0.0064894952811300755,-0.18324218690395355,-0.10192595422267914,Walking,,,,,,,
4823,Gyrometer,40.44396498968144,-79.9445099177162,286.1786575317383,191.6110382080078,15.259734153747559,0.026397705078125,98.13057708740234,-1.0,-1.0,N/A,-0.0013275146484375,-0.8816986083984375,-0.2709503173828125,0.039320774376392365,-0.19074411690235138,-0.07518023997545242,-24.529922485351562,-97.65234375,-320.8045959472656,0.05972409248352051,0.004593372344970703,0.009021520614624023,1.257061339898249,-0.0022782188551122773,0.009804983002244447,-0.0007030884735286236,-0.9511875510215759,-0.3086127042770386,-0.0064894952811300755,-0.18324218690395355,-0.10192595422267914,Walking,,,,,,,
4860,COMPASS,40.44396498968144,-79.9445099177162,286.1786575317383,193.04559326171875,15.260196685791016,0.026397705078125,98.13057708740234,-1.0,-1.0,N/A,-0.0013275146484375,-0.8816986083984375,-0.2709503173828125,0.039320774376392365,-0.19074411690235138,-0.07518023997545242,-24.529922485351562,-97.65234375,-320.8045959472656,0.05972409248352051,0.004593372344970703,0.009021520614624023,1.257061339898249,-0.0022782188551122773,0.009804983002244447,-0.0007030884735286236,-0.9511875510215759,-0.3086127042770386,-0.0064894952811300755,-0.18324218690395355,-0.10192595422267914,Walking,,,,,,,
