Timestamp (ms),Triggering Sensor,Latitude,Longitude,Altitude,Heading (degrees),Heading accuracy (degrees),Relative Altitude (m),Pressure (kPa),Speed (m/s),Speed Accuracy (m/s),Floor,Acceleration - X axis,Acceleration - Y axis,Acceleration - Z axis,Gyrometer - X axis,Gyrometer - Y axis,Gyrometer - Z axis,Magnetometer - X axis,Magnetometer - Y axis,Magnetometer - Z axis,User acceleration - X axis,User acceleration - Y axis,User acceleration - Z axis,Attitude Pitch,Attitude Roll,Attitude Yaw,Gravity - X axis,Gravity - Y axis,Gravity - Z axis,Rotation Rate - X axis,Rotation Rate - Y axis,Rotation Rate - Z axis,Activity Type,Number of Steps,Distance,Floors Ascended,Floors Descended,Current Pace,Current Cadence,Average Active Pace
12,Accelerometer,,,,,,,,,,,-0.0003814697265625,-0.969512939453125,-0.24310302734375,,,,,,,,,,,,,,,,,,,,,,,,,,
47,COMPASS,,,,211.40057373046875,16.607370376586914,,,,,,-0.0003814697265625,-0.969512939453125,-0.24310302734375,,,,,,,,,,,,,,,,,,,,,,,,,,
83,Gyrometer,,,,211.40057373046875,16.607370376586914,,,,,,-0.0003814697265625,-0.969512939453125,-0.24310302734375,-0.05037076398730278,-0.03887389600276947,0.030429277569055557,,,,,,,,,,,,,,,,,,,,,,,
111,Magnetometer,,,,211.40057373046875,16.607370376586914,,,,,,-0.0003814697265625,-0.969512939453125,-0.24310302734375,-0.05037076398730278,-0.03887389600276947,0.030429277569055557,-24.932159423828125,-106.44514465332031,-313.77587890625,,,,,,,,,,,,,,,,,,,,
143,Activity Manager,,,,211.40057373046875,16.607370376586914,,,,,,-0.0003814697265625,-0.969512939453125,-0.24310302734375,-0.05037076398730278,-0.03887389600276947,0.030429277569055557,-24.932159423828125,-106.44514465332031,-313.77587890625,,,,,,,,,,,,,Walking,,,,,,,
176,Activity Manager,,,,211.40057373046875,16.607370376586914,,,,,,-0.0003814697265625,-0.969512939453125,-0.24310302734375,-0.05037076398730278,-0.03887389600276947,0.030429277569055557,-24.932159423828125,-106.44514465332031,-313.77587890625,,,,,,,,,,,,,Walking,,,,,,,
246,Device Motion,,,,211.40057373046875,16.607370376586914,,,,,,-0.0003814697265625,-0.969512939453125,-0.24310302734375,-0.05037076398730278,-0.03887389600276947,0.030429277569055557,-24.932159423828125,-106.44514465332031,-313.77587890625,-0.006470412015914917,-0.004503130912780762,0.006039142608642578,1.31738004118384,0.010653761774076797,-0.008246126080207306,0.0026709837839007378,-0.9680615663528442,-0.2506985664367676,-0.018361197784543037,0.030794374644756317,0.021677996963262558,Walking,,,,,,,
303,Gyrometer,,,,211.40057373046875,16.607370376586914,,,,,,-0.0003814697265625,-0.969512939453125,-0.24310302734375,0.010102701373398304,0.03774791210889816,0.03182291239500046,-24.932159423828125,-106.44514465332031,-313.77587890625,-0.006470412015914917,-0.004503130912780762,0.006039142608642578,1.31738004118384,0.010653761774076797,-0.008246126080207306,0.0026709837839007378,-0.9680615663528442,-0.2506985664367676,-0.018361197784543037,0.030794374644756317,0.021677996963262558,Walking,,,,,,,
334,Accelerometer,,,,211.40057373046875,16.607370376586914,,,,,,0.003509521484375,-0.9601898193359375,-0.218475341796875,0.010102701373398304,0.03774791210889816,0.03182291239500046,-24.932159423828125,-106.44514465332031,-313.77587890625,-0.006470412015914917,-0.004503130912780762,0.006039142608642578,1.31738004118384,0.010653761774076797,-0.008246126080207306,0.0026709837839007378,-0.9680615663528442,-0.2506985664367676,-0.018361197784543037,0.030794374644756317,0.021677996963262558,Walking,,,,,,,
367,Magnetometer,,,,211.40057373046875,16.607370376586914,,,,,,0.003509521484375,-0.9601898193359375,-0.218475341796875,0.010102701373398304,0.03774791210889816,0.03182291239500046,-24.521087646484375,-106.54989624023438,-313.30157470703125,-0.006470412015914917,-0.004503130912780762,0.006039142608642578,1.31738004118384,0.010653761774076797,-0.008246126080207306,0.0026709837839007378,-0.9680615663528442,-0.2506985664367676,-0.018361197784543037,0.030794374644756317,0.021677996963262558,Walking,,,,,,,
468,COMPASS,,,,210.29067993164062,16.602222442626953,,,,,,0.003509521484375,-0.9601898193359375,-0.218475341796875,0.010102701373398304,0.03774791210889816,0.03182291239500046,-24.521087646484375,-106.54989624023438,-313.30157470703125,-0.006470412015914917,-0.004503130912780762,0.006039142608642578,1.31738004118384,0.010653761774076797,-0.008246126080207306,0.0026709837839007378,-0.9680615663528442,-0.2506985664367676,-0.018361197784543037,0.030794374644756317,0.021677996963262558,Walking,,,,,,,
545,Device Motion,,,,210.29067993164062,16.602222442626953,,,,,,0.003509521484375,-0.9601898193359375,-0.218475341796875,0.010102701373398304,0.03774791210889816,0.03182291239500046,-24.521087646484375,-106.54989624023438,-313.30157470703125,0.010528176091611385,-0.0014088153839111328,0.020336896181106567,1.3250901136450874,-0.02810553600254403,0.043001921630861,-0.006835542153567076,-0.9699658155441284,-0.24314576387405396,-0.02267119660973549,-0.026813114061951637,0.009906736202538013,Walking,,,,,,,
604,Gyrometer,,,,210.29067993164062,16.602222442626953,,,,,,0.003509521484375,-0.9601898193359375,-0.218475341796875,-0.06864164769649506,0.05049779638648033,0.02851792797446251,-24.521087646484375,-106.54989624023438,-313.30157470703125,0.010528176091611385,-0.0014088153839111328,0.020336896181106567,1.3250901136450874,-0.02810553600254403,0.043001921630861,-0.006835542153567076,-0.9699658155441284,-0.24314576387405396,-0.02267119660973549,-0.026813114061951637,0.009906736202538013,Walking,,,,,,,
640,Magnetometer,,,,210.29067993164062,16.602222442626953,,,,,,0.003509521484375,-0.9601898193359375,-0.218475341796875,-0.06864164769649506,0.05049779638648033,0.02851792797446251,-25.584182739257812,-106.66900634765625,-313.69927978515625,0.010528176091611385,-0.0014088153839111328,0.020336896181106567,1.3250901136450874,-0.02810553600254403,0.043001921630861,-0.006835542153567076,-0.9699658155441284,-0.24314576387405396,-0.02267119660973549,-0.026813114061951637,0.009906736202538013,Walking,,,,,,,
673,Accelerometer,,,,210.29067993164062,16.602222442626953,,,,,,0.0106658935546875,-0.99481201171875,-0.21307373046875,-0.06864164769649506,0.05049779638648033,0.02851792797446251,-25.584182739257812,-106.66900634765625,-313.69927978515625,0.010528176091611385,-0.0014088153839111328,0.020336896181106567,1.3250901136450874,-0.02810553600254403,0.043001921630861,-0.006835542153567076,-0.9699658155441284,-0.24314576387405396,-0.02267119660973549,-0.026813114061951637,0.009906736202538013,Walking,,,,,,,
705,Activity Manager,,,,210.29067993164062,16.602222442626953,,,,,,0.0106658935546875,-0.99481201171875,-0.21307373046875,-0.06864164769649506,0.05049779638648033,0.02851792797446251,-25.584182739257812,-106.66900634765625,-313.69927978515625,0.010528176091611385,-0.0014088153839111328,0.020336896181106567,1.3250901136450874,-0.02810553600254403,0.043001921630861,-0.006835542153567076,-0.9699658155441284,-0.24314576387405396,-0.02267119660973549,-0.026813114061951637,0.009906736202538013,Stationary,,,,,,,
845,Device Motion,,,,210.29067993164062,16.602222442626953,,,,,,0.0106658935546875,-0.99481201171875,-0.21307373046875,-0.06864164769649506,0.05049779638648033,0.02851792797446251,-25.584182739257812,-106.66900634765625,-313.69927978515625,0.030770808458328247,0.0036358237266540527,0.05130651593208313,1.3095493776101554,-0.0428793548110259,0.056081824681783125,-0.011071710847318172,-0.966068685054779,-0.25804784893989563,-0.1287078708410263,-0.04989318922162056,0.004463497549295425,Stationary,,,,,,,
904,Gyrometer,,,,210.29067993164062,16.602222442626953,,,,,,0.0106658935546875,-0.99481201171875,-0.21307373046875,-0.026098445057868958,-0.04866447299718857,-0.0035398737527430058,-25.584182739257812,-106.66900634765625,-313.69927978515625,0.030770808458328247,0.0036358237266540527,0.05130651593208313,1.3095493776101554,-0.0428793548110259,0.056081824681783125,-0.011071710847318172,-0.966068685054779,-0.25804784893989563,-0.1287078708410263,-0.04989318922162056,0.004463497549295425,Stationary,,,,,,,
942,Magnetometer,,,,210.29067993164062,16.602222442626953,,,,,,0.0106658935546875,-0.99481201171875,-0.21307373046875,-0.026098445057868958,-0.04866447299718857,-0.0035398737527430058,-24.998580932617188,-107.29795837402344,-313.60791015625,0.030770808458328247,0.0036358237266540527,0.05130651593208313,1.3095493776101554,-0.0428793548110259,0.056081824681783125,-0.011071710847318172,-0.966068685054779,-0.25804784893989563,-0.1287078708410263,-0.04989318922162056,0.004463497549295425,Stationary,,,,,,,
975,Accelerometer,,,,210.29067993164062,16.602222442626953,,,,,,0.0070953369140625,-0.9799652099609375,-0.2066497802734375,-0.026098445057868958,-0.04866447299718857,-0.0035398737527430058,-24.998580932617188,-107.29795837402344,-313.60791015625,0.030770808458328247,0.0036358237266540527,0.05130651593208313,1.3095493776101554,-0.0428793548110259,0.056081824681783125,-0.011071710847318172,-0.966068685054779,-0.25804784893989563,-0.1287078708410263,-0.04989318922162056,0.004463497549295425,Stationary,,,,,,,
1008,Activity Manager,,,,210.29067993164062,16.602222442626953,,,,,,0.0070953369140625,-0.9799652099609375,-0.2066497802734375,-0.026098445057868958,-0.04866447299718857,-0.0035398737527430058,-24.998580932617188,-107.29795837402344,-313.60791015625,0.030770808458328247,0.0036358237266540527,0.05130651593208313,1.3095493776101554,-0.0428793548110259,0.056081824681783125,-0.011071710847318172,-0.966068685054779,-0.25804784893989563,-0.1287078708410263,-0.04989318922162056,0.004463497549295425,Walking,,,,,,,
1042,Altimeter,,,,210.29067993164062,16.602222442626953,0,98.18656921386719,,,,0.0070953369140625,-0.9799652099609375,-0.2066497802734375,-0.026098445057868958,-0.04866447299718857,-0.0035398737527430058,-24.998580932617188,-107.29795837402344,-313.60791015625,0.030770808458328247,0.0036358237266540527,0.05130651593208313,1.3095493776101554,-0.0428793548110259,0.056081824681783125,-0.011071710847318172,-0.966068685054779,-0.25804784893989563,-0.1287078708410263,-0.04989318922162056,0.004463497549295425,Walking,,,,,,,
1075,COMPASS,,,,211.3259735107422,16.598176956176758,0,98.18656921386719,,,,0.0070953369140625,-0.9799652099609375,-0.2066497802734375,-0.026098445057868958,-0.04866447299718857,-0.0035398737527430058,-24.998580932617188,-107.29795837402344,-313.60791015625,0.030770808458328247,0.0036358237266540527,0.05130651593208313,1.3095493776101554,-0.0428793548110259,0.056081824681783125,-0.011071710847318172,-0.966068685054779,-0.25804784893989563,-0.1287078708410263,-0.04989318922162056,0.004463497549295425,Walking,,,,,,,
1144,Device Motion,,,,211.3259735107422,16.598176956176758,0,98.18656921386719,,,,0.0070953369140625,-0.9799652099609375,-0.2066497802734375,-0.026098445057868958,-0.04866447299718857,-0.0035398737527430058,-24.998580932617188,-107.29795837402344,-313.60791015625,0.0007530748844146729,-0.04071080684661865,0.009952425956726074,1.3109534613525524,-0.026392804272055564,0.010391930305925957,-0.0067802914418280125,-0.9664303660392761,-0.2568396031856537,0.058180779218673706,-0.004611139185726643,-0.011996698565781116,Walking,,,,,,,
1204,Gyrometer,,,,211.3259735107422,16.598176956176758,0,98.18656921386719,,,,0.0070953369140625,-0.9799652099609375,-0.2066497802734375,0.063603475689888,0.030782679095864296,0.06900676339864731,-24.998580932617188,-107.29795837402344,-313.60791015625,0.0007530748844146729,-0.04071080684661865,0.009952425956726074,1.3109534613525524,-0.026392804272055564,0.010391930305925957,-0.0067802914418280125,-0.9664303660392761,-0.2568396031856537,0.058180779218673706,-0.004611139185726643,-0.011996698565781116,Walking,,,,,,,
1238,Magnetometer,,,,211.3259735107422,16.598176956176758,0,98.18656921386719,,,,0.0070953369140625,-0.9799652099609375,-0.2066497802734375,0.063603475689888,0.030782679095864296,0.06900676339864731,-24.97955322265625,-107.97203063964844,-313.23651123046875,0.0007530748844146729,-0.04071080684661865,0.009952425956726074,1.3109534613525524,-0.026392804272055564,0.010391930305925957,-0.0067802914418280125,-0.9664303660392761,-0.2568396031856537,0.058180779218673706,-0.004611139185726643,-0.011996698565781116,Walking,,,,,,,
1268,Accelerometer,,,,211.3259735107422,16.598176956176758,0,98.18656921386719,,,,0.0019989013671875,-0.9651641845703125,-0.225555419921875,0.063603475689888,0.030782679095864296,0.06900676339864731,-24.97955322265625,-107.97203063964844,-313.23651123046875,0.0007530748844146729,-0.04071080684661865,0.009952425956726074,1.3109534613525524,-0.026392804272055564,0.010391930305925957,-0.0067802914418280125,-0.9664303660392761,-0.2568396031856537,0.058180779218673706,-0.004611139185726643,-0.011996698565781116,Walking,,,,,,,
1344,COMPASS,,,,212.35816955566406,16.597692489624023,0,98.18656921386719,,,,0.0019989013671875,-0.9651641845703125,-0.225555419921875,0.063603475689888,0.030782679095864296,0.06900676339864731,-24.97955322265625,-107.97203063964844,-313.23651123046875,0.0007530748844146729,-0.04071080684661865,0.009952425956726074,1.3109534613525524,-0.026392804272055564,0.010391930305925957,-0.0067802914418280125,-0.9664303660392761,-0.2568396031856537,0.058180779218673706,-0.004611139185726643,-0.011996698565781116,Walking,,,,,,,
1426,COMPASS,,,,213.40159606933594,16.597551345825195,0,98.18656921386719,,,,0.0019989013671875,-0.9651641845703125,-0.225555419921875,0.063603475689888,0.030782679095864296,0.06900676339864731,-24.97955322265625,-107.97203063964844,-313.23651123046875,0.0007530748844146729,-0.04071080684661865,0.009952425956726074,1.3109534613525524,-0.026392804272055564,0.010391930305925957,-0.0067802914418280125,-0.9664303660392761,-0.2568396031856537,0.058180779218673706,-0.004611139185726643,-0.011996698565781116,Walking,,,,,,,
1463,Device Motion,,,,213.40159606933594,16.597551345825195,0,98.18656921386719,,,,0.0019989013671875,-0.9651641845703125,-0.225555419921875,0.063603475689888,0.030782679095864296,0.06900676339864731,-24.97955322265625,-107.97203063964844,-313.23651123046875,-9.849667549133301e-05,0.05055117607116699,-0.014081835746765137,1.3329444286259953,0.004692238640537326,-0.045848173299037745,0.0011055604554712772,-0.971846342086792,-0.23561298847198486,0.0062371413223445415,-0.16433709859848022,-0.06337089091539383,Walking,,,,,,,
1505,Gyrometer,,,,213.40159606933594,16.597551345825195,0,98.18656921386719,,,,0.0019989013671875,-0.9651641845703125,-0.225555419921875,-0.003608316881582141,-0.1821809858083725,-0.046544067561626434,-24.97955322265625,-107.97203063964844,-313.23651123046875,-9.849667549133301e-05,0.05055117607116699,-0.014081835746765137,1.3329444286259953,0.004692238640537326,-0.045848173299037745,0.0011055604554712772,-0.971846342086792,-0.23561298847198486,0.0062371413223445415,-0.16433709859848022,-0.06337089091539383,Walking,,,,,,,
1541,COMPASS,,,,214.47950744628906,16.597476959228516,0,98.18656921386719,,,,0.0019989013671875,-0.9651641845703125,-0.225555419921875,-0.003608316881582141,-0.1821809858083725,-0.046544067561626434,-24.97955322265625,-107.97203063964844,-313.23651123046875,-9.849667549133301e-05,0.05055117607116699,-0.014081835746765137,1.3329444286259953,0.004692238640537326,-0.045848173299037745,0.0011055604554712772,-0.971846342086792,-0.23561298847198486,0.0062371413223445415,-0.16433709859848022,-0.06337089091539383,Walking,,,,,,,
1572,Magnetometer,,,,214.47950744628906,16.597476959228516,0,98.18656921386719,,,,0.0019989013671875,-0.9651641845703125,-0.225555419921875,-0.003608316881582141,-0.1821809858083725,-0.046544067561626434,-24.401168823242188,-108.37548828125,-311.86810302734375,-9.849667549133301e-05,0.05055117607116699,-0.014081835746765137,1.3329444286259953,0.004692238640537326,-0.045848173299037745,0.0011055604554712772,-0.971846342086792,-0.23561298847198486,0.0062371413223445415,-0.16433709859848022,-0.06337089091539383,Walking,,,,,,,
1602,Accelerometer,,,,214.47950744628906,16.597476959228516,0,98.18656921386719,,,,-0.0207061767578125,-0.9757537841796875,-0.2671661376953125,-0.003608316881582141,-0.1821809858083725,-0.046544067561626434,-24.401168823242188,-108.37548828125,-311.86810302734375,-9.849667549133301e-05,0.05055117607116699,-0.014081835746765137,1.3329444286259953,0.004692238640537326,-0.045848173299037745,0.0011055604554712772,-0.971846342086792,-0.23561298847198486,0.0062371413223445415,-0.16433709859848022,-0.06337089091539383,Walking,,,,,,,
1742,Device Motion,,,,214.47950744628906,16.597476959228516,0,98.18656921386719,,,,-0.0207061767578125,-0.9757537841796875,-0.2671661376953125,-0.003608316881582141,-0.1821809858083725,-0.046544067561626434,-24.401168823242188,-108.37548828125,-311.86810302734375,0.0005228819791227579,0.022950470447540283,0.031371667981147766,1.3211934489487547,-0.014348126440496463,-0.05133286812123877,-0.00354413827881217,-0.969010591506958,-0.24699357151985168,-0.11622138321399689,-0.017092043533921242,-0.049691345542669296,Walking,,,,,,,
1805,Magnetometer,,,,214.47950744628906,16.597476959228516,0,98.18656921386719,,,,-0.0207061767578125,-0.9757537841796875,-0.2671661376953125,-0.003608316881582141,-0.1821809858083725,-0.046544067561626434,-24.205795288085938,-108.91542053222656,-312.3641357421875,0.0005228819791227579,0.022950470447540283,0.031371667981147766,1.3211934489487547,-0.014348126440496463,-0.05133286812123877,-0.00354413827881217,-0.969010591506958,-0.24699357151985168,-0.11622138321399689,-0.017092043533921242,-0.049691345542669296,Walking,,,,,,,
1842,Gyrometer,,,,214.47950744628906,16.597476959228516,0,98.18656921386719,,,,-0.0207061767578125,-0.9757537841796875,-0.2671661376953125,-0.10340042412281036,0.09972872585058212,-0.048776593059301376,-24.205795288085938,-108.91542053222656,-312.3641357421875,0.0005228819791227579,0.022950470447540283,0.031371667981147766,1.3211934489487547,-0.014348126440496463,-0.05133286812123877,-0.00354413827881217,-0.969010591506958,-0.24699357151985168,-0.11622138321399689,-0.017092043533921242,-0.049691345542669296,Walking,,,,,,,
1875,Accelerometer,,,,214.47950744628906,16.597476959228516,0,98.18656921386719,,,,-0.0117645263671875,-0.9941864013671875,-0.240447998046875,-0.10340042412281036,0.09972872585058212,-0.048776593059301376,-24.205795288085938,-108.91542053222656,-312.3641357421875,0.0005228819791227579,0.022950470447540283,0.031371667981147766,1.3211934489487547,-0.014348126440496463,-0.05133286812123877,-0.00354413827881217,-0.969010591506958,-0.24699357151985168,-0.11622138321399689,-0.017092043533921242,-0.049691345542669296,Walking,,,,,,,
1982,COMPASS,,,,213.32432556152344,16.596086502075195,0,98.18656921386719,,,,-0.0117645263671875,-0.9941864013671875,-0.240447998046875,-0.10340042412281036,0.09972872585058212,-0.048776593059301376,-24.205795288085938,-108.91542053222656,-312.3641357421875,0.0005228819791227579,0.022950470447540283,0.031371667981147766,1.3211934489487547,-0.014348126440496463,-0.05133286812123877,-0.00354413827881217,-0.969010591506958,-0.24699357151985168,-0.11622138321399689,-0.017092043533921242,-0.049691345542669296,Walking,,,,,,,
2021,Altimeter,,,,213.32432556152344,16.596086502075195,0.0079345703125,98.18647766113281,,,,-0.0117645263671875,-0.9941864013671875,-0.240447998046875,-0.10340042412281036,0.09972872585058212,-0.048776593059301376,-24.205795288085938,-108.91542053222656,-312.3641357421875,0.0005228819791227579,0.022950470447540283,0.031371667981147766,1.3211934489487547,-0.014348126440496463,-0.05133286812123877,-0.00354413827881217,-0.969010591506958,-0.24699357151985168,-0.11622138321399689,-0.017092043533921242,-0.049691345542669296,Walking,,,,,,,
2053,Device Motion,,,,213.32432556152344,16.596086502075195,0.0079345703125,98.18647766113281,,,,-0.0117645263671875,-0.9941864013671875,-0.240447998046875,-0.10340042412281036,0.09972872585058212,-0.048776593059301376,-24.205795288085938,-108.91542053222656,-312.3641357421875,-0.036802828311920166,-0.07116413116455078,0.0042901188135147095,1.328851348341607,-0.009495245900385781,-0.018526407695911504,-0.0022749456111341715,-0.9708738327026367,-0.2395806610584259,0.2229192554950714,0.1953209638595581,0.0919637531042099,Walking,,,,,,,
2085,COMPASS,,,,212.1138916015625,16.59596061706543,0.0079345703125,98.18647766113281,,,,-0.0117645263671875,-0.9941864013671875,-0.240447998046875,-0.10340042412281036,0.09972872585058212,-0.048776593059301376,-24.205795288085938,-108.91542053222656,-312.3641357421875,-0.036802828311920166,-0.07116413116455078,0.0042901188135147095,1.328851348341607,-0.009495245900385781,-0.018526407695911504,-0.0022749456111341715,-0.9708738327026367,-0.2395806610584259,0.2229192554950714,0.1953209638595581,0.0919637531042099,Walking,,,,,,,
2119,Magnetometer,,,,212.1138916015625,16.59596061706543,0.0079345703125,98.18647766113281,,,,-0.0117645263671875,-0.9941864013671875,-0.240447998046875,-0.10340042412281036,0.09972872585058212,-0.048776593059301376,-25.3834228515625,-109.50749206542969,-311.7030944824219,-0.036802828311920166,-0.07116413116455078,0.0042901188135147095,1.328851348341607,-0.009495245900385781,-0.018526407695911504,-0.0022749456111341715,-0.9708738327026367,-0.2395806610584259,0.2229192554950714,0.1953209638595581,0.0919637531042099,Walking,,,,,,,
2152,Gyrometer,,,,212.1138916015625,16.59596061706543,0.0079345703125,98.18647766113281,,,,-0.0117645263671875,-0.9941864013671875,-0.240447998046875,-0.02574610896408558,0.14261387288570404,0.05552291497588158,-25.3834228515625,-109.50749206542969,-311.7030944824219,-0.036802828311920166,-0.07116413116455078,0.0042901188135147095,1.328851348341607,-0.009495245900385781,-0.018526407695911504,-0.0022749456111341715,-0.9708738327026367,-0.2395806610584259,0.2229192554950714,0.1953209638595581,0.0919637531042099,Walking,,,,,,,
2182,Accelerometer,,,,212.1138916015625,16.59596061706543,0.0079345703125,98.18647766113281,,,,0.01824951171875,-0.967681884765625,-0.2933807373046875,-0.02574610896408558,0.14261387288570404,0.05552291497588158,-25.3834228515625,-109.50749206542969,-311.7030944824219,-0.036802828311920166,-0.07116413116455078,0.0042901188135147095,1.328851348341607,-0.009495245900385781,-0.018526407695911504,-0.0022749456111341715,-0.9708738327026367,-0.2395806610584259,0.2229192554950714,0.1953209638595581,0.0919637531042099,Walking,,,,,,,
2302,COMPASS,,,,211.08258056640625,16.595706939697266,0.0079345703125,98.18647766113281,,,,0.01824951171875,-0.967681884765625,-0.2933807373046875,-0.02574610896408558,0.14261387288570404,0.05552291497588158,-25.3834228515625,-109.50749206542969,-311.7030944824219,-0.036802828311920166,-0.07116413116455078,0.0042901188135147095,1.328851348341607,-0.009495245900385781,-0.018526407695911504,-0.0022749456111341715,-0.9708738327026367,-0.2395806610584259,0.2229192554950714,0.1953209638595581,0.0919637531042099,Walking,,,,,,,
2340,Device Motion,,,,211.08258056640625,16.595706939697266,0.0079345703125,98.18647766113281,,,,0.01824951171875,-0.967681884765625,-0.2933807373046875,-0.02574610896408558,0.14261387288570404,0.05552291497588158,-25.3834228515625,-109.50749206542969,-311.7030944824219,0.01861417479813099,0.048037052154541016,-0.06086882948875427,1.3632936371680342,-0.0831158831607519,0.07481479945614777,-0.01710354909300804,-0.9785484671592712,-0.20530547201633453,0.119905486702919,0.12076402455568314,0.0029132976196706295,Walking,,,,,,,
2405,Magnetometer,,,,211.08258056640625,16.595706939697266,0.0079345703125,98.18647766113281,,,,0.01824951171875,-0.967681884765625,-0.2933807373046875,-0.02574610896408558,0.14261387288570404,0.05552291497588158,-25.95263671875,-109.83561706542969,-311.3170471191406,0.01861417479813099,0.048037052154541016,-0.06086882948875427,1.3632936371680342,-0.0831158831607519,0.07481479945614777,-0.01710354909300804,-0.9785484671592712,-0.20530547201633453,0.119905486702919,0.12076402455568314,0.0029132976196706295,Walking,,,,,,,
2443,Gyrometer,,,,211.08258056640625,16.595706939697266,0.0079345703125,98.18647766113281,,,,0.01824951171875,-0.967681884765625,-0.2933807373046875,-0.04404149204492569,-0.004228300880640745,-0.0023883229587227106,-25.95263671875,-109.83561706542969,-311.3170471191406,0.01861417479813099,0.048037052154541016,-0.06086882948875427,1.3632936371680342,-0.0831158831607519,0.07481479945614777,-0.01710354909300804,-0.9785484671592712,-0.20530547201633453,0.119905486702919,0.12076402455568314,0.0029132976196706295,Walking,,,,,,,
2476,Accelerometer,,,,211.08258056640625,16.595706939697266,0.0079345703125,98.18647766113281,,,,0.0296173095703125,-0.9285430908203125,-0.2425689697265625,-0.04404149204492569,-0.004228300880640745,-0.0023883229587227106,-25.95263671875,-109.83561706542969,-311.3170471191406,0.01861417479813099,0.048037052154541016,-0.06086882948875427,1.3632936371680342,-0.0831158831607519,0.07481479945614777,-0.01710354909300804,-0.9785484671592712,-0.20530547201633453,0.119905486702919,0.12076402455568314,0.0029132976196706295,Walking,,,,,,,
2563,COMPASS,,,,210.07464599609375,16.595449447631836,0.0079345703125,98.18647766113281,,,,0.0296173095703125,-0.9285430908203125,-0.2425689697265625,-0.04404149204492569,-0.004228300880640745,-0.0023883229587227106,-25.95263671875,-109.83561706542969,-311.3170471191406,0.01861417479813099,0.048037052154541016,-0.06086882948875427,1.3632936371680342,-0.0831158831607519,0.07481479945614777,-0.01710354909300804,-0.9785484671592712,-0.20530547201633453,0.119905486702919,0.12076402455568314,0.0029132976196706295,Walking,,,,,,,
2639,Device Motion,,,,210.07464599609375,16.595449447631836,0.0079345703125,98.18647766113281,,,,0.0296173095703125,-0.9285430908203125,-0.2425689697265625,-0.04404149204492569,-0.004228300880640745,-0.0023883229587227106,-25.95263671875,-109.83561706542969,-311.3170471191406,0.004240069538354874,0.03248113393783569,0.007290109992027283,1.3293287514542849,-0.08509006372578452,0.08511001063885808,-0.020322831347584724,-0.9709880948066711,-0.2382623702287674,-0.10081451386213303,0.0017551570199429989,-0.041768189519643784,Walking,,,,,,,
2704,Magnetometer,,,,210.07464599609375,16.595449447631836,0.0079345703125,98.18647766113281,,,,0.0296173095703125,-0.9285430908203125,-0.2425689697265625,-0.04404149204492569,-0.004228300880640745,-0.0023883229587227106,-25.720016479492188,-109.90609741210938,-313.22821044921875,0.004240069538354874,0.03248113393783569,0.007290109992027283,1.3293287514542849,-0.08509006372578452,0.08511001063885808,-0.020322831347584724,-0.9709880948066711,-0.2382623702287674,-0.10081451386213303,0.0017551570199429989,-0.041768189519643784,Walking,,,,,,,
2744,Gyrometer,,,,210.07464599609375,16.595449447631836,0.0079345703125,98.18647766113281,,,,0.0296173095703125,-0.9285430908203125,-0.2425689697265625,-0.11965742707252502,-0.06486634910106659,-0.006797452457249165,-25.720016479492188,-109.90609741210938,-313.22821044921875,0.004240069538354874,0.03248113393783569,0.007290109992027283,1.3293287514542849,-0.08509006372578452,0.08511001063885808,-0.020322831347584724,-0.9709880948066711,-0.2382623702287674,-0.10081451386213303,0.0017551570199429989,-0.041768189519643784,Walking,,,,,,,
2777,Accelerometer,,,,210.07464599609375,16.595449447631836,0.0079345703125,98.18647766113281,,,,0.0114898681640625,-0.9573516845703125,-0.2109527587890625,-0.11965742707252502,-0.06486634910106659,-0.006797452457249165,-25.720016479492188,-109.90609741210938,-313.22821044921875,0.004240069538354874,0.03248113393783569,0.007290109992027283,1.3293287514542849,-0.08509006372578452,0.08511001063885808,-0.020322831347584724,-0.9709880948066711,-0.2382623702287674,-0.10081451386213303,0.0017551570199429989,-0.041768189519643784,Walking,,,,,,,
2860,COMPASS,,,,211.13125610351562,16.59482192993164,0.0079345703125,98.18647766113281,,,,0.0114898681640625,-0.9573516845703125,-0.2109527587890625,-0.11965742707252502,-0.06486634910106659,-0.006797452457249165,-25.720016479492188,-109.90609741210938,-313.22821044921875,0.004240069538354874,0.03248113393783569,0.007290109992027283,1.3293287514542849,-0.08509006372578452,0.08511001063885808,-0.020322831347584724,-0.9709880948066711,-0.2382623702287674,-0.10081451386213303,0.0017551570199429989,-0.041768189519643784,Walking,,,,,,,
2939,Device Motion,,,,211.13125610351562,16.59482192993164,0.0079345703125,98.18647766113281,,,,0.0114898681640625,-0.9573516845703125,-0.2109527587890625,-0.11965742707252502,-0.06486634910106659,-0.006797452457249165,-25.720016479492188,-109.90609741210938,-313.22821044921875,0.0012260694056749344,-0.06936115026473999,-0.01269802451133728,1.314262061665593,-0.10328107050287348,0.07275153031679982,-0.026158910244703293,-0.9672751426696777,-0.25237762928009033,-0.00827087927609682,-0.13036631047725677,0.005363821517676115,Walking,,,,,,,
3003,Magnetometer,,,,211.13125610351562,16.59482192993164,0.0079345703125,98.18647766113281,,,,0.0114898681640625,-0.9573516845703125,-0.2109527587890625,-0.11965742707252502,-0.06486634910106659,-0.006797452457249165,-26.280166625976562,-110.97525024414062,-312.39788818359375,0.0012260694056749344,-0.06936115026473999,-0.01269802451133728,1.314262061665593,-0.10328107050287348,0.07275153031679982,-0.026158910244703293,-0.9672751426696777,-0.25237762928009033,-0.00827087927609682,-0.13036631047725677,0.005363821517676115,Walking,,,,,,,
3041,Gyrometer,,,,211.13125610351562,16.59482192993164,0.0079345703125,98.18647766113281,,,,0.0114898681640625,-0.9573516845703125,-0.2109527587890625,0.013622601516544819,-0.0027688886038959026,0.05919088423252106,-26.280166625976562,-110.97525024414062,-312.39788818359375,0.0012260694056749344,-0.06936115026473999,-0.01269802451133728,1.314262061665593,-0.10328107050287348,0.07275153031679982,-0.026158910244703293,-0.9672751426696777,-0.25237762928009033,-0.00827087927609682,-0.13036631047725677,0.005363821517676115,Walking,,,,,,,
3074,Altimeter,,,,211.13125610351562,16.59482192993164,0.015869140625,98.18638610839844,,,,0.0114898681640625,-0.9573516845703125,-0.2109527587890625,0.013622601516544819,-0.0027688886038959026,0.05919088423252106,-26.280166625976562,-110.97525024414062,-312.39788818359375,0.0012260694056749344,-0.06936115026473999,-0.01269802451133728,1.314262061665593,-0.10328107050287348,0.07275153031679982,-0.026158910244703293,-0.9672751426696777,-0.25237762928009033,-0.00827087927609682,-0.13036631047725677,0.005363821517676115,Walking,,,,,,,
3105,Accelerometer,,,,211.13125610351562,16.59482192993164,0.015869140625,98.18638610839844,,,,-0.0208740234375,-0.9627532958984375,-0.2689971923828125,0.013622601516544819,-0.0027688886038959026,0.05919088423252106,-26.280166625976562,-110.97525024414062,-312.39788818359375,0.0012260694056749344,-0.06936115026473999,-0.01269802451133728,1.314262061665593,-0.10328107050287348,0.07275153031679982,-0.026158910244703293,-0.9672751426696777,-0.25237762928009033,-0.00827087927609682,-0.13036631047725677,0.005363821517676115,Walking,,,,,,,
3140,COMPASS,,,,212.236572265625,16.594524383544922,0.015869140625,98.18638610839844,,,,-0.0208740234375,-0.9627532958984375,-0.2689971923828125,0.013622601516544819,-0.0027688886038959026,0.05919088423252106,-26.280166625976562,-110.97525024414062,-312.39788818359375,0.0012260694056749344,-0.06936115026473999,-0.01269802451133728,1.314262061665593,-0.10328107050287348,0.07275153031679982,-0.026158910244703293,-0.9672751426696777,-0.25237762928009033,-0.00827087927609682,-0.13036631047725677,0.005363821517676115,Walking,,,,,,,
3238,Device Motion,,,,212.236572265625,16.594524383544922,0.015869140625,98.18638610839844,,,,-0.0208740234375,-0.9627532958984375,-0.2689971923828125,0.013622601516544819,-0.0027688886038959026,0.05919088423252106,-26.280166625976562,-110.97525024414062,-312.39788818359375,0.017424583435058594,0.061971426010131836,-0.06394284963607788,1.3289898802806348,-0.07954176291552267,0.03353273775622734,-0.019026760011911392,-0.9709069728851318,-0.23869995772838593,-0.06147944554686546,-0.054830871522426605,0.027618268504738808,Walking,,,,,,,
3303,Magnetometer,,,,212.236572265625,16.594524383544922,0.015869140625,98.18638610839844,,,,-0.0208740234375,-0.9627532958984375,-0.2689971923828125,0.013622601516544819,-0.0027688886038959026,0.05919088423252106,-27.1741943359375,-111.56675720214844,-311.66046142578125,0.017424583435058594,0.061971426010131836,-0.06394284963607788,1.3289898802806348,-0.07954176291552267,0.03353273775622734,-0.019026760011911392,-0.9709069728851318,-0.23869995772838593,-0.06147944554686546,-0.054830871522426605,0.027618268504738808,Walking,,,,,,,
3340,COMPASS,,,,213.34234619140625,16.594228744506836,0.015869140625,98.18638610839844,,,,-0.0208740234375,-0.9627532958984375,-0.2689971923828125,0.013622601516544819,-0.0027688886038959026,0.05919088423252106,-27.1741943359375,-111.56675720214844,-311.66046142578125,0.017424583435058594,0.061971426010131836,-0.06394284963607788,1.3289898802806348,-0.07954176291552267,0.03353273775622734,-0.019026760011911392,-0.9709069728851318,-0.23869995772838593,-0.06147944554686546,-0.054830871522426605,0.027618268504738808,Walking,,,,,,,
3373,Gyrometer,,,,213.34234619140625,16.594228744506836,0.015869140625,98.18638610839844,,,,-0.0208740234375,-0.9627532958984375,-0.2689971923828125,-0.08988595008850098,-0.12470012158155441,-0.06203034892678261,-27.1741943359375,-111.56675720214844,-311.66046142578125,0.017424583435058594,0.061971426010131836,-0.06394284963607788,1.3289898802806348,-0.07954176291552267,0.03353273775622734,-0.019026760011911392,-0.9709069728851318,-0.23869995772838593,-0.06147944554686546,-0.054830871522426605,0.027618268504738808,Walking,,,,,,,
3404,Accelerometer,,,,213.34234619140625,16.594228744506836,0.015869140625,98.18638610839844,,,,-0.0597991943359375,-0.964202880859375,-0.256561279296875,-0.08988595008850098,-0.12470012158155441,-0.06203034892678261,-27.1741943359375,-111.56675720214844,-311.66046142578125,0.017424583435058594,0.061971426010131836,-0.06394284963607788,1.3289898802806348,-0.07954176291552267,0.03353273775622734,-0.019026760011911392,-0.9709069728851318,-0.23869995772838593,-0.06147944554686546,-0.054830871522426605,0.027618268504738808,Walking,,,,,,,
3537,Device Motion,,,,213.34234619140625,16.594228744506836,0.015869140625,98.18638610839844,,,,-0.0597991943359375,-0.964202880859375,-0.256561279296875,-0.08988595008850098,-0.12470012158155441,-0.06203034892678261,-27.1741943359375,-111.56675720214844,-311.66046142578125,-0.005133654922246933,0.021701931953430176,0.03314587473869324,1.3005998175939968,-0.0954727890170629,0.031115427628961304,-0.025444958359003067,-0.9637184739112854,-0.26570504903793335,-0.10220605134963989,-0.008861529640853405,0.03567279875278473,Walking,,,,,,,
3603,Magnetometer,,,,213.34234619140625,16.594228744506836,0.015869140625,98.18638610839844,,,,-0.0597991943359375,-0.964202880859375,-0.256561279296875,-0.08988595008850098,-0.12470012158155441,-0.06203034892678261,-29.091842651367188,-112.22346496582031,-313.294921875,-0.005133654922246933,0.021701931953430176,0.03314587473869324,1.3005998175939968,-0.0954727890170629,0.031115427628961304,-0.025444958359003067,-0.9637184739112854,-0.26570504903793335,-0.10220605134963989,-0.008861529640853405,0.03567279875278473,Walking,,,,,,,
3642,Gyrometer,,,,213.34234619140625,16.594228744506836,0.015869140625,98.18638610839844,,,,-0.0597991943359375,-0.964202880859375,-0.256561279296875,-0.10332266241312027,0.08505044877529144,-0.009791377931833267,-29.091842651367188,-112.22346496582031,-313.294921875,-0.005133654922246933,0.021701931953430176,0.03314587473869324,1.3005998175939968,-0.0954727890170629,0.031115427628961304,-0.025444958359003067,-0.9637184739112854,-0.26570504903793335,-0.10220605134963989,-0.008861529640853405,0.03567279875278473,Walking,,,,,,,
3674,Accelerometer,,,,213.34234619140625,16.594228744506836,0.015869140625,98.18638610839844,,,,-0.029052734375,-0.9793853759765625,-0.254150390625,-0.10332266241312027,0.08505044877529144,-0.009791377931833267,-29.091842651367188,-112.22346496582031,-313.294921875,-0.005133654922246933,0.021701931953430176,0.03314587473869324,1.3005998175939968,-0.0954727890170629,0.031115427628961304,-0.025444958359003067,-0.9637184739112854,-0.26570504903793335,-0.10220605134963989,-0.008861529640853405,0.03567279875278473,Walking,,,,,,,
3836,Device Motion,,,,213.34234619140625,16.594228744506836,0.015869140625,98.18638610839844,,,,-0.029052734375,-0.9793853759765625,-0.254150390625,-0.10332266241312027,0.08505044877529144,-0.009791377931833267,-29.091842651367188,-112.22346496582031,-313.294921875,-0.013860225677490234,-0.019442319869995117,0.038988351821899414,1.295702503876437,-0.08135328700917797,0.03082246317799876,-0.02207421511411667,-0.9623997211456299,-0.2707388401031494,0.121702641248703,0.043692927807569504,0.0045240335166454315,Walking,,,,,,,
3901,Magnetometer,,,,213.34234619140625,16.594228744506836,0.015869140625,98.18638610839844,,,,-0.029052734375,-0.9793853759765625,-0.254150390625,-0.10332266241312027,0.08505044877529144,-0.009791377931833267,-30.672393798828125,-112.68963623046875,-313.7855224609375,-0.013860225677490234,-0.019442319869995117,0.038988351821899414,1.295702503876437,-0.08135328700917797,0.03082246317799876,-0.02207421511411667,-0.9623997211456299,-0.2707388401031494,0.121702641248703,0.043692927807569504,0.0045240335166454315,Walking,,,,,,,
3935,Gyrometer,,,,213.34234619140625,16.594228744506836,0.015869140625,98.18638610839844,,,,-0.029052734375,-0.9793853759765625,-0.254150390625,0.12428360432386398,0.09532865136861801,0.016803214326500893,-30.672393798828125,-112.68963623046875,-313.7855224609375,-0.013860225677490234,-0.019442319869995117,0.038988351821899414,1.295702503876437,-0.08135328700917797,0.03082246317799876,-0.02207421511411667,-0.9623997211456299,-0.2707388401031494,0.121702641248703,0.043692927807569504,0.0045240335166454315,Walking,,,,,,,
3975,Accelerometer,,,,213.34234619140625,16.594228744506836,0.015869140625,98.18638610839844,,,,-0.0044403076171875,-1.0186614990234375,-0.2707977294921875,0.12428360432386398,0.09532865136861801,0.016803214326500893,-30.672393798828125,-112.68963623046875,-313.7855224609375,-0.013860225677490234,-0.019442319869995117,0.038988351821899414,1.295702503876437,-0.08135328700917797,0.03082246317799876,-0.02207421511411667,-0.9623997211456299,-0.2707388401031494,0.121702641248703,0.043692927807569504,0.0045240335166454315,Walking,,,,,,,
4009,COMPASS,,,,212.26068115234375,16.592824935913086,0.015869140625,98.18638610839844,,,,-0.0044403076171875,-1.0186614990234375,-0.2707977294921875,0.12428360432386398,0.09532865136861801,0.016803214326500893,-30.672393798828125,-112.68963623046875,-313.7855224609375,-0.013860225677490234,-0.019442319869995117,0.038988351821899414,1.295702503876437,-0.08135328700917797,0.03082246317799876,-0.02207421511411667,-0.9623997211456299,-0.2707388401031494,0.121702641248703,0.043692927807569504,0.0045240335166454315,Walking,,,,,,,
4042,Altimeter,,,,212.26068115234375,16.592824935913086,0.023773193359375,98.186279296875,,,,-0.0044403076171875,-1.0186614990234375,-0.2707977294921875,0.12428360432386398,0.09532865136861801,0.016803214326500893,-30.672393798828125,-112.68963623046875,-313.7855224609375,-0.013860225677490234,-0.019442319869995117,0.038988351821899414,1.295702503876437,-0.08135328700917797,0.03082246317799876,-0.02207421511411667,-0.9623997211456299,-0.2707388401031494,0.121702641248703,0.043692927807569504,0.0045240335166454315,Walking,,,,,,,
4135,Device Motion,,,,212.26068115234375,16.592824935913086,0.023773193359375,98.186279296875,,,,-0.0044403076171875,-1.0186614990234375,-0.2707977294921875,0.12428360432386398,0.09532865136861801,0.016803214326500893,-30.672393798828125,-112.68963623046875,-313.7855224609375,-0.01478421501815319,0.03102964162826538,-0.09273342788219452,1.3206057681347494,-0.09314010714684554,0.06526804153337126,-0.023027081042528152,-0.9688652753829956,-0.24651522934436798,0.10977131873369217,0.03343125432729721,0.12186203896999359,Walking,,,,,,,
4176,COMPASS,,,,211.23963928222656,16.592741012573242,0.023773193359375,98.186279296875,,,,-0.0044403076171875,-1.0186614990234375,-0.2707977294921875,0.12428360432386398,0.09532865136861801,0.016803214326500893,-30.672393798828125,-112.68963623046875,-313.7855224609375,-0.01478421501815319,0.03102964162826538,-0.09273342788219452,1.3206057681347494,-0.09314010714684554,0.06526804153337126,-0.023027081042528152,-0.9688652753829956,-0.24651522934436798,0.10977131873369217,0.03343125432729721,0.12186203896999359,Walking,,,,,,,
4209,Magnetometer,,,,211.23963928222656,16.592741012573242,0.023773193359375,98.186279296875,,,,-0.0044403076171875,-1.0186614990234375,-0.2707977294921875,0.12428360432386398,0.09532865136861801,0.016803214326500893,-31.775482177734375,-113.31425476074219,-315.44952392578125,-0.01478421501815319,0.03102964162826538,-0.09273342788219452,1.3206057681347494,-0.09314010714684554,0.06526804153337126,-0.023027081042528152,-0.9688652753829956,-0.24651522934436798,0.10977131873369217,0.03343125432729721,0.12186203896999359,Walking,,,,,,,
4241,Gyrometer,,,,211.23963928222656,16.592741012573242,0.023773193359375,98.186279296875,,,,-0.0044403076171875,-1.0186614990234375,-0.2707977294921875,0.010432134382426739,0.05157051607966423,0.0571807324886322,-31.775482177734375,-113.31425476074219,-315.44952392578125,-0.01478421501815319,0.03102964162826538,-0.09273342788219452,1.3206057681347494,-0.09314010714684554,0.06526804153337126,-0.023027081042528152,-0.9688652753829956,-0.24651522934436798,0.10977131873369217,0.03343125432729721,0.12186203896999359,Walking,,,,,,,
4276,Accelerometer,,,,211.23963928222656,16.592741012573242,0.023773193359375,98.186279296875,,,,-0.0063934326171875,-0.9368896484375,-0.307220458984375,0.010432134382426739,0.05157051607966423,0.0571807324886322,-31.775482177734375,-113.31425476074219,-315.44952392578125,-0.01478421501815319,0.03102964162826538,-0.09273342788219452,1.3206057681347494,-0.09314010714684554,0.06526804153337126,-0.023027081042528152,-0.9688652753829956,-0.24651522934436798,0.10977131873369217,0.03343125432729721,0.12186203896999359,Walking,,,,,,,
4434,Device Motion,,,,211.23963928222656,16.592741012573242,0.023773193359375,98.186279296875,,,,-0.0063934326171875,-0.9368896484375,-0.307220458984375,0.010432134382426739,0.05157051607966423,0.0571807324886322,-31.775482177734375,-113.31425476074219,-315.44952392578125,0.010794762521982193,0.021424293518066406,0.010138362646102905,1.3088284438239535,-0.11606132364814092,0.10593177380004981,-0.029990296810865402,-0.9658821821212769,-0.2572391629219055,-0.10299693793058395,-0.0002703485079109669,-0.008762935176491737,Walking,,,,,,,
4500,Magnetometer,,,,211.23963928222656,16.592741012573242,0.023773193359375,98.186279296875,,,,-0.0063934326171875,-0.9368896484375,-0.307220458984375,0.010432134382426739,0.05157051607966423,0.0571807324886322,-30.6607666015625,-113.6749267578125,-316.77655029296875,0.010794762521982193,0.021424293518066406,0.010138362646102905,1.3088284438239535,-0.11606132364814092,0.10593177380004981,-0.029990296810865402,-0.9658821821212769,-0.2572391629219055,-0.10299693793058395,-0.0002703485079109669,-0.008762935176491737,Walking,,,,,,,
4540,Gyrometer,,,,211.23963928222656,16.592741012573242,0.023773193359375,98.186279296875,,,,-0.0063934326171875,-0.9368896484375,-0.307220458984375,-0.08364269882440567,0.006347111891955137,-0.05778420343995094,-30.6607666015625,-113.6749267578125,-316.77655029296875,0.010794762521982193,0.021424293518066406,0.010138362646102905,1.3088284438239535,-0.11606132364814092,0.10593177380004981,-0.029990296810865402,-0.9658821821212769,-0.2572391629219055,-0.10299693793058395,-0.0002703485079109669,-0.008762935176491737,Walking,,,,,,,
4572,Accelerometer,,,,211.23963928222656,16.592741012573242,0.023773193359375,98.186279296875,,,,-0.021209716796875,-0.95953369140625,-0.2339935302734375,-0.08364269882440567,0.006347111891955137,-0.05778420343995094,-30.6607666015625,-113.6749267578125,-316.77655029296875,0.010794762521982193,0.021424293518066406,0.010138362646102905,1.3088284438239535,-0.11606132364814092,0.10593177380004981,-0.029990296810865402,-0.9658821821212769,-0.2572391629219055,-0.10299693793058395,-0.0002703485079109669,-0.008762935176491737,Walking,,,,,,,
4733,Device Motion,,,,211.23963928222656,16.592741012573242,0.023773193359375,98.186279296875,,,,-0.021209716796875,-0.95953369140625,-0.2339935302734375,-0.08364269882440567,0.006347111891955137,-0.05778420343995094,-30.6607666015625,-113.6749267578125,-316.77655029296875,0.010539323091506958,-0.017503321170806885,0.02165687084197998,1.2966069179502608,-0.10000925250052675,0.08256297523851798,-0.02703406661748886,-0.9626449942588806,-0.26941385865211487,0.02383933588862419,-0.05942070111632347,-0.03314464911818504,Walking,,,,,,,
4801,Magnetometer,,,,211.23963928222656,16.592741012573242,0.023773193359375,98.186279296875,,,,-0.021209716796875,-0.95953369140625,-0.2339935302734375,-0.08364269882440567,0.006347111891955137,-0.05778420343995094,-28.46502685546875,-113.8463134765625,-316.7420654296875,0.010539323091506958,-0.017503321170806885,0.02165687084197998,1.2966069179502608,-0.10000925250052675,0.08256297523851798,-0.02703406661748886,-0.9626449942588806,-0.26941385865211487,0.02383933588862419,-0.05942070111632347,-0.03314464911818504,Walking,,,,,,,
4840,Gyrometer,,,,211.23963928222656,16.592741012573242,0.023773193359375,98.186279296875,,,,-0.021209716796875,-0.95953369140625,-0.2339935302734375,0.02761777862906456,-0.08450876176357269,0.05661454424262047,-28.46502685546875,-113.8463134765625,-316.7420654296875,0.010539323091506958,-0.017503321170806885,0.02165687084197998,1.2966069179502608,-0.10000925250052675,0.08256297523851798,-0.02703406661748886,-0.9626449942588806,-0.26941385865211487,0.02383933588862419,-0.05942070111632347,-0.03314464911818504,Walking,,,,,,,
4874,Accelerometer,,,,211.23963928222656,16.592741012573242,0.023773193359375,98.186279296875,,,,-0.022796630859375,-1.03668212890625,-0.25067138671875,0.02761777862906456,-0.08450876176357269,0.05661454424262047,-28.46502685546875,-113.8463134765625,-316.7420654296875,0.010539323091506958,-0.017503321170806885,0.02165687084197998,1.2966069179502608,-0.10000925250052675,0.08256297523851798,-0.02703406661748886,-0.9626449942588806,-0.26941385865211487,0.02383933588862419,-0.05942070111632347,-0.03314464911818504,Walking,,,,,,,
5022,Altimeter,,,,211.23963928222656,16.592741012573242,0.023773193359375,98.186279296875,,,,-0.022796630859375,-1.03668212890625,-0.25067138671875,0.02761777862906456,-0.08450876176357269,0.05661454424262047,-28.46502685546875,-113.8463134765625,-316.7420654296875,0.010539323091506958,-0.017503321170806885,0.02165687084197998,1.2966069179502608,-0.10000925250052675,0.08256297523851798,-0.02703406661748886,-0.9626449942588806,-0.26941385865211487,0.02383933588862419,-0.05942070111632347,-0.03314464911818504,Walking,,,,,,,
5058,Device Motion,,,,211.23963928222656,16.592741012573242,0.023773193359375,98.186279296875,,,,-0.022796630859375,-1.03668212890625,-0.25067138671875,0.02761777862906456,-0.08450876176357269,0.05661454424262047,-28.46502685546875,-113.8463134765625,-316.7420654296875,-0.006179537624120712,0.05148577690124512,-0.035197481513023376,1.321137252770002,-0.13155449053266688,0.11155377520261735,-0.03240995481610298,-0.9689967036247253,-0.24493858218193054,0.1475677192211151,-0.014476359821856022,-0.012227265164256096,Walking,,,,,,,
5099,Magnetometer,,,,211.23963928222656,16.592741012573242,0.023773193359375,98.186279296875,,,,-0.022796630859375,-1.03668212890625,-0.25067138671875,0.02761777862906456,-0.08450876176357269,0.05661454424262047,-27.477828979492188,-113.50300598144531,-314.2652587890625,-0.006179537624120712,0.05148577690124512,-0.035197481513023376,1.321137252770002,-0.13155449053266688,0.11155377520261735,-0.03240995481610298,-0.9689967036247253,-0.24493858218193054,0.1475677192211151,-0.014476359821856022,-0.012227265164256096,Walking,,,,,,,
5133,Gyrometer,,,,211.23963928222656,16.592741012573242,0.023773193359375,98.186279296875,,,,-0.022796630859375,-1.03668212890625,-0.25067138671875,0.09567992389202118,-0.08373165130615234,-0.1530390828847885,-27.477828979492188,-113.50300598144531,-314.2652587890625,-0.006179537624120712,0.05148577690124512,-0.035197481513023376,1.321137252770002,-0.13155449053266688,0.11155377520261735,-0.03240995481610298,-0.9689967036247253,-0.24493858218193054,0.1475677192211151,-0.014476359821856022,-0.012227265164256096,Walking,,,,,,,
5165,Accelerometer,,,,211.23963928222656,16.592741012573242,0.023773193359375,98.186279296875,,,,-0.0416412353515625,-0.9281158447265625,-0.2676544189453125,0.09567992389202118,-0.08373165130615234,-0.1530390828847885,-27.477828979492188,-113.50300598144531,-314.2652587890625,-0.006179537624120712,0.05148577690124512,-0.035197481513023376,1.321137252770002,-0.13155449053266688,0.11155377520261735,-0.03240995481610298,-0.9689967036247253,-0.24493858218193054,0.1475677192211151,-0.014476359821856022,-0.012227265164256096,Walking,,,,,,,
5201,Activity Manager,,,,211.23963928222656,16.592741012573242,0.023773193359375,98.186279296875,,,,-0.0416412353515625,-0.9281158447265625,-0.2676544189453125,0.09567992389202118,-0.08373165130615234,-0.1530390828847885,-27.477828979492188,-113.50300598144531,-314.2652587890625,-0.006179537624120712,0.05148577690124512,-0.035197481513023376,1.321137252770002,-0.13155449053266688,0.11155377520261735,-0.03240995481610298,-0.9689967036247253,-0.24493858218193054,0.1475677192211151,-0.014476359821856022,-0.012227265164256096,Walking,,,,,,,
5234,COMPASS,,,,212.43603515625,16.591720581054688,0.023773193359375,98.186279296875,,,,-0.0416412353515625,-0.9281158447265625,-0.2676544189453125,0.09567992389202118,-0.08373165130615234,-0.1530390828847885,-27.477828979492188,-113.50300598144531,-314.2652587890625,-0.006179537624120712,0.05148577690124512,-0.035197481513023376,1.321137252770002,-0.13155449053266688,0.11155377520261735,-0.03240995481610298,-0.9689967036247253,-0.24493858218193054,0.1475677192211151,-0.014476359821856022,-0.012227265164256096,Walking,,,,,,,
5331,Device Motion,,,,212.43603515625,16.591720581054688,0.023773193359375,98.186279296875,,,,-0.0416412353515625,-0.9281158447265625,-0.2676544189453125,0.09567992389202118,-0.08373165130615234,-0.1530390828847885,-27.477828979492188,-113.50300598144531,-314.2652587890625,-0.017889589071273804,0.022913813591003418,0.010608077049255371,1.3181602944518538,-0.07078557669940502,0.02761731517128906,-0.017678631469607353,-0.9682568907737732,-0.2493317872285843,-0.06025407463312149,0.05941952019929886,-0.013803143985569477,Walking,,,,,,,
5399,Magnetometer,,,,212.43603515625,16.591720581054688,0.023773193359375,98.186279296875,,,,-0.0416412353515625,-0.9281158447265625,-0.2676544189453125,0.09567992389202118,-0.08373165130615234,-0.1530390828847885,-26.957870483398438,-112.76602172851562,-314.8888854980469,-0.017889589071273804,0.022913813591003418,0.010608077049255371,1.3181602944518538,-0.07078557669940502,0.02761731517128906,-0.017678631469607353,-0.9682568907737732,-0.2493317872285843,-0.06025407463312149,0.05941952019929886,-0.013803143985569477,Walking,,,,,,,
5432,Gyrometer,,,,212.43603515625,16.591720581054688,0.023773193359375,98.186279296875,,,,-0.0416412353515625,-0.9281158447265625,-0.2676544189453125,-0.15337863564491272,-0.013407684862613678,0.01890205219388008,-26.957870483398438,-112.76602172851562,-314.8888854980469,-0.017889589071273804,0.022913813591003418,0.010608077049255371,1.3181602944518538,-0.07078557669940502,0.02761731517128906,-0.017678631469607353,-0.9682568907737732,-0.2493317872285843,-0.06025407463312149,0.05941952019929886,-0.013803143985569477,Walking,,,,,,,
5467,Accelerometer,,,,212.43603515625,16.591720581054688,0.023773193359375,98.186279296875,,,,-0.02398681640625,-0.956512451171875,-0.2397308349609375,-0.15337863564491272,-0.013407684862613678,0.01890205219388008,-26.957870483398438,-112.76602172851562,-314.8888854980469,-0.017889589071273804,0.022913813591003418,0.010608077049255371,1.3181602944518538,-0.07078557669940502,0.02761731517128906,-0.017678631469607353,-0.9682568907737732,-0.2493317872285843,-0.06025407463312149,0.05941952019929886,-0.013803143985569477,Walking,,,,,,,
5631,Device Motion,,,,212.43603515625,16.591720581054688,0.023773193359375,98.186279296875,,,,-0.02398681640625,-0.956512451171875,-0.2397308349609375,-0.15337863564491272,-0.013407684862613678,0.01890205219388008,-26.957870483398438,-112.76602172851562,-314.8888854980469,-0.030597835779190063,-0.02135688066482544,0.031556397676467896,1.2978749438482045,-0.047441683633555894,0.01587207292202061,-0.012782911770045757,-0.9629875421524048,-0.2692425549030304,0.062297627329826355,0.09218796342611313,-0.0197293721139431,Walking,,,,,,,
5699,Magnetometer,,,,212.43603515625,16.591720581054688,0.023773193359375,98.186279296875,,,,-0.02398681640625,-0.956512451171875,-0.2397308349609375,-0.15337863564491272,-0.013407684862613678,0.01890205219388008,-27.798507690429688,-112.25537109375,-315.0286865234375,-0.030597835779190063,-0.02135688066482544,0.031556397676467896,1.2978749438482045,-0.047441683633555894,0.01587207292202061,-0.012782911770045757,-0.9629875421524048,-0.2692425549030304,0.062297627329826355,0.09218796342611313,-0.0197293721139431,Walking,,,,,,,
5721,Gyrometer,,,,212.43603515625,16.591720581054688,0.023773193359375,98.186279296875,,,,-0.02398681640625,-0.956512451171875,-0.2397308349609375,0.11133185029029846,0.07502470910549164,0.033006154000759125,-27.798507690429688,-112.25537109375,-315.0286865234375,-0.030597835779190063,-0.02135688066482544,0.031556397676467896,1.2978749438482045,-0.047441683633555894,0.01587207292202061,-0.012782911770045757,-0.9629875421524048,-0.2692425549030304,0.062297627329826355,0.09218796342611313,-0.0197293721139431,Walking,,,,,,,
5756,Accelerometer,,,,212.43603515625,16.591720581054688,0.023773193359375,98.186279296875,,,,-0.022125244140625,-1.0298004150390625,-0.23675537109375,0.11133185029029846,0.07502470910549164,0.033006154000759125,-27.798507690429688,-112.25537109375,-315.0286865234375,-0.030597835779190063,-0.02135688066482544,0.031556397676467896,1.2978749438482045,-0.047441683633555894,0.01587207292202061,-0.012782911770045757,-0.9629875421524048,-0.2692425549030304,0.062297627329826355,0.09218796342611313,-0.0197293721139431,Walking,,,,,,,
5851,COMPASS,,,,211.3433380126953,16.590869903564453,0.023773193359375,98.186279296875,,,,-0.022125244140625,-1.0298004150390625,-0.23675537109375,0.11133185029029846,0.07502470910549164,0.033006154000759125,-27.798507690429688,-112.25537109375,-315.0286865234375,-0.030597835779190063,-0.02135688066482544,0.031556397676467896,1.2978749438482045,-0.047441683633555894,0.01587207292202061,-0.012782911770045757,-0.9629875421524048,-0.2692425549030304,0.062297627329826355,0.09218796342611313,-0.0197293721139431,Walking,,,,,,,
5930,Device Motion,,,,211.3433380126953,16.590869903564453,0.023773193359375,98.186279296875,,,,-0.022125244140625,-1.0298004150390625,-0.23675537109375,0.11133185029029846,0.07502470910549164,0.033006154000759125,-27.798507690429688,-112.25537109375,-315.0286865234375,0.04039478302001953,0.046700477600097656,-0.03492939472198486,1.3252084038289627,-0.056785738069371934,0.05483741656792587,-0.013798708096146584,-0.9699945449829102,-0.24273477494716644,0.11565326154232025,0.06405065208673477,0.1515260487794876,Walking,,,,,,,
5970,COMPASS,,,,210.1050262451172,16.590930938720703,0.023773193359375,98.186279296875,,,,-0.022125244140625,-1.0298004150390625,-0.23675537109375,0.11133185029029846,0.07502470910549164,0.033006154000759125,-27.798507690429688,-112.25537109375,-315.0286865234375,0.04039478302001953,0.046700477600097656,-0.03492939472198486,1.3252084038289627,-0.056785738069371934,0.05483741656792587,-0.013798708096146584,-0.9699945449829102,-0.24273477494716644,0.11565326154232025,0.06405065208673477,0.1515260487794876,Walking,,,,,,,
6004,Magnetometer,,,,210.1050262451172,16.590930938720703,0.023773193359375,98.186279296875,,,,-0.022125244140625,-1.0298004150390625,-0.23675537109375,0.11133185029029846,0.07502470910549164,0.033006154000759125,-29.81134033203125,-111.33869934082031,-314.16876220703125,0.04039478302001953,0.046700477600097656,-0.03492939472198486,1.3252084038289627,-0.056785738069371934,0.05483741656792587,-0.013798708096146584,-0.9699945449829102,-0.24273477494716644,0.11565326154232025,0.06405065208673477,0.1515260487794876,Walking,,,,,,,
6022,Gyrometer,,,,210.1050262451172,16.590930938720703,0.023773193359375,98.186279296875,,,,-0.022125244140625,-1.0298004150390625,-0.23675537109375,0.1590370535850525,0.12072375416755676,0.09035759419202805,-29.81134033203125,-111.33869934082031,-314.16876220703125,0.04039478302001953,0.046700477600097656,-0.03492939472198486,1.3252084038289627,-0.056785738069371934,0.05483741656792587,-0.013798708096146584,-0.9699945449829102,-0.24273477494716644,0.11565326154232025,0.06405065208673477,0.1515260487794876,Walking,,,,,,,
6054,Altimeter,,,,210.1050262451172,16.590930938720703,-0.01055908203125,98.18670654296875,,,,-0.022125244140625,-1.0298004150390625,-0.23675537109375,0.1590370535850525,0.12072375416755676,0.09035759419202805,-29.81134033203125,-111.33869934082031,-314.16876220703125,0.04039478302001953,0.046700477600097656,-0.03492939472198486,1.3252084038289627,-0.056785738069371934,0.05483741656792587,-0.013798708096146584,-0.9699945449829102,-0.24273477494716644,0.11565326154232025,0.06405065208673477,0.1515260487794876,Walking,,,,,,,
6087,Accelerometer,,,,210.1050262451172,16.590930938720703,-0.01055908203125,98.18670654296875,,,,0.0050201416015625,-0.9216766357421875,-0.288238525390625,0.1590370535850525,0.12072375416755676,0.09035759419202805,-29.81134033203125,-111.33869934082031,-314.16876220703125,0.04039478302001953,0.046700477600097656,-0.03492939472198486,1.3252084038289627,-0.056785738069371934,0.05483741656792587,-0.013798708096146584,-0.9699945449829102,-0.24273477494716644,0.11565326154232025,0.06405065208673477,0.1515260487794876,Walking,,,,,,,
6116,COMPASS,,,,209.03350830078125,16.590967178344727,-0.01055908203125,98.18670654296875,,,,0.0050201416015625,-0.9216766357421875,-0.288238525390625,0.1590370535850525,0.12072375416755676,0.09035759419202805,-29.81134033203125,-111.33869934082031,-314.16876220703125,0.04039478302001953,0.046700477600097656,-0.03492939472198486,1.3252084038289627,-0.056785738069371934,0.05483741656792587,-0.013798708096146584,-0.9699945449829102,-0.24273477494716644,0.11565326154232025,0.06405065208673477,0.1515260487794876,Walking,,,,,,,
6229,Device Motion,,,,209.03350830078125,16.590967178344727,-0.01055908203125,98.18670654296875,,,,0.0050201416015625,-0.9216766357421875,-0.288238525390625,0.1590370535850525,0.12072375416755676,0.09035759419202805,-29.81134033203125,-111.33869934082031,-314.16876220703125,0.005149900913238525,0.0327150821685791,0.010558366775512695,1.3208192825815306,-0.12147127760896288,0.13997680156347514,-0.02997593954205513,-0.9689180850982666,-0.2455589473247528,-0.1495910882949829,0.053648702800273895,0.02019830048084259,Walking,,,,,,,
6297,Magnetometer,,,,209.03350830078125,16.590967178344727,-0.01055908203125,98.18670654296875,,,,0.0050201416015625,-0.9216766357421875,-0.288238525390625,0.1590370535850525,0.12072375416755676,0.09035759419202805,-30.188995361328125,-110.71774291992188,-314.8292236328125,0.005149900913238525,0.0327150821685791,0.010558366775512695,1.3208192825815306,-0.12147127760896288,0.13997680156347514,-0.02997593954205513,-0.9689180850982666,-0.2455589473247528,-0.1495910882949829,0.053648702800273895,0.02019830048084259,Walking,,,,,,,
