Timestamp (ms),Triggering Sensor,Latitude,Longitude,Altitude,Heading (degrees),Heading accuracy (degrees),Relative Altitude (m),Pressure (kPa),Speed (m/s),Speed Accuracy (m/s),Floor,Acceleration - X axis,Acceleration - Y axis,Acceleration - Z axis,Gyrometer - X axis,Gyrometer - Y axis,Gyrometer - Z axis,Magnetometer - X axis,Magnetometer - Y axis,Magnetometer - Z axis,User acceleration - X axis,User acceleration - Y axis,User acceleration - Z axis,Attitude Pitch,Attitude Roll,Attitude Yaw,Gravity - X axis,Gravity - Y axis,Gravity - Z axis,Rotation Rate - X axis,Rotation Rate - Y axis,Rotation Rate - Z axis,Activity Type,Number of Steps,Distance,Floors Ascended,Floors Descended,Current Pace,Current Cadence,Average Active Pace
10,Activity Manager,,,,,,,,,,,,,,,,,,,,,,,,,,,,,,,,Walking,,,,,,,
31,GPS,40.443958045786424,-79.94452562548419,286.1717948913574,,,,,-1.0,-1.0,N/A,,,,,,,,,,,,,,,,,,,,,,Walking,,,,,,,
67,Gyrometer,40.443958045786424,-79.94452562548419,286.1717948913574,,,,,-1.0,-1.0,N/A,,,,-0.031253259629011154,-0.07011224329471588,-0.047086019068956375,,,,,,,,,,,,,,,,Walking,,,,,,,
89,Magnetometer,40.443958045786424,-79.94452562548419,286.1717948913574,,,,,-1.0,-1.0,N/A,,,,-0.031253259629011154,-0.07011224329471588,-0.047086019068956375,-41.7720947265625,-113.28256225585938,-323.0757751464844,,,,,,,,,,,,,Walking,,,,,,,
109,GPS,40.443921467347494,-79.94449524261543,286.1680107116699,,,,,-1.0,-1.0,N/A,,,,-0.031253259629011154,-0.07011224329471588,-0.047086019068956375,-41.7720947265625,-113.28256225585938,-323.0757751464844,,,,,,,,,,,,,Walking,,,,,,,
131,COMPASS,40.443921467347494,-79.94449524261543,286.1680107116699,85.54923248291016,15.178886413574219,,,-1.0,-1.0,N/A,,,,-0.031253259629011154,-0.07011224329471588,-0.047086019068956375,-41.7720947265625,-113.28256225585938,-323.0757751464844,,,,,,,,,,,,,Walking,,,,,,,
152,Accelerometer,40.443921467347494,-79.94449524261543,286.1680107116699,85.54923248291016,15.178886413574219,,,-1.0,-1.0,N/A,0.0272979736328125,-0.981414794921875,-0.23394775390625,-0.031253259629011154,-0.07011224329471588,-0.047086019068956375,-41.7720947265625,-113.28256225585938,-323.0757751464844,,,,,,,,,,,,,Walking,,,,,,,
177,GPS,40.44389062016076,-79.94446620619266,286.1661186218262,85.54923248291016,15.178886413574219,,,-1.0,-1.0,N/A,0.0272979736328125,-0.981414794921875,-0.23394775390625,-0.031253259629011154,-0.07011224329471588,-0.047086019068956375,-41.7720947265625,-113.28256225585938,-323.0757751464844,,,,,,,,,,,,,Walking,,,,,,,
198,GPS,40.44390156008038,-79.94447354809631,286.1661186218262,85.54923248291016,15.178886413574219,,,-1.0,-1.0,N/A,0.0272979736328125,-0.981414794921875,-0.23394775390625,-0.031253259629011154,-0.07011224329471588,-0.047086019068956375,-41.7720947265625,-113.28256225585938,-323.0757751464844,,,,,,,,,,,,,Walking,,,,,,,
224,Device Motion,40.44390156008038,-79.94447354809631,286.1661186218262,85.54923248291016,15.178886413574219,,,-1.0,-1.0,N/A,0.0272979736328125,-0.981414794921875,-0.23394775390625,-0.031253259629011154,-0.07011224329471588,-0.047086019068956375,-41.7720947265625,-113.28256225585938,-323.0757751464844,0.008800595998764038,0.010325014591217041,0.0173843652009964,1.34761897225851,0.01532244822350088,-0.012234662624565372,0.0033911678474396467,-0.9751991033554077,-0.22130291163921356,0.030863938853144646,0.0003595668822526932,0.01763083226978779,Walking,,,,,,,
306,Gyrometer,40.44390156008038,-79.94447354809631,286.1661186218262,85.54923248291016,15.178886413574219,,,-1.0,-1.0,N/A,0.0272979736328125,-0.981414794921875,-0.23394775390625,-0.008029164746403694,0.006309028714895248,0.03383279964327812,-41.7720947265625,-113.28256225585938,-323.0757751464844,0.008800595998764038,0.010325014591217041,0.0173843652009964,1.34761897225851,0.01532244822350088,-0.012234662624565372,0.0033911678474396467,-0.9751991033554077,-0.22130291163921356,0.030863938853144646,0.0003595668822526932,0.01763083226978779,Walking,,,,,,,
334,Magnetometer,40.44390156008038,-79.94447354809631,286.1661186218262,85.54923248291016,15.178886413574219,,,-1.0,-1.0,N/A,0.0272979736328125,-0.981414794921875,-0.23394775390625,-0.008029164746403694,0.006309028714895248,0.03383279964327812,-41.67347717285156,-113.08610534667969,-323.2091369628906,0.008800595998764038,0.010325014591217041,0.0173843652009964,1.34761897225851,0.01532244822350088,-0.012234662624565372,0.0033911678474396467,-0.9751991033554077,-0.22130291163921356,0.030863938853144646,0.0003595668822526932,0.01763083226978779,Walking,,,,,,,
360,Accelerometer,40.44390156008038,-79.94447354809631,286.1661186218262,85.54923248291016,15.178886413574219,,,-1.0,-1.0,N/A,0.00445556640625,-0.970977783203125,-0.2050323486328125,-0.008029164746403694,0.006309028714895248,0.03383279964327812,-41.67347717285156,-113.08610534667969,-323.2091369628906,0.008800595998764038,0.010325014591217041,0.0173843652009964,1.34761897225851,0.01532244822350088,-0.012234662624565372,0.0033911678474396467,-0.9751991033554077,-0.22130291163921356,0.030863938853144646,0.0003595668822526932,0.01763083226978779,Walking,,,,,,,
520,Device Motion,40.44390156008038,-79.94447354809631,286.1661186218262,85.54923248291016,15.178886413574219,,,-1.0,-1.0,N/A,0.00445556640625,-0.970977783203125,-0.2050323486328125,-0.008029164746403694,0.006309028714895248,0.03383279964327812,-41.67347717285156,-113.08610534667969,-323.2091369628906,-0.003005385398864746,0.004901766777038574,0.046024322509765625,1.3460792137430868,-0.004864546597368909,0.00445842136057683,-0.0010839657625183463,-0.9748572111129761,-0.22282801568508148,-0.05880320817232132,0.0331181176006794,-0.0053659710101783276,Walking,,,,,,,
606,Gyrometer,40.44390156008038,-79.94447354809631,286.1661186218262,85.54923248291016,15.178886413574219,,,-1.0,-1.0,N/A,0.00445556640625,-0.970977783203125,-0.2050323486328125,-0.06655053049325943,0.017706027254462242,0.0016567525453865528,-41.67347717285156,-113.08610534667969,-323.2091369628906,-0.003005385398864746,0.004901766777038574,0.046024322509765625,1.3460792137430868,-0.004864546597368909,0.00445842136057683,-0.0010839657625183463,-0.9748572111129761,-0.22282801568508148,-0.05880320817232132,0.0331181176006794,-0.0053659710101783276,Walking,,,,,,,
627,GPS,40.44397496580822,-79.94452814528756,286.1654968261719,85.54923248291016,15.178886413574219,,,-1.0,-1.0,N/A,0.00445556640625,-0.970977783203125,-0.2050323486328125,-0.06655053049325943,0.017706027254462242,0.0016567525453865528,-41.67347717285156,-113.08610534667969,-323.2091369628906,-0.003005385398864746,0.004901766777038574,0.046024322509765625,1.3460792137430868,-0.004864546597368909,0.00445842136057683,-0.0010839657625183463,-0.9748572111129761,-0.22282801568508148,-0.05880320817232132,0.0331181176006794,-0.0053659710101783276,Walking,,,,,,,
652,Magnetometer,40.44397496580822,-79.94452814528756,286.1654968261719,85.54923248291016,15.178886413574219,,,-1.0,-1.0,N/A,0.00445556640625,-0.970977783203125,-0.2050323486328125,-0.06655053049325943,0.017706027254462242,0.0016567525453865528,-42.057830810546875,-112.98139953613281,-323.3853759765625,-0.003005385398864746,0.004901766777038574,0.046024322509765625,1.3460792137430868,-0.004864546597368909,0.00445842136057683,-0.0010839657625183463,-0.9748572111129761,-0.22282801568508148,-0.05880320817232132,0.0331181176006794,-0.0053659710101783276,Walking,,,,,,,
678,Accelerometer,40.44397496580822,-79.94452814528756,286.1654968261719,85.54923248291016,15.178886413574219,,,-1.0,-1.0,N/A,-0.0042572021484375,-0.970367431640625,-0.1815643310546875,-0.06655053049325943,0.017706027254462242,0.0016567525453865528,-42.057830810546875,-112.98139953613281,-323.3853759765625,-0.003005385398864746,0.004901766777038574,0.046024322509765625,1.3460792137430868,-0.004864546597368909,0.00445842136057683,-0.0010839657625183463,-0.9748572111129761,-0.22282801568508148,-0.05880320817232132,0.0331181176006794,-0.0053659710101783276,Walking,,,,,,,
819,Device Motion,40.44397496580822,-79.94452814528756,286.1654968261719,85.54923248291016,15.178886413574219,,,-1.0,-1.0,N/A,-0.0042572021484375,-0.970367431640625,-0.1815643310546875,-0.06655053049325943,0.017706027254462242,0.0016567525453865528,-42.057830810546875,-112.98139953613281,-323.3853759765625,-0.0210970938205719,-0.006270289421081543,0.10045623779296875,1.3211925589259814,-0.027639021824241175,0.01961689109624183,-0.006826516706496477,-0.9690103530883789,-0.2469254732131958,-0.05519947409629822,0.009618991985917091,-0.001887058257125318,Walking,,,,,,,
907,Gyrometer,40.44397496580822,-79.94452814528756,286.1654968261719,85.54923248291016,15.178886413574219,,,-1.0,-1.0,N/A,-0.0042572021484375,-0.970367431640625,-0.1815643310546875,-0.014038320630788803,0.014081730507314205,-0.05320649594068527,-42.057830810546875,-112.98139953613281,-323.3853759765625,-0.0210970938205719,-0.006270289421081543,0.10045623779296875,1.3211925589259814,-0.027639021824241175,0.01961689109624183,-0.006826516706496477,-0.9690103530883789,-0.2469254732131958,-0.05519947409629822,0.009618991985917091,-0.001887058257125318,Walking,,,,,,,
933,Magnetometer,40.44397496580822,-79.94452814528756,286.1654968261719,85.54923248291016,15.178886413574219,,,-1.0,-1.0,N/A,-0.0042572021484375,-0.970367431640625,-0.1815643310546875,-0.014038320630788803,0.014081730507314205,-0.05320649594068527,-42.00248718261719,-112.980712890625,-323.3693542480469,-0.0210970938205719,-0.006270289421081543,0.10045623779296875,1.3211925589259814,-0.027639021824241175,0.01961689109624183,-0.006826516706496477,-0.9690103530883789,-0.2469254732131958,-0.05519947409629822,0.009618991985917091,-0.001887058257125318,Walking,,,,,,,
959,Accelerometer,40.44397496580822,-79.94452814528756,286.1654968261719,85.54923248291016,15.178886413574219,,,-1.0,-1.0,N/A,-0.019927978515625,-0.9748382568359375,-0.1393890380859375,-0.014038320630788803,0.014081730507314205,-0.05320649594068527,-42.00248718261719,-112.980712890625,-323.3693542480469,-0.0210970938205719,-0.006270289421081543,0.10045623779296875,1.3211925589259814,-0.027639021824241175,0.01961689109624183,-0.006826516706496477,-0.9690103530883789,-0.2469254732131958,-0.05519947409629822,0.009618991985917091,-0.001887058257125318,Walking,,,,,,,
1024,Altimeter,40.44397496580822,-79.94452814528756,286.1654968261719,85.54923248291016,15.178886413574219,0,98.12644958496094,-1.0,-1.0,N/A,-0.019927978515625,-0.9748382568359375,-0.1393890380859375,-0.014038320630788803,0.014081730507314205,-0.05320649594068527,-42.00248718261719,-112.980712890625,-323.3693542480469,-0.0210970938205719,-0.006270289421081543,0.10045623779296875,1.3211925589259814,-0.027639021824241175,0.01961689109624183,-0.006826516706496477,-0.9690103530883789,-0.2469254732131958,-0.05519947409629822,0.009618991985917091,-0.001887058257125318,Walking,,,,,,,
1119,Device Motion,40.44397496580822,-79.94452814528756,286.1654968261719,85.54923248291016,15.178886413574219,0,98.12644958496094,-1.0,-1.0,N/A,-0.019927978515625,-0.9748382568359375,-0.1393890380859375,-0.014038320630788803,0.014081730507314205,-0.05320649594068527,-42.00248718261719,-112.980712890625,-323.3693542480469,-0.022350162267684937,-0.056640803813934326,0.10887368023395538,1.3247956696112289,-0.008788495984292728,0.008410109725773461,-0.002140206517651677,-0.9698941111564636,-0.24351736903190613,-0.05784527212381363,0.09744571894407272,0.0207980889827013,Walking,,,,,,,
1207,Gyrometer,40.44397496580822,-79.94452814528756,286.1654968261719,85.54923248291016,15.178886413574219,0,98.12644958496094,-1.0,-1.0,N/A,-0.019927978515625,-0.9748382568359375,-0.1393890380859375,-0.045876409858465195,0.10563481599092484,0.00195156445261091,-42.00248718261719,-112.980712890625,-323.3693542480469,-0.022350162267684937,-0.056640803813934326,0.10887368023395538,1.3247956696112289,-0.008788495984292728,0.008410109725773461,-0.002140206517651677,-0.9698941111564636,-0.24351736903190613,-0.05784527212381363,0.09744571894407272,0.0207980889827013,Walking,,,,,,,
1246,Magnetometer,40.44397496580822,-79.94452814528756,286.1654968261719,85.54923248291016,15.178886413574219,0,98.12644958496094,-1.0,-1.0,N/A,-0.019927978515625,-0.9748382568359375,-0.1393890380859375,-0.045876409858465195,0.10563481599092484,0.00195156445261091,-42.98023986816406,-112.20355224609375,-323.4355773925781,-0.022350162267684937,-0.056640803813934326,0.10887368023395538,1.3247956696112289,-0.008788495984292728,0.008410109725773461,-0.002140206517651677,-0.9698941111564636,-0.24351736903190613,-0.05784527212381363,0.09744571894407272,0.0207980889827013,Walking,,,,,,,
1277,Accelerometer,40.44397496580822,-79.94452814528756,286.1654968261719,85.54923248291016,15.178886413574219,0,98.12644958496094,-1.0,-1.0,N/A,-0.0054779052734375,-1.0470123291015625,-0.1923065185546875,-0.045876409858465195,0.10563481599092484,0.00195156445261091,-42.98023986816406,-112.20355224609375,-323.4355773925781,-0.022350162267684937,-0.056640803813934326,0.10887368023395538,1.3247956696112289,-0.008788495984292728,0.008410109725773461,-0.002140206517651677,-0.9698941111564636,-0.24351736903190613,-0.05784527212381363,0.09744571894407272,0.0207980889827013,Walking,,,,,,,
1329,COMPASS,40.44397496580822,-79.94452814528756,286.1654968261719,84.42959594726562,15.17236042022705,0,98.12644958496094,-1.0,-1.0,N/A,-0.0054779052734375,-1.0470123291015625,-0.1923065185546875,-0.045876409858465195,0.10563481599092484,0.00195156445261091,-42.98023986816406,-112.20355224609375,-323.4355773925781,-0.022350162267684937,-0.056640803813934326,0.10887368023395538,1.3247956696112289,-0.008788495984292728,0.008410109725773461,-0.002140206517651677,-0.9698941111564636,-0.24351736903190613,-0.05784527212381363,0.09744571894407272,0.0207980889827013,Walking,,,,,,,
1418,Device Motion,40.44397496580822,-79.94452814528756,286.1654968261719,84.42959594726562,15.17236042022705,0,98.12644958496094,-1.0,-1.0,N/A,-0.0054779052734375,-1.0470123291015625,-0.1923065185546875,-0.045876409858465195,0.10563481599092484,0.00195156445261091,-42.98023986816406,-112.20355224609375,-323.4355773925781,0.03438243269920349,0.04608553647994995,-0.019205987453460693,1.3464916352733727,-0.030414575399013197,0.06366754929961338,-0.006764023099094629,-0.9749490022659302,-0.22232556343078613,-0.13743768632411957,-0.02351231686770916,0.12208062410354614,Walking,,,,,,,
1446,COMPASS,40.44397496580822,-79.94452814528756,286.1654968261719,83.40569305419922,15.173152923583984,0,98.12644958496094,-1.0,-1.0,N/A,-0.0054779052734375,-1.0470123291015625,-0.1923065185546875,-0.045876409858465195,0.10563481599092484,0.00195156445261091,-42.98023986816406,-112.20355224609375,-323.4355773925781,0.03438243269920349,0.04608553647994995,-0.019205987453460693,1.3464916352733727,-0.030414575399013197,0.06366754929961338,-0.006764023099094629,-0.9749490022659302,-0.22232556343078613,-0.13743768632411957,-0.02351231686770916,0.12208062410354614,Walking,,,,,,,
1507,Gyrometer,40.44397496580822,-79.94452814528756,286.1654968261719,83.40569305419922,15.173152923583984,0,98.12644958496094,-1.0,-1.0,N/A,-0.0054779052734375,-1.0470123291015625,-0.1923065185546875,0.018004566431045532,0.05089833587408066,0.18559995293617249,-42.98023986816406,-112.20355224609375,-323.4355773925781,0.03438243269920349,0.04608553647994995,-0.019205987453460693,1.3464916352733727,-0.030414575399013197,0.06366754929961338,-0.006764023099094629,-0.9749490022659302,-0.22232556343078613,-0.13743768632411957,-0.02351231686770916,0.12208062410354614,Walking,,,,,,,
1533,Magnetometer,40.44397496580822,-79.94452814528756,286.1654968261719,83.40569305419922,15.173152923583984,0,98.12644958496094,-1.0,-1.0,N/A,-0.0054779052734375,-1.0470123291015625,-0.1923065185546875,0.018004566431045532,0.05089833587408066,0.18559995293617249,-44.2076416015625,-111.82362365722656,-322.4833068847656,0.03438243269920349,0.04608553647994995,-0.019205987453460693,1.3464916352733727,-0.030414575399013197,0.06366754929961338,-0.006764023099094629,-0.9749490022659302,-0.22232556343078613,-0.13743768632411957,-0.02351231686770916,0.12208062410354614,Walking,,,,,,,
1563,COMPASS,40.44397496580822,-79.94452814528756,286.1654968261719,82.06356811523438,15.174077987670898,0,98.12644958496094,-1.0,-1.0,N/A,-0.0054779052734375,-1.0470123291015625,-0.1923065185546875,0.018004566431045532,0.05089833587408066,0.18559995293617249,-44.2076416015625,-111.82362365722656,-322.4833068847656,0.03438243269920349,0.04608553647994995,-0.019205987453460693,1.3464916352733727,-0.030414575399013197,0.06366754929961338,-0.006764023099094629,-0.9749490022659302,-0.22232556343078613,-0.13743768632411957,-0.02351231686770916,0.12208062410354614,Walking,,,,,,,
1588,Accelerometer,40.44397496580822,-79.94452814528756,286.1654968261719,82.06356811523438,15.174077987670898,0,98.12644958496094,-1.0,-1.0,N/A,0.03643798828125,-0.9472503662109375,-0.2740478515625,0.018004566431045532,0.05089833587408066,0.18559995293617249,-44.2076416015625,-111.82362365722656,-322.4833068847656,0.03438243269920349,0.04608553647994995,-0.019205987453460693,1.3464916352733727,-0.030414575399013197,0.06366754929961338,-0.006764023099094629,-0.9749490022659302,-0.22232556343078613,-0.13743768632411957,-0.02351231686770916,0.12208062410354614,Walking,,,,,,,
1614,COMPASS,40.44397496580822,-79.94452814528756,286.1654968261719,81.03880310058594,15.174580574035645,0,98.12644958496094,-1.0,-1.0,N/A,0.03643798828125,-0.9472503662109375,-0.2740478515625,0.018004566431045532,0.05089833587408066,0.18559995293617249,-44.2076416015625,-111.82362365722656,-322.4833068847656,0.03438243269920349,0.04608553647994995,-0.019205987453460693,1.3464916352733727,-0.030414575399013197,0.06366754929961338,-0.006764023099094629,-0.9749490022659302,-0.22232556343078613,-0.13743768632411957,-0.02351231686770916,0.12208062410354614,Walking,,,,,,,
1708,COMPASS,40.44397496580822,-79.94452814528756,286.1654968261719,79.88270568847656,15.175686836242676,0,98.12644958496094,-1.0,-1.0,N/A,0.03643798828125,-0.9472503662109375,-0.2740478515625,0.018004566431045532,0.05089833587408066,0.18559995293617249,-44.2076416015625,-111.82362365722656,-322.4833068847656,0.03438243269920349,0.04608553647994995,-0.019205987453460693,1.3464916352733727,-0.030414575399013197,0.06366754929961338,-0.006764023099094629,-0.9749490022659302,-0.22232556343078613,-0.13743768632411957,-0.02351231686770916,0.12208062410354614,Walking,,,,,,,
1734,Device Motion,40.44397496580822,-79.94452814528756,286.1654968261719,79.88270568847656,15.175686836242676,0,98.12644958496094,-1.0,-1.0,N/A,0.03643798828125,-0.9472503662109375,-0.2740478515625,0.018004566431045532,0.05089833587408066,0.18559995293617249,-44.2076416015625,-111.82362365722656,-322.4833068847656,0.013974074274301529,0.04293113946914673,0.10473968088626862,1.3240166597021454,-0.19097390120669558,0.251753244253098,-0.04636846482753754,-0.9697040915489197,-0.23984108865261078,-0.08610133826732635,0.18116861581802368,-0.025709962472319603,Walking,,,,,,,
1807,Gyrometer,40.44397496580822,-79.94452814528756,286.1654968261719,79.88270568847656,15.175686836242676,0,98.12644958496094,-1.0,-1.0,N/A,0.03643798828125,-0.9472503662109375,-0.2740478515625,-0.1541150063276291,-0.15478159487247467,-0.009190835058689117,-44.2076416015625,-111.82362365722656,-322.4833068847656,0.013974074274301529,0.04293113946914673,0.10473968088626862,1.3240166597021454,-0.19097390120669558,0.251753244253098,-0.04636846482753754,-0.9697040915489197,-0.23984108865261078,-0.08610133826732635,0.18116861581802368,-0.025709962472319603,Walking,,,,,,,
1832,Magnetometer,40.44397496580822,-79.94452814528756,286.1654968261719,79.88270568847656,15.175686836242676,0,98.12644958496094,-1.0,-1.0,N/A,0.03643798828125,-0.9472503662109375,-0.2740478515625,-0.1541150063276291,-0.15478159487247467,-0.009190835058689117,-45.94087219238281,-112.37071228027344,-322.6090087890625,0.013974074274301529,0.04293113946914673,0.10473968088626862,1.3240166597021454,-0.19097390120669558,0.251753244253098,-0.04636846482753754,-0.9697040915489197,-0.23984108865261078,-0.08610133826732635,0.18116861581802368,-0.025709962472319603,Walking,,,,,,,
1853,Accelerometer,40.44397496580822,-79.94452814528756,286.1654968261719,79.88270568847656,15.175686836242676,0,98.12644958496094,-1.0,-1.0,N/A,-0.0298919677734375,-1.030548095703125,-0.2291259765625,-0.1541150063276291,-0.15478159487247467,-0.009190835058689117,-45.94087219238281,-112.37071228027344,-322.6090087890625,0.013974074274301529,0.04293113946914673,0.10473968088626862,1.3240166597021454,-0.19097390120669558,0.251753244253098,-0.04636846482753754,-0.9697040915489197,-0.23984108865261078,-0.08610133826732635,0.18116861581802368,-0.025709962472319603,Walking,,,,,,,
1987,COMPASS,40.44397496580822,-79.94452814528756,286.1654968261719,81.0737075805664,15.17849349975586,0,98.12644958496094,-1.0,-1.0,N/A,-0.0298919677734375,-1.030548095703125,-0.2291259765625,-0.1541150063276291,-0.15478159487247467,-0.009190835058689117,-45.94087219238281,-112.37071228027344,-322.6090087890625,0.013974074274301529,0.04293113946914673,0.10473968088626862,1.3240166597021454,-0.19097390120669558,0.251753244253098,-0.04636846482753754,-0.9697040915489197,-0.23984108865261078,-0.08610133826732635,0.18116861581802368,-0.025709962472319603,Walking,,,,,,,
2016,Device Motion,40.44397496580822,-79.94452814528756,286.1654968261719,81.0737075805664,15.17849349975586,0,98.12644958496094,-1.0,-1.0,N/A,-0.0298919677734375,-1.030548095703125,-0.2291259765625,-0.1541150063276291,-0.15478159487247467,-0.009190835058689117,-45.94087219238281,-112.37071228027344,-322.6090087890625,-0.0007158182561397552,-0.06161773204803467,-0.04537615180015564,1.3286362931965898,-0.11799734192200363,0.16534877177455964,-0.028230108320713043,-0.970822274684906,-0.23813220858573914,-0.10074359178543091,-0.0641319751739502,-0.20509758591651917,Walking,,,,,,,
2043,Altimeter,40.44397496580822,-79.94452814528756,286.1654968261719,81.0737075805664,15.17849349975586,-0.050201416015625,98.12702941894531,-1.0,-1.0,N/A,-0.0298919677734375,-1.030548095703125,-0.2291259765625,-0.1541150063276291,-0.15478159487247467,-0.009190835058689117,-45.94087219238281,-112.37071228027344,-322.6090087890625,-0.0007158182561397552,-0.06161773204803467,-0.04537615180015564,1.3286362931965898,-0.11799734192200363,0.16534877177455964,-0.028230108320713043,-0.970822274684906,-0.23813220858573914,-0.10074359178543091,-0.0641319751739502,-0.20509758591651917,Walking,,,,,,,
2068,COMPASS,40.44397496580822,-79.94452814528756,286.1654968261719,82.11054992675781,15.17939567565918,-0.050201416015625,98.12702941894531,-1.0,-1.0,N/A,-0.0298919677734375,-1.030548095703125,-0.2291259765625,-0.1541150063276291,-0.15478159487247467,-0.009190835058689117,-45.94087219238281,-112.37071228027344,-322.6090087890625,-0.0007158182561397552,-0.06161773204803467,-0.04537615180015564,1.3286362931965898,-0.11799734192200363,0.16534877177455964,-0.028230108320713043,-0.970822274684906,-0.23813220858573914,-0.10074359178543091,-0.0641319751739502,-0.20509758591651917,Walking,,,,,,,
2108,Gyrometer,40.44397496580822,-79.94452814528756,286.1654968261719,82.11054992675781,15.17939567565918,-0.050201416015625,98.12702941894531,-1.0,-1.0,N/A,-0.0298919677734375,-1.030548095703125,-0.2291259765625,0.10849025845527649,-0.04145902767777443,-0.03440377861261368,-45.94087219238281,-112.37071228027344,-322.6090087890625,-0.0007158182561397552,-0.06161773204803467,-0.04537615180015564,1.3286362931965898,-0.11799734192200363,0.16534877177455964,-0.028230108320713043,-0.970822274684906,-0.23813220858573914,-0.10074359178543091,-0.0641319751739502,-0.20509758591651917,Walking,,,,,,,
2133,Magnetometer,40.44397496580822,-79.94452814528756,286.1654968261719,82.11054992675781,15.17939567565918,-0.050201416015625,98.12702941894531,-1.0,-1.0,N/A,-0.0298919677734375,-1.030548095703125,-0.2291259765625,0.10849025845527649,-0.04145902767777443,-0.03440377861261368,-46.109619140625,-114.18232727050781,-321.6730041503906,-0.0007158182561397552,-0.06161773204803467,-0.04537615180015564,1.3286362931965898,-0.11799734192200363,0.16534877177455964,-0.028230108320713043,-0.970822274684906,-0.23813220858573914,-0.10074359178543091,-0.0641319751739502,-0.20509758591651917,Walking,,,,,,,
2160,Accelerometer,40.44397496580822,-79.94452814528756,286.1654968261719,82.11054992675781,15.17939567565918,-0.050201416015625,98.12702941894531,-1.0,-1.0,N/A,-0.0612335205078125,-0.930145263671875,-0.2587738037109375,0.10849025845527649,-0.04145902767777443,-0.03440377861261368,-46.109619140625,-114.18232727050781,-321.6730041503906,-0.0007158182561397552,-0.06161773204803467,-0.04537615180015564,1.3286362931965898,-0.11799734192200363,0.16534877177455964,-0.028230108320713043,-0.970822274684906,-0.23813220858573914,-0.10074359178543091,-0.0641319751739502,-0.20509758591651917,Walking,,,,,,,
2266,COMPASS,40.44397496580822,-79.94452814528756,286.1654968261719,83.22476196289062,15.180994033813477,-0.050201416015625,98.12702941894531,-1.0,-1.0,N/A,-0.0612335205078125,-0.930145263671875,-0.2587738037109375,0.10849025845527649,-0.04145902767777443,-0.03440377861261368,-46.109619140625,-114.18232727050781,-321.6730041503906,-0.0007158182561397552,-0.06161773204803467,-0.04537615180015564,1.3286362931965898,-0.11799734192200363,0.16534877177455964,-0.028230108320713043,-0.970822274684906,-0.23813220858573914,-0.10074359178543091,-0.0641319751739502,-0.20509758591651917,Walking,,,,,,,
2315,Device Motion,40.44397496580822,-79.94452814528756,286.1654968261719,83.22476196289062,15.180994033813477,-0.050201416015625,98.12702941894531,-1.0,-1.0,N/A,-0.0612335205078125,-0.930145263671875,-0.2587738037109375,0.10849025845527649,-0.04145902767777443,-0.03440377861261368,-46.109619140625,-114.18232727050781,-321.6730041503906,-0.03003951907157898,0.11840569972991943,0.042695313692092896,1.31237337802101,-0.02187463728586503,0.051958828040147384,-0.005589741747826338,-0.9667941927909851,-0.25549453496932983,-0.03488241508603096,-0.08955928683280945,-0.10431413352489471,Walking,,,,,,,
2366,COMPASS,40.44397496580822,-79.94452814528756,286.1654968261719,84.24665832519531,15.182113647460938,-0.050201416015625,98.12702941894531,-1.0,-1.0,N/A,-0.0612335205078125,-0.930145263671875,-0.2587738037109375,0.10849025845527649,-0.04145902767777443,-0.03440377861261368,-46.109619140625,-114.18232727050781,-321.6730041503906,-0.03003951907157898,0.11840569972991943,0.042695313692092896,1.31237337802101,-0.02187463728586503,0.051958828040147384,-0.005589741747826338,-0.9667941927909851,-0.25549453496932983,-0.03488241508603096,-0.08955928683280945,-0.10431413352489471,Walking,,,,,,,
2408,Gyrometer,40.44397496580822,-79.94452814528756,286.1654968261719,84.24665832519531,15.182113647460938,-0.050201416015625,98.12702941894531,-1.0,-1.0,N/A,-0.0612335205078125,-0.930145263671875,-0.2587738037109375,0.2566506862640381,0.026034796610474586,0.04303455352783203,-46.109619140625,-114.18232727050781,-321.6730041503906,-0.03003951907157898,0.11840569972991943,0.042695313692092896,1.31237337802101,-0.02187463728586503,0.051958828040147384,-0.005589741747826338,-0.9667941927909851,-0.25549453496932983,-0.03488241508603096,-0.08955928683280945,-0.10431413352489471,Walking,,,,,,,
2433,Magnetometer,40.44397496580822,-79.94452814528756,286.1654968261719,84.24665832519531,15.182113647460938,-0.050201416015625,98.12702941894531,-1.0,-1.0,N/A,-0.0612335205078125,-0.930145263671875,-0.2587738037109375,0.2566506862640381,0.026034796610474586,0.04303455352783203,-45.92669677734375,-115.50910949707031,-322.806396484375,-0.03003951907157898,0.11840569972991943,0.042695313692092896,1.31237337802101,-0.02187463728586503,0.051958828040147384,-0.005589741747826338,-0.9667941927909851,-0.25549453496932983,-0.03488241508603096,-0.08955928683280945,-0.10431413352489471,Walking,,,,,,,
2459,Accelerometer,40.44397496580822,-79.94452814528756,286.1654968261719,84.24665832519531,15.182113647460938,-0.050201416015625,98.12702941894531,-1.0,-1.0,N/A,-0.0371551513671875,-0.9811859130859375,-0.2124786376953125,0.2566506862640381,0.026034796610474586,0.04303455352783203,-45.92669677734375,-115.50910949707031,-322.806396484375,-0.03003951907157898,0.11840569972991943,0.042695313692092896,1.31237337802101,-0.02187463728586503,0.051958828040147384,-0.005589741747826338,-0.9667941927909851,-0.25549453496932983,-0.03488241508603096,-0.08955928683280945,-0.10431413352489471,Walking,,,,,,,
2565,COMPASS,40.44397496580822,-79.94452814528756,286.1654968261719,83.1026382446289,15.1841459274292,-0.050201416015625,98.12702941894531,-1.0,-1.0,N/A,-0.0371551513671875,-0.9811859130859375,-0.2124786376953125,0.2566506862640381,0.026034796610474586,0.04303455352783203,-45.92669677734375,-115.50910949707031,-322.806396484375,-0.03003951907157898,0.11840569972991943,0.042695313692092896,1.31237337802101,-0.02187463728586503,0.051958828040147384,-0.005589741747826338,-0.9667941927909851,-0.25549453496932983,-0.03488241508603096,-0.08955928683280945,-0.10431413352489471,Walking,,,,,,,
2614,Device Motion,40.44397496580822,-79.94452814528756,286.1654968261719,83.1026382446289,15.1841459274292,-0.050201416015625,98.12702941894531,-1.0,-1.0,N/A,-0.0371551513671875,-0.9811859130859375,-0.2124786376953125,0.2566506862640381,0.026034796610474586,0.04303455352783203,-45.92669677734375,-115.50910949707031,-322.806396484375,-0.013062684796750546,-0.15825003385543823,-0.039735645055770874,1.3457148375838048,-0.02809781967319635,0.07659535847439033,-0.006270192097872496,-0.9747759103775024,-0.2230970859527588,0.24701015651226044,0.1901586353778839,0.06849976629018784,Walking,,,,,,,
2665,COMPASS,40.44397496580822,-79.94452814528756,286.1654968261719,81.88504028320312,15.18524169921875,-0.050201416015625,98.12702941894531,-1.0,-1.0,N/A,-0.0371551513671875,-0.9811859130859375,-0.2124786376953125,0.2566506862640381,0.026034796610474586,0.04303455352783203,-45.92669677734375,-115.50910949707031,-322.806396484375,-0.013062684796750546,-0.15825003385543823,-0.039735645055770874,1.3457148375838048,-0.02809781967319635,0.07659535847439033,-0.006270192097872496,-0.9747759103775024,-0.2230970859527588,0.24701015651226044,0.1901586353778839,0.06849976629018784,Walking,,,,,,,
2709,Gyrometer,40.44397496580822,-79.94452814528756,286.1654968261719,81.88504028320312,15.18524169921875,-0.050201416015625,98.12702941894531,-1.0,-1.0,N/A,-0.0371551513671875,-0.9811859130859375,-0.2124786376953125,-0.2214309275150299,0.1716788113117218,0.06620938330888748,-45.92669677734375,-115.50910949707031,-322.806396484375,-0.013062684796750546,-0.15825003385543823,-0.039735645055770874,1.3457148375838048,-0.02809781967319635,0.07659535847439033,-0.006270192097872496,-0.9747759103775024,-0.2230970859527588,0.24701015651226044,0.1901586353778839,0.06849976629018784,Walking,,,,,,,
2734,Magnetometer,40.44397496580822,-79.94452814528756,286.1654968261719,81.88504028320312,15.18524169921875,-0.050201416015625,98.12702941894531,-1.0,-1.0,N/A,-0.0371551513671875,-0.9811859130859375,-0.2124786376953125,-0.2214309275150299,0.1716788113117218,0.06620938330888748,-46.0972900390625,-116.84034729003906,-324.7364196777344,-0.013062684796750546,-0.15825003385543823,-0.039735645055770874,1.3457148375838048,-0.02809781967319635,0.07659535847439033,-0.006270192097872496,-0.9747759103775024,-0.2230970859527588,0.24701015651226044,0.1901586353778839,0.06849976629018784,Walking,,,,,,,
2761,Accelerometer,40.44397496580822,-79.94452814528756,286.1654968261719,81.88504028320312,15.18524169921875,-0.050201416015625,98.12702941894531,-1.0,-1.0,N/A,0.0137481689453125,-0.91650390625,-0.289886474609375,-0.2214309275150299,0.1716788113117218,0.06620938330888748,-46.0972900390625,-116.84034729003906,-324.7364196777344,-0.013062684796750546,-0.15825003385543823,-0.039735645055770874,1.3457148375838048,-0.02809781967319635,0.07659535847439033,-0.006270192097872496,-0.9747759103775024,-0.2230970859527588,0.24701015651226044,0.1901586353778839,0.06849976629018784,Walking,,,,,,,
2786,COMPASS,40.44397496580822,-79.94452814528756,286.1654968261719,80.81422424316406,15.186333656311035,-0.050201416015625,98.12702941894531,-1.0,-1.0,N/A,0.0137481689453125,-0.91650390625,-0.289886474609375,-0.2214309275150299,0.1716788113117218,0.06620938330888748,-46.0972900390625,-116.84034729003906,-324.7364196777344,-0.013062684796750546,-0.15825003385543823,-0.039735645055770874,1.3457148375838048,-0.02809781967319635,0.07659535847439033,-0.006270192097872496,-0.9747759103775024,-0.2230970859527588,0.24701015651226044,0.1901586353778839,0.06849976629018784,Walking,,,,,,,
2913,Device Motion,40.44397496580822,-79.94452814528756,286.1654968261719,80.81422424316406,15.186333656311035,-0.050201416015625,98.12702941894531,-1.0,-1.0,N/A,0.0137481689453125,-0.91650390625,-0.289886474609375,-0.2214309275150299,0.1716788113117218,0.06620938330888748,-46.0972900390625,-116.84034729003906,-324.7364196777344,0.029268382117152214,0.12066924571990967,-0.019065827131271362,1.321323350338353,-0.07368230618211323,0.1541085723970271,-0.01817522943019867,-0.9690426588058472,-0.24622364342212677,-0.00470422487705946,0.01570555754005909,0.0750807374715805,Walking,,,,,,,
2964,COMPASS,40.44397496580822,-79.94452814528756,286.1654968261719,79.72468566894531,15.188224792480469,-0.050201416015625,98.12702941894531,-1.0,-1.0,N/A,0.0137481689453125,-0.91650390625,-0.289886474609375,-0.2214309275150299,0.1716788113117218,0.06620938330888748,-46.0972900390625,-116.84034729003906,-324.7364196777344,0.029268382117152214,0.12066924571990967,-0.019065827131271362,1.321323350338353,-0.07368230618211323,0.1541085723970271,-0.01817522943019867,-0.9690426588058472,-0.24622364342212677,-0.00470422487705946,0.01570555754005909,0.0750807374715805,Walking,,,,,,,
3009,Magnetometer,40.44397496580822,-79.94452814528756,286.1654968261719,79.72468566894531,15.188224792480469,-0.050201416015625,98.12702941894531,-1.0,-1.0,N/A,0.0137481689453125,-0.91650390625,-0.289886474609375,-0.2214309275150299,0.1716788113117218,0.06620938330888748,-44.80718994140625,-117.86351013183594,-327.3988342285156,0.029268382117152214,0.12066924571990967,-0.019065827131271362,1.321323350338353,-0.07368230618211323,0.1541085723970271,-0.01817522943019867,-0.9690426588058472,-0.24622364342212677,-0.00470422487705946,0.01570555754005909,0.0750807374715805,Walking,,,,,,,
3034,Gyrometer,40.44397496580822,-79.94452814528756,286.1654968261719,79.72468566894531,15.188224792480469,-0.050201416015625,98.12702941894531,-1.0,-1.0,N/A,0.0137481689453125,-0.91650390625,-0.289886474609375,-0.2193448692560196,-0.03803260251879692,-0.004108725115656853,-44.80718994140625,-117.86351013183594,-327.3988342285156,0.029268382117152214,0.12066924571990967,-0.019065827131271362,1.321323350338353,-0.07368230618211323,0.1541085723970271,-0.01817522943019867,-0.9690426588058472,-0.24622364342212677,-0.00470422487705946,0.01570555754005909,0.0750807374715805,Walking,,,,,,,
3060,Altimeter,40.44397496580822,-79.94452814528756,286.1654968261719,79.72468566894531,15.188224792480469,-0.0977783203125,98.12761688232422,-1.0,-1.0,N/A,0.0137481689453125,-0.91650390625,-0.289886474609375,-0.2193448692560196,-0.03803260251879692,-0.004108725115656853,-44.80718994140625,-117.86351013183594,-327.3988342285156,0.029268382117152214,0.12066924571990967,-0.019065827131271362,1.321323350338353,-0.07368230618211323,0.1541085723970271,-0.01817522943019867,-0.9690426588058472,-0.24622364342212677,-0.00470422487705946,0.01570555754005909,0.0750807374715805,Walking,,,,,,,
3087,Accelerometer,40.44397496580822,-79.94452814528756,286.1654968261719,79.72468566894531,15.188224792480469,-0.0977783203125,98.12761688232422,-1.0,-1.0,N/A,0.02154541015625,-0.932861328125,-0.1843109130859375,-0.2193448692560196,-0.03803260251879692,-0.004108725115656853,-44.80718994140625,-117.86351013183594,-327.3988342285156,0.029268382117152214,0.12066924571990967,-0.019065827131271362,1.321323350338353,-0.07368230618211323,0.1541085723970271,-0.01817522943019867,-0.9690426588058472,-0.24622364342212677,-0.00470422487705946,0.01570555754005909,0.0750807374715805,Walking,,,,,,,
3213,Device Motion,40.44397496580822,-79.94452814528756,286.1654968261719,79.72468566894531,15.188224792480469,-0.0977783203125,98.12761688232422,-1.0,-1.0,N/A,0.02154541015625,-0.932861328125,-0.1843109130859375,-0.2193448692560196,-0.03803260251879692,-0.004108725115656853,-44.80718994140625,-117.86351013183594,-327.3988342285156,0.049222081899642944,-0.1525568962097168,-0.04074457287788391,1.3221180347728245,-0.08708016182066483,0.15477545029261855,-0.021405311301350594,-0.9692385792732239,-0.24518993496894836,0.06176363676786423,-0.18054111301898956,0.011053408496081829,Walking,,,,,,,
3237,COMPASS,40.44397496580822,-79.94452814528756,286.1654968261719,80.79350280761719,15.190815925598145,-0.0977783203125,98.12761688232422,-1.0,-1.0,N/A,0.02154541015625,-0.932861328125,-0.1843109130859375,-0.2193448692560196,-0.03803260251879692,-0.004108725115656853,-44.80718994140625,-117.86351013183594,-327.3988342285156,0.049222081899642944,-0.1525568962097168,-0.04074457287788391,1.3221180347728245,-0.08708016182066483,0.15477545029261855,-0.021405311301350594,-0.9692385792732239,-0.24518993496894836,0.06176363676786423,-0.18054111301898956,0.011053408496081829,Walking,,,,,,,
3308,Magnetometer,40.44397496580822,-79.94452814528756,286.1654968261719,80.79350280761719,15.190815925598145,-0.0977783203125,98.12761688232422,-1.0,-1.0,N/A,0.02154541015625,-0.932861328125,-0.1843109130859375,-0.2193448692560196,-0.03803260251879692,-0.004108725115656853,-42.50450134277344,-120.03341674804688,-328.4705505371094,0.049222081899642944,-0.1525568962097168,-0.04074457287788391,1.3221180347728245,-0.08708016182066483,0.15477545029261855,-0.021405311301350594,-0.9692385792732239,-0.24518993496894836,0.06176363676786423,-0.18054111301898956,0.011053408496081829,Walking,,,,,,,
3333,COMPASS,40.44397496580822,-79.94452814528756,286.1654968261719,81.8906021118164,15.191885948181152,-0.0977783203125,98.12761688232422,-1.0,-1.0,N/A,0.02154541015625,-0.932861328125,-0.1843109130859375,-0.2193448692560196,-0.03803260251879692,-0.004108725115656853,-42.50450134277344,-120.03341674804688,-328.4705505371094,0.049222081899642944,-0.1525568962097168,-0.04074457287788391,1.3221180347728245,-0.08708016182066483,0.15477545029261855,-0.021405311301350594,-0.9692385792732239,-0.24518993496894836,0.06176363676786423,-0.18054111301898956,0.011053408496081829,Walking,,,,,,,
3360,Gyrometer,40.44397496580822,-79.94452814528756,286.1654968261719,81.8906021118164,15.191885948181152,-0.0977783203125,98.12761688232422,-1.0,-1.0,N/A,0.02154541015625,-0.932861328125,-0.1843109130859375,-0.1650984138250351,0.13345925509929657,-0.24984978139400482,-42.50450134277344,-120.03341674804688,-328.4705505371094,0.049222081899642944,-0.1525568962097168,-0.04074457287788391,1.3221180347728245,-0.08708016182066483,0.15477545029261855,-0.021405311301350594,-0.9692385792732239,-0.24518993496894836,0.06176363676786423,-0.18054111301898956,0.011053408496081829,Walking,,,,,,,
3386,Accelerometer,40.44397496580822,-79.94452814528756,286.1654968261719,81.8906021118164,15.191885948181152,-0.0977783203125,98.12761688232422,-1.0,-1.0,N/A,-0.03546142578125,-0.9247894287109375,-0.363922119140625,-0.1650984138250351,0.13345925509929657,-0.24984978139400482,-42.50450134277344,-120.03341674804688,-328.4705505371094,0.049222081899642944,-0.1525568962097168,-0.04074457287788391,1.3221180347728245,-0.08708016182066483,0.15477545029261855,-0.021405311301350594,-0.9692385792732239,-0.24518993496894836,0.06176363676786423,-0.18054111301898956,0.011053408496081829,Walking,,,,,,,
3443,COMPASS,40.44397496580822,-79.94452814528756,286.1654968261719,82.9123764038086,15.193049430847168,-0.0977783203125,98.12761688232422,-1.0,-1.0,N/A,-0.03546142578125,-0.9247894287109375,-0.363922119140625,-0.1650984138250351,0.13345925509929657,-0.24984978139400482,-42.50450134277344,-120.03341674804688,-328.4705505371094,0.049222081899642944,-0.1525568962097168,-0.04074457287788391,1.3221180347728245,-0.08708016182066483,0.15477545029261855,-0.021405311301350594,-0.9692385792732239,-0.24518993496894836,0.06176363676786423,-0.18054111301898956,0.011053408496081829,Walking,,,,,,,
3512,Device Motion,40.44397496580822,-79.94452814528756,286.1654968261719,82.9123764038086,15.193049430847168,-0.0977783203125,98.12761688232422,-1.0,-1.0,N/A,-0.03546142578125,-0.9247894287109375,-0.363922119140625,-0.1650984138250351,0.13345925509929657,-0.24984978139400482,-42.50450134277344,-120.03341674804688,-328.4705505371094,-0.015515804290771484,0.1369168758392334,-0.0056275129318237305,1.3281384732148616,0.011293916712054056,0.040102877625685124,0.0027136821299791336,-0.9707027673721313,-0.24026799201965332,-0.3341747522354126,0.005329177249222994,0.01306795421987772,Walking,,,,,,,
3608,Magnetometer,40.44397496580822,-79.94452814528756,286.1654968261719,82.9123764038086,15.193049430847168,-0.0977783203125,98.12761688232422,-1.0,-1.0,N/A,-0.03546142578125,-0.9247894287109375,-0.363922119140625,-0.1650984138250351,0.13345925509929657,-0.24984978139400482,-39.04534912109375,-121.89155578613281,-331.3292236328125,-0.015515804290771484,0.1369168758392334,-0.0056275129318237305,1.3281384732148616,0.011293916712054056,0.040102877625685124,0.0027136821299791336,-0.9707027673721313,-0.24026799201965332,-0.3341747522354126,0.005329177249222994,0.01306795421987772,Walking,,,,,,,
3633,Gyrometer,40.44397496580822,-79.94452814528756,286.1654968261719,82.9123764038086,15.193049430847168,-0.0977783203125,98.12761688232422,-1.0,-1.0,N/A,-0.03546142578125,-0.9247894287109375,-0.363922119140625,-0.01130724884569645,0.0810764729976654,-0.03864140063524246,-39.04534912109375,-121.89155578613281,-331.3292236328125,-0.015515804290771484,0.1369168758392334,-0.0056275129318237305,1.3281384732148616,0.011293916712054056,0.040102877625685124,0.0027136821299791336,-0.9707027673721313,-0.24026799201965332,-0.3341747522354126,0.005329177249222994,0.01306795421987772,Walking,,,,,,,
3659,Accelerometer,40.44397496580822,-79.94452814528756,286.1654968261719,82.9123764038086,15.193049430847168,-0.0977783203125,98.12761688232422,-1.0,-1.0,N/A,-0.016448974609375,-0.934814453125,-0.241729736328125,-0.01130724884569645,0.0810764729976654,-0.03864140063524246,-39.04534912109375,-121.89155578613281,-331.3292236328125,-0.015515804290771484,0.1369168758392334,-0.0056275129318237305,1.3281384732148616,0.011293916712054056,0.040102877625685124,0.0027136821299791336,-0.9707027673721313,-0.24026799201965332,-0.3341747522354126,0.005329177249222994,0.01306795421987772,Walking,,,,,,,
3702,COMPASS,40.44397496580822,-79.94452814528756,286.1654968261719,81.81977081298828,15.19568920135498,-0.0977783203125,98.12761688232422,-1.0,-1.0,N/A,-0.016448974609375,-0.934814453125,-0.241729736328125,-0.01130724884569645,0.0810764729976654,-0.03864140063524246,-39.04534912109375,-121.89155578613281,-331.3292236328125,-0.015515804290771484,0.1369168758392334,-0.0056275129318237305,1.3281384732148616,0.011293916712054056,0.040102877625685124,0.0027136821299791336,-0.9707027673721313,-0.24026799201965332,-0.3341747522354126,0.005329177249222994,0.01306795421987772,Walking,,,,,,,
3782,COMPASS,40.44397496580822,-79.94452814528756,286.1654968261719,80.69929504394531,15.196395874023438,-0.0977783203125,98.12761688232422,-1.0,-1.0,N/A,-0.016448974609375,-0.934814453125,-0.241729736328125,-0.01130724884569645,0.0810764729976654,-0.03864140063524246,-39.04534912109375,-121.89155578613281,-331.3292236328125,-0.015515804290771484,0.1369168758392334,-0.0056275129318237305,1.3281384732148616,0.011293916712054056,0.040102877625685124,0.0027136821299791336,-0.9707027673721313,-0.24026799201965332,-0.3341747522354126,0.005329177249222994,0.01306795421987772,Walking,,,,,,,
3811,Device Motion,40.44397496580822,-79.94452814528756,286.1654968261719,80.69929504394531,15.196395874023438,-0.0977783203125,98.12761688232422,-1.0,-1.0,N/A,-0.016448974609375,-0.934814453125,-0.241729736328125,-0.01130724884569645,0.0810764729976654,-0.03864140063524246,-39.04534912109375,-121.89155578613281,-331.3292236328125,0.021990716457366943,-0.11368799209594727,-0.0782424807548523,1.331293238093066,-0.03951663231348389,0.13122859500439849,-0.00937169324606657,-0.971455991268158,-0.23703473806381226,0.10614567250013351,0.3595109283924103,0.12825267016887665,Walking,,,,,,,
3842,COMPASS,40.44397496580822,-79.94452814528756,286.1654968261719,79.31743621826172,15.196988105773926,-0.0977783203125,98.12761688232422,-1.0,-1.0,N/A,-0.016448974609375,-0.934814453125,-0.241729736328125,-0.01130724884569645,0.0810764729976654,-0.03864140063524246,-39.04534912109375,-121.89155578613281,-331.3292236328125,0.021990716457366943,-0.11368799209594727,-0.0782424807548523,1.331293238093066,-0.03951663231348389,0.13122859500439849,-0.00937169324606657,-0.971455991268158,-0.23703473806381226,0.10614567250013351,0.3595109283924103,0.12825267016887665,Walking,,,,,,,
3902,COMPASS,40.44397496580822,-79.94452814528756,286.1654968261719,77.9776611328125,15.197614669799805,-0.0977783203125,98.12761688232422,-1.0,-1.0,N/A,-0.016448974609375,-0.934814453125,-0.241729736328125,-0.01130724884569645,0.0810764729976654,-0.03864140063524246,-39.04534912109375,-121.89155578613281,-331.3292236328125,0.021990716457366943,-0.11368799209594727,-0.0782424807548523,1.331293238093066,-0.03951663231348389,0.13122859500439849,-0.00937169324606657,-0.971455991268158,-0.23703473806381226,0.10614567250013351,0.3595109283924103,0.12825267016887665,Walking,,,,,,,
3927,Magnetometer,40.44397496580822,-79.94452814528756,286.1654968261719,77.9776611328125,15.197614669799805,-0.0977783203125,98.12761688232422,-1.0,-1.0,N/A,-0.016448974609375,-0.934814453125,-0.241729736328125,-0.01130724884569645,0.0810764729976654,-0.03864140063524246,-36.54522705078125,-124.14701843261719,-330.3111572265625,0.021990716457366943,-0.11368799209594727,-0.0782424807548523,1.331293238093066,-0.03951663231348389,0.13122859500439849,-0.00937169324606657,-0.971455991268158,-0.23703473806381226,0.10614567250013351,0.3595109283924103,0.12825267016887665,Walking,,,,,,,
3952,Gyrometer,40.44397496580822,-79.94452814528756,286.1654968261719,77.9776611328125,15.197614669799805,-0.0977783203125,98.12761688232422,-1.0,-1.0,N/A,-0.016448974609375,-0.934814453125,-0.241729736328125,0.028010595589876175,0.25275716185569763,0.16778793931007385,-36.54522705078125,-124.14701843261719,-330.3111572265625,0.021990716457366943,-0.11368799209594727,-0.0782424807548523,1.331293238093066,-0.03951663231348389,0.13122859500439849,-0.00937169324606657,-0.971455991268158,-0.23703473806381226,0.10614567250013351,0.3595109283924103,0.12825267016887665,Walking,,,,,,,
3977,COMPASS,40.44397496580822,-79.94452814528756,286.1654968261719,76.72313690185547,15.198225975036621,-0.0977783203125,98.12761688232422,-1.0,-1.0,N/A,-0.016448974609375,-0.934814453125,-0.241729736328125,0.028010595589876175,0.25275716185569763,0.16778793931007385,-36.54522705078125,-124.14701843261719,-330.3111572265625,0.021990716457366943,-0.11368799209594727,-0.0782424807548523,1.331293238093066,-0.03951663231348389,0.13122859500439849,-0.00937169324606657,-0.971455991268158,-0.23703473806381226,0.10614567250013351,0.3595109283924103,0.12825267016887665,Walking,,,,,,,
4002,Accelerometer,40.44397496580822,-79.94452814528756,286.1654968261719,76.72313690185547,15.198225975036621,-0.0977783203125,98.12761688232422,-1.0,-1.0,N/A,0.028289794921875,-0.9131317138671875,-0.2389678955078125,0.028010595589876175,0.25275716185569763,0.16778793931007385,-36.54522705078125,-124.14701843261719,-330.3111572265625,0.021990716457366943,-0.11368799209594727,-0.0782424807548523,1.331293238093066,-0.03951663231348389,0.13122859500439849,-0.00937169324606657,-0.971455991268158,-0.23703473806381226,0.10614567250013351,0.3595109283924103,0.12825267016887665,Walking,,,,,,,
4027,COMPASS,40.44397496580822,-79.94452814528756,286.1654968261719,75.32601928710938,15.198841094970703,-0.0977783203125,98.12761688232422,-1.0,-1.0,N/A,0.028289794921875,-0.9131317138671875,-0.2389678955078125,0.028010595589876175,0.25275716185569763,0.16778793931007385,-36.54522705078125,-124.14701843261719,-330.3111572265625,0.021990716457366943,-0.11368799209594727,-0.0782424807548523,1.331293238093066,-0.03951663231348389,0.13122859500439849,-0.00937169324606657,-0.971455991268158,-0.23703473806381226,0.10614567250013351,0.3595109283924103,0.12825267016887665,Walking,,,,,,,
4052,Altimeter,40.44397496580822,-79.94452814528756,286.1654968261719,75.32601928710938,15.198841094970703,-0.15325927734375,98.12825012207031,-1.0,-1.0,N/A,0.028289794921875,-0.9131317138671875,-0.2389678955078125,0.028010595589876175,0.25275716185569763,0.16778793931007385,-36.54522705078125,-124.14701843261719,-330.3111572265625,0.021990716457366943,-0.11368799209594727,-0.0782424807548523,1.331293238093066,-0.03951663231348389,0.13122859500439849,-0.00937169324606657,-0.971455991268158,-0.23703473806381226,0.10614567250013351,0.3595109283924103,0.12825267016887665,Walking,,,,,,,
4081,COMPASS,40.44397496580822,-79.94452814528756,286.1654968261719,74.23033142089844,15.199462890625,-0.15325927734375,98.12825012207031,-1.0,-1.0,N/A,0.028289794921875,-0.9131317138671875,-0.2389678955078125,0.028010595589876175,0.25275716185569763,0.16778793931007385,-36.54522705078125,-124.14701843261719,-330.3111572265625,0.021990716457366943,-0.11368799209594727,-0.0782424807548523,1.331293238093066,-0.03951663231348389,0.13122859500439849,-0.00937169324606657,-0.971455991268158,-0.23703473806381226,0.10614567250013351,0.3595109283924103,0.12825267016887665,Walking,,,,,,,
4110,Device Motion,40.44397496580822,-79.94452814528756,286.1654968261719,74.23033142089844,15.199462890625,-0.15325927734375,98.12825012207031,-1.0,-1.0,N/A,0.028289794921875,-0.9131317138671875,-0.2389678955078125,0.028010595589876175,0.25275716185569763,0.16778793931007385,-36.54522705078125,-124.14701843261719,-330.3111572265625,0.029835551977157593,0.12131059169769287,-0.019910752773284912,1.330385947111646,-0.18069635267778417,0.3459265684908101,-0.0427902527153492,-0.9712403416633606,-0.23422452807426453,-0.28034093976020813,0.07729718089103699,0.022346531972289085,Walking,,,,,,,
4207,Magnetometer,40.44397496580822,-79.94452814528756,286.1654968261719,74.23033142089844,15.199462890625,-0.15325927734375,98.12825012207031,-1.0,-1.0,N/A,0.028289794921875,-0.9131317138671875,-0.2389678955078125,0.028010595589876175,0.25275716185569763,0.16778793931007385,-35.302490234375,-124.45375061035156,-329.5989074707031,0.029835551977157593,0.12131059169769287,-0.019910752773284912,1.330385947111646,-0.18069635267778417,0.3459265684908101,-0.0427902527153492,-0.9712403416633606,-0.23422452807426453,-0.28034093976020813,0.07729718089103699,0.022346531972289085,Walking,,,,,,,
4233,Gyrometer,40.44397496580822,-79.94452814528756,286.1654968261719,74.23033142089844,15.199462890625,-0.15325927734375,98.12825012207031,-1.0,-1.0,N/A,0.028289794921875,-0.9131317138671875,-0.2389678955078125,-0.02352982759475708,0.16140460968017578,-0.03356381878256798,-35.302490234375,-124.45375061035156,-329.5989074707031,0.029835551977157593,0.12131059169769287,-0.019910752773284912,1.330385947111646,-0.18069635267778417,0.3459265684908101,-0.0427902527153492,-0.9712403416633606,-0.23422452807426453,-0.28034093976020813,0.07729718089103699,0.022346531972289085,Walking,,,,,,,
4259,Accelerometer,40.44397496580822,-79.94452814528756,286.1654968261719,74.23033142089844,15.199462890625,-0.15325927734375,98.12825012207031,-1.0,-1.0,N/A,0.058349609375,-0.903411865234375,-0.179412841796875,-0.02352982759475708,0.16140460968017578,-0.03356381878256798,-35.302490234375,-124.45375061035156,-329.5989074707031,0.029835551977157593,0.12131059169769287,-0.019910752773284912,1.330385947111646,-0.18069635267778417,0.3459265684908101,-0.0427902527153492,-0.9712403416633606,-0.23422452807426453,-0.28034093976020813,0.07729718089103699,0.022346531972289085,Walking,,,,,,,
4400,COMPASS,40.44397496580822,-79.94452814528756,286.1654968261719,75.39102935791016,15.202645301818848,-0.15325927734375,98.12825012207031,-1.0,-1.0,N/A,0.058349609375,-0.903411865234375,-0.179412841796875,-0.02352982759475708,0.16140460968017578,-0.03356381878256798,-35.302490234375,-124.45375061035156,-329.5989074707031,0.029835551977157593,0.12131059169769287,-0.019910752773284912,1.330385947111646,-0.18069635267778417,0.3459265684908101,-0.0427902527153492,-0.9712403416633606,-0.23422452807426453,-0.28034093976020813,0.07729718089103699,0.022346531972289085,Walking,,,,,,,
4427,Device Motion,40.44397496580822,-79.94452814528756,286.1654968261719,75.39102935791016,15.202645301818848,-0.15325927734375,98.12825012207031,-1.0,-1.0,N/A,0.058349609375,-0.903411865234375,-0.179412841796875,-0.02352982759475708,0.16140460968017578,-0.03356381878256798,-35.302490234375,-124.45375061035156,-329.5989074707031,0.01688656397163868,-0.1478530764579773,-0.04046158492565155,1.331611985079063,-0.10269646510974652,0.25938731989678326,-0.02428705058991909,-0.9715315103530884,-0.2356615513563156,-0.028225356712937355,-0.11278659105300903,-0.026494592428207397,Walking,,,,,,,
4506,Magnetometer,40.44397496580822,-79.94452814528756,286.1654968261719,75.39102935791016,15.202645301818848,-0.15325927734375,98.12825012207031,-1.0,-1.0,N/A,0.058349609375,-0.903411865234375,-0.179412841796875,-0.02352982759475708,0.16140460968017578,-0.03356381878256798,-33.735260009765625,-123.94094848632812,-325.4122009277344,0.01688656397163868,-0.1478530764579773,-0.04046158492565155,1.331611985079063,-0.10269646510974652,0.25938731989678326,-0.02428705058991909,-0.9715315103530884,-0.2356615513563156,-0.028225356712937355,-0.11278659105300903,-0.026494592428207397,Walking,,,,,,,
4532,Gyrometer,40.44397496580822,-79.94452814528756,286.1654968261719,75.39102935791016,15.202645301818848,-0.15325927734375,98.12825012207031,-1.0,-1.0,N/A,0.058349609375,-0.903411865234375,-0.179412841796875,-0.18173544108867645,-0.028387166559696198,-0.11075660586357117,-33.735260009765625,-123.94094848632812,-325.4122009277344,0.01688656397163868,-0.1478530764579773,-0.04046158492565155,1.331611985079063,-0.10269646510974652,0.25938731989678326,-0.02428705058991909,-0.9715315103530884,-0.2356615513563156,-0.028225356712937355,-0.11278659105300903,-0.026494592428207397,Walking,,,,,,,
4558,Accelerometer,40.44397496580822,-79.94452814528756,286.1654968261719,75.39102935791016,15.202645301818848,-0.15325927734375,98.12825012207031,-1.0,-1.0,N/A,0.0055999755859375,-0.92559814453125,-0.326873779296875,-0.18173544108867645,-0.028387166559696198,-0.11075660586357117,-33.735260009765625,-123.94094848632812,-325.4122009277344,0.01688656397163868,-0.1478530764579773,-0.04046158492565155,1.331611985079063,-0.10269646510974652,0.25938731989678326,-0.02428705058991909,-0.9715315103530884,-0.2356615513563156,-0.028225356712937355,-0.11278659105300903,-0.026494592428207397,Walking,,,,,,,
4583,COMPASS,40.44397496580822,-79.94452814528756,286.1654968261719,76.43840789794922,15.20443344116211,-0.15325927734375,98.12825012207031,-1.0,-1.0,N/A,0.0055999755859375,-0.92559814453125,-0.326873779296875,-0.18173544108867645,-0.028387166559696198,-0.11075660586357117,-33.735260009765625,-123.94094848632812,-325.4122009277344,0.01688656397163868,-0.1478530764579773,-0.04046158492565155,1.331611985079063,-0.10269646510974652,0.25938731989678326,-0.02428705058991909,-0.9715315103530884,-0.2356615513563156,-0.028225356712937355,-0.11278659105300903,-0.026494592428207397,Walking,,,,,,,
4639,COMPASS,40.44397496580822,-79.94452814528756,286.1654968261719,77.81798553466797,15.205025672912598,-0.15325927734375,98.12825012207031,-1.0,-1.0,N/A,0.0055999755859375,-0.92559814453125,-0.326873779296875,-0.18173544108867645,-0.028387166559696198,-0.11075660586357117,-33.735260009765625,-123.94094848632812,-325.4122009277344,0.01688656397163868,-0.1478530764579773,-0.04046158492565155,1.331611985079063,-0.10269646510974652,0.25938731989678326,-0.02428705058991909,-0.9715315103530884,-0.2356615513563156,-0.028225356712937355,-0.11278659105300903,-0.026494592428207397,Walking,,,,,,,
4708,Device Motion,40.44397496580822,-79.94452814528756,286.1654968261719,77.81798553466797,15.205025672912598,-0.15325927734375,98.12825012207031,-1.0,-1.0,N/A,0.0055999755859375,-0.92559814453125,-0.326873779296875,-0.18173544108867645,-0.028387166559696198,-0.11075660586357117,-33.735260009765625,-123.94094848632812,-325.4122009277344,-0.026607811450958252,0.12951278686523438,-0.04513192176818848,1.3156124958460798,0.008267746537712384,0.12066383390747888,0.0020869472064077854,-0.9676169157028198,-0.2524145841598511,-0.28922200202941895,0.019316300749778748,-0.07448894530534744,Walking,,,,,,,
4799,COMPASS,40.44397496580822,-79.94452814528756,286.1654968261719,78.84034729003906,15.206636428833008,-0.15325927734375,98.12825012207031,-1.0,-1.0,N/A,0.0055999755859375,-0.92559814453125,-0.326873779296875,-0.18173544108867645,-0.028387166559696198,-0.11075660586357117,-33.735260009765625,-123.94094848632812,-325.4122009277344,-0.026607811450958252,0.12951278686523438,-0.04513192176818848,1.3156124958460798,0.008267746537712384,0.12066383390747888,0.0020869472064077854,-0.9676169157028198,-0.2524145841598511,-0.28922200202941895,0.019316300749778748,-0.07448894530534744,Walking,,,,,,,
4825,Magnetometer,40.44397496580822,-79.94452814528756,286.1654968261719,78.84034729003906,15.206636428833008,-0.15325927734375,98.12825012207031,-1.0,-1.0,N/A,0.0055999755859375,-0.92559814453125,-0.326873779296875,-0.18173544108867645,-0.028387166559696198,-0.11075660586357117,-32.25456237792969,-120.1151123046875,-322.7626953125,-0.026607811450958252,0.12951278686523438,-0.04513192176818848,1.3156124958460798,0.008267746537712384,0.12066383390747888,0.0020869472064077854,-0.9676169157028198,-0.2524145841598511,-0.28922200202941895,0.019316300749778748,-0.07448894530534744,Walking,,,,,,,
4852,Gyrometer,40.44397496580822,-79.94452814528756,286.1654968261719,78.84034729003906,15.206636428833008,-0.15325927734375,98.12825012207031,-1.0,-1.0,N/A,0.0055999755859375,-0.92559814453125,-0.326873779296875,-0.05175800248980522,-0.005196892656385899,-0.10152742266654968,-32.25456237792969,-120.1151123046875,-322.7626953125,-0.026607811450958252,0.12951278686523438,-0.04513192176818848,1.3156124958460798,0.008267746537712384,0.12066383390747888,0.0020869472064077854,-0.9676169157028198,-0.2524145841598511,-0.28922200202941895,0.019316300749778748,-0.07448894530534744,Walking,,,,,,,
4879,Accelerometer,40.44397496580822,-79.94452814528756,286.1654968261719,78.84034729003906,15.206636428833008,-0.15325927734375,98.12825012207031,-1.0,-1.0,N/A,-0.0216064453125,-0.9222412109375,-0.23870849609375,-0.05175800248980522,-0.005196892656385899,-0.10152742266654968,-32.25456237792969,-120.1151123046875,-322.7626953125,-0.026607811450958252,0.12951278686523438,-0.04513192176818848,1.3156124958460798,0.008267746537712384,0.12066383390747888,0.0020869472064077854,-0.9676169157028198,-0.2524145841598511,-0.28922200202941895,0.019316300749778748,-0.07448894530534744,Walking,,,,,,,
5007,Device Motion,40.44397496580822,-79.94452814528756,286.1654968261719,78.84034729003906,15.206636428833008,-0.15325927734375,98.12825012207031,-1.0,-1.0,N/A,-0.0216064453125,-0.9222412109375,-0.23870849609375,-0.05175800248980522,-0.005196892656385899,-0.10152742266654968,-32.25456237792969,-120.1151123046875,-322.7626953125,-0.020122021436691284,-0.12465691566467285,-0.06391710042953491,1.30044116079763,-0.01429999343774617,0.1485996480256317,-0.0038190181367099285,-0.9636760950088501,-0.26704612374305725,0.10808921605348587,0.026354271918535233,0.1003955751657486,Walking,,,,,,,
