Timestamp (ms),Triggering Sensor,Latitude,Longitude,Altitude,Heading (degrees),Heading accuracy (degrees),Relative Altitude (m),Pressure (kPa),Speed (m/s),Speed Accuracy (m/s),Floor,Acceleration - X axis,Acceleration - Y axis,Acceleration - Z axis,Gyrometer - X axis,Gyrometer - Y axis,Gyrometer - Z axis,Magnetometer - X axis,Magnetometer - Y axis,Magnetometer - Z axis,User acceleration - X axis,User acceleration - Y axis,User acceleration - Z axis,Attitude Pitch,Attitude Roll,Attitude Yaw,Gravity - X axis,Gravity - Y axis,Gravity - Z axis,Rotation Rate - X axis,Rotation Rate - Y axis,Rotation Rate - Z axis,Activity Type,Number of Steps,Distance,Floors Ascended,Floors Descended,Current Pace,Current Cadence,Average Active Pace
12,Gyrometer,,,,,,,,,,,,,,0.03093075193464756,-0.04867592826485634,0.01230380404740572,,,,,,,,,,,,,,,,,,,,,,,
52,COMPASS,,,,191.64443969726562,16.460161209106445,,,,,,,,,0.03093075193464756,-0.04867592826485634,0.01230380404740572,,,,,,,,,,,,,,,,,,,,,,,
87,Accelerometer,,,,191.64443969726562,16.460161209106445,,,,,,0.023040771484375,-0.998565673828125,-0.1186981201171875,0.03093075193464756,-0.04867592826485634,0.01230380404740572,,,,,,,,,,,,,,,,,,,,,,,
120,Magnetometer,,,,191.64443969726562,16.460161209106445,,,,,,0.023040771484375,-0.998565673828125,-0.1186981201171875,0.03093075193464756,-0.04867592826485634,0.01230380404740572,-32.81672668457031,-114.5811767578125,-308.6334228515625,,,,,,,,,,,,,,,,,,,,
147,Activity Manager,,,,191.64443969726562,16.460161209106445,,,,,,0.023040771484375,-0.998565673828125,-0.1186981201171875,0.03093075193464756,-0.04867592826485634,0.01230380404740572,-32.81672668457031,-114.5811767578125,-308.6334228515625,,,,,,,,,,,,,Stationary,,,,,,,
176,Activity Manager,,,,191.64443969726562,16.460161209106445,,,,,,0.023040771484375,-0.998565673828125,-0.1186981201171875,0.03093075193464756,-0.04867592826485634,0.01230380404740572,-32.81672668457031,-114.5811767578125,-308.6334228515625,,,,,,,,,,,,,Walking,,,,,,,
204,Device Motion,,,,191.64443969726562,16.460161209106445,,,,,,0.023040771484375,-0.998565673828125,-0.1186981201171875,0.03093075193464756,-0.04867592826485634,0.01230380404740572,-32.81672668457031,-114.5811767578125,-308.6334228515625,-0.008736878633499146,0.001958489418029785,0.010687112808227539,1.4493572431999764,0.06284217589025642,-0.0556431611066213,0.007607725914567709,-0.9926353096961975,-0.1209014281630516,0.05256780982017517,0.03132703900337219,-0.006065738387405872,Walking,,,,,,,
306,Gyrometer,,,,191.64443969726562,16.460161209106445,,,,,,0.023040771484375,-0.998565673828125,-0.1186981201171875,-0.026285400614142418,0.04133865237236023,-0.004972654394805431,-32.81672668457031,-114.5811767578125,-308.6334228515625,-0.008736878633499146,0.001958489418029785,0.010687112808227539,1.4493572431999764,0.06284217589025642,-0.0556431611066213,0.007607725914567709,-0.9926353096961975,-0.1209014281630516,0.05256780982017517,0.03132703900337219,-0.006065738387405872,Walking,,,,,,,
340,Accelerometer,,,,191.64443969726562,16.460161209106445,,,,,,0.0067291259765625,-0.990997314453125,-0.10400390625,-0.026285400614142418,0.04133865237236023,-0.004972654394805431,-32.81672668457031,-114.5811767578125,-308.6334228515625,-0.008736878633499146,0.001958489418029785,0.010687112808227539,1.4493572431999764,0.06284217589025642,-0.0556431611066213,0.007607725914567709,-0.9926353096961975,-0.1209014281630516,0.05256780982017517,0.03132703900337219,-0.006065738387405872,Walking,,,,,,,
371,Magnetometer,,,,191.64443969726562,16.460161209106445,,,,,,0.0067291259765625,-0.990997314453125,-0.10400390625,-0.026285400614142418,0.04133865237236023,-0.004972654394805431,-32.86329650878906,-114.88555908203125,-308.85577392578125,-0.008736878633499146,0.001958489418029785,0.010687112808227539,1.4493572431999764,0.06284217589025642,-0.0556431611066213,0.007607725914567709,-0.9926353096961975,-0.1209014281630516,0.05256780982017517,0.03132703900337219,-0.006065738387405872,Walking,,,,,,,
420,Device Motion,,,,191.64443969726562,16.460161209106445,,,,,,0.0067291259765625,-0.990997314453125,-0.10400390625,-0.026285400614142418,0.04133865237236023,-0.004972654394805431,-32.86329650878906,-114.88555908203125,-308.85577392578125,-0.00859036948531866,0.0003508925437927246,0.021590635180473328,1.4561801274508064,0.08026903712171196,-0.06630919624517359,0.009170206263661385,-0.9934387803077698,-0.1139979138970375,0.05709134787321091,0.01287131942808628,0.0021893749944865704,Walking,,,,,,,
606,Gyrometer,,,,191.64443969726562,16.460161209106445,,,,,,0.0067291259765625,-0.990997314453125,-0.10400390625,0.04856327548623085,0.09170728176832199,0.014994129538536072,-32.86329650878906,-114.88555908203125,-308.85577392578125,-0.00859036948531866,0.0003508925437927246,0.021590635180473328,1.4561801274508064,0.08026903712171196,-0.06630919624517359,0.009170206263661385,-0.9934387803077698,-0.1139979138970375,0.05709134787321091,0.01287131942808628,0.0021893749944865704,Walking,,,,,,,
668,COMPASS,,,,190.6266326904297,16.45655059814453,,,,,,0.0067291259765625,-0.990997314453125,-0.10400390625,0.04856327548623085,0.09170728176832199,0.014994129538536072,-32.86329650878906,-114.88555908203125,-308.85577392578125,-0.00859036948531866,0.0003508925437927246,0.021590635180473328,1.4561801274508064,0.08026903712171196,-0.06630919624517359,0.009170206263661385,-0.9934387803077698,-0.1139979138970375,0.05709134787321091,0.01287131942808628,0.0021893749944865704,Walking,,,,,,,
702,Magnetometer,,,,190.6266326904297,16.45655059814453,,,,,,0.0067291259765625,-0.990997314453125,-0.10400390625,0.04856327548623085,0.09170728176832199,0.014994129538536072,-32.82879638671875,-114.31462097167969,-308.47357177734375,-0.00859036948531866,0.0003508925437927246,0.021590635180473328,1.4561801274508064,0.08026903712171196,-0.06630919624517359,0.009170206263661385,-0.9934387803077698,-0.1139979138970375,0.05709134787321091,0.01287131942808628,0.0021893749944865704,Walking,,,,,,,
716,Accelerometer,,,,190.6266326904297,16.45655059814453,,,,,,0.0289154052734375,-0.98828125,-0.0843048095703125,0.04856327548623085,0.09170728176832199,0.014994129538536072,-32.82879638671875,-114.31462097167969,-308.47357177734375,-0.00859036948531866,0.0003508925437927246,0.021590635180473328,1.4561801274508064,0.08026903712171196,-0.06630919624517359,0.009170206263661385,-0.9934387803077698,-0.1139979138970375,0.05709134787321091,0.01287131942808628,0.0021893749944865704,Walking,,,,,,,
746,Device Motion,,,,190.6266326904297,16.45655059814453,,,,,,0.0289154052734375,-0.98828125,-0.0843048095703125,0.04856327548623085,0.09170728176832199,0.014994129538536072,-32.82879638671875,-114.31462097167969,-308.47357177734375,0.011754453182220459,0.0057485103607177734,0.029151558876037598,1.463302526139794,0.02768880221470418,2.0303245830295538e-05,0.002970275701954961,-0.9942281246185303,-0.10724611580371857,-0.017703566700220108,0.07403997331857681,0.06506820768117905,Walking,,,,,,,
906,Gyrometer,,,,190.6266326904297,16.45655059814453,,,,,,0.0289154052734375,-0.98828125,-0.0843048095703125,-0.07142491638660431,0.03738172724843025,-0.0530853234231472,-32.82879638671875,-114.31462097167969,-308.47357177734375,0.011754453182220459,0.0057485103607177734,0.029151558876037598,1.463302526139794,0.02768880221470418,2.0303245830295538e-05,0.002970275701954961,-0.9942281246185303,-0.10724611580371857,-0.017703566700220108,0.07403997331857681,0.06506820768117905,Walking,,,,,,,
940,Magnetometer,,,,190.6266326904297,16.45655059814453,,,,,,0.0289154052734375,-0.98828125,-0.0843048095703125,-0.07142491638660431,0.03738172724843025,-0.0530853234231472,-33.51904296875,-115.02182006835938,-308.504150390625,0.011754453182220459,0.0057485103607177734,0.029151558876037598,1.463302526139794,0.02768880221470418,2.0303245830295538e-05,0.002970275701954961,-0.9942281246185303,-0.10724611580371857,-0.017703566700220108,0.07403997331857681,0.06506820768117905,Walking,,,,,,,
972,Accelerometer,,,,190.6266326904297,16.45655059814453,,,,,,0.0172271728515625,-0.9693450927734375,-0.0472869873046875,-0.07142491638660431,0.03738172724843025,-0.0530853234231472,-33.51904296875,-115.02182006835938,-308.504150390625,0.011754453182220459,0.0057485103607177734,0.029151558876037598,1.463302526139794,0.02768880221470418,2.0303245830295538e-05,0.002970275701954961,-0.9942281246185303,-0.10724611580371857,-0.017703566700220108,0.07403997331857681,0.06506820768117905,Walking,,,,,,,
1017,Altimeter,,,,190.6266326904297,16.45655059814453,0,98.21607208251953,,,,0.0172271728515625,-0.9693450927734375,-0.0472869873046875,-0.07142491638660431,0.03738172724843025,-0.0530853234231472,-33.51904296875,-115.02182006835938,-308.504150390625,0.011754453182220459,0.0057485103607177734,0.029151558876037598,1.463302526139794,0.02768880221470418,2.0303245830295538e-05,0.002970275701954961,-0.9942281246185303,-0.10724611580371857,-0.017703566700220108,0.07403997331857681,0.06506820768117905,Walking,,,,,,,
1047,Device Motion,,,,190.6266326904297,16.45655059814453,0,98.21607208251953,,,,0.0172271728515625,-0.9693450927734375,-0.0472869873046875,-0.07142491638660431,0.03738172724843025,-0.0530853234231472,-33.51904296875,-115.02182006835938,-308.504150390625,0.007322072982788086,-0.0069446563720703125,0.05759012699127197,1.4535252110810923,0.03484615212965346,-0.009203563553807274,0.004076268523931503,-0.9931316375732422,-0.11693166196346283,0.033750567585229874,0.026212798431515694,-0.016294553875923157,Walking,,,,,,,
1207,Gyrometer,,,,190.6266326904297,16.45655059814453,0,98.21607208251953,,,,0.0172271728515625,-0.9693450927734375,-0.0472869873046875,0.05772028863430023,0.01455896906554699,-0.043900877237319946,-33.51904296875,-115.02182006835938,-308.504150390625,0.007322072982788086,-0.0069446563720703125,0.05759012699127197,1.4535252110810923,0.03484615212965346,-0.009203563553807274,0.004076268523931503,-0.9931316375732422,-0.11693166196346283,0.033750567585229874,0.026212798431515694,-0.016294553875923157,Walking,,,,,,,
1243,Magnetometer,,,,190.6266326904297,16.45655059814453,0,98.21607208251953,,,,0.0172271728515625,-0.9693450927734375,-0.0472869873046875,0.05772028863430023,0.01455896906554699,-0.043900877237319946,-33.14515686035156,-114.66136169433594,-308.9136962890625,0.007322072982788086,-0.0069446563720703125,0.05759012699127197,1.4535252110810923,0.03484615212965346,-0.009203563553807274,0.004076268523931503,-0.9931316375732422,-0.11693166196346283,0.033750567585229874,0.026212798431515694,-0.016294553875923157,Walking,,,,,,,
1273,Accelerometer,,,,190.6266326904297,16.45655059814453,0,98.21607208251953,,,,0.0199127197265625,-1.042510986328125,-0.057861328125,0.05772028863430023,0.01455896906554699,-0.043900877237319946,-33.14515686035156,-114.66136169433594,-308.9136962890625,0.007322072982788086,-0.0069446563720703125,0.05759012699127197,1.4535252110810923,0.03484615212965346,-0.009203563553807274,0.004076268523931503,-0.9931316375732422,-0.11693166196346283,0.033750567585229874,0.026212798431515694,-0.016294553875923157,Walking,,,,,,,
1317,Device Motion,,,,190.6266326904297,16.45655059814453,0,98.21607208251953,,,,0.0199127197265625,-1.042510986328125,-0.057861328125,0.05772028863430023,0.01455896906554699,-0.043900877237319946,-33.14515686035156,-114.66136169433594,-308.9136962890625,0.01077231764793396,-0.0499575138092041,0.06667745113372803,1.4673980505373894,0.026913324150109504,-0.022180489605293237,0.002777496352791786,-0.9946591854095459,-0.10317661613225937,0.0903186947107315,-0.0958264023065567,-0.028949052095413208,Walking,,,,,,,
1363,COMPASS,,,,191.73629760742188,16.455860137939453,0,98.21607208251953,,,,0.0199127197265625,-1.042510986328125,-0.057861328125,0.05772028863430023,0.01455896906554699,-0.043900877237319946,-33.14515686035156,-114.66136169433594,-308.9136962890625,0.01077231764793396,-0.0499575138092041,0.06667745113372803,1.4673980505373894,0.026913324150109504,-0.022180489605293237,0.002777496352791786,-0.9946591854095459,-0.10317661613225937,0.0903186947107315,-0.0958264023065567,-0.028949052095413208,Walking,,,,,,,
1507,Gyrometer,,,,191.73629760742188,16.455860137939453,0,98.21607208251953,,,,0.0199127197265625,-1.042510986328125,-0.057861328125,-0.024772457778453827,-0.06709514558315277,-0.013835121877491474,-33.14515686035156,-114.66136169433594,-308.9136962890625,0.01077231764793396,-0.0499575138092041,0.06667745113372803,1.4673980505373894,0.026913324150109504,-0.022180489605293237,0.002777496352791786,-0.9946591854095459,-0.10317661613225937,0.0903186947107315,-0.0958264023065567,-0.028949052095413208,Walking,,,,,,,
1542,Magnetometer,,,,191.73629760742188,16.455860137939453,0,98.21607208251953,,,,0.0199127197265625,-1.042510986328125,-0.057861328125,-0.024772457778453827,-0.06709514558315277,-0.013835121877491474,-33.91511535644531,-114.77647399902344,-308.39422607421875,0.01077231764793396,-0.0499575138092041,0.06667745113372803,1.4673980505373894,0.026913324150109504,-0.022180489605293237,0.002777496352791786,-0.9946591854095459,-0.10317661613225937,0.0903186947107315,-0.0958264023065567,-0.028949052095413208,Walking,,,,,,,
1572,Accelerometer,,,,191.73629760742188,16.455860137939453,0,98.21607208251953,,,,-0.01556396484375,-0.9841461181640625,-0.1414642333984375,-0.024772457778453827,-0.06709514558315277,-0.013835121877491474,-33.91511535644531,-114.77647399902344,-308.39422607421875,0.01077231764793396,-0.0499575138092041,0.06667745113372803,1.4673980505373894,0.026913324150109504,-0.022180489605293237,0.002777496352791786,-0.9946591854095459,-0.10317661613225937,0.0903186947107315,-0.0958264023065567,-0.028949052095413208,Walking,,,,,,,
1616,Device Motion,,,,191.73629760742188,16.455860137939453,0,98.21607208251953,,,,-0.01556396484375,-0.9841461181640625,-0.1414642333984375,-0.024772457778453827,-0.06709514558315277,-0.013835121877491474,-33.91511535644531,-114.77647399902344,-308.39422607421875,0.0014384984970092773,0.0047193169593811035,-0.025062263011932373,1.4827748850373454,0.1499624558525933,-0.15790164656236672,0.013133645057678223,-0.9961286187171936,-0.0869220495223999,0.029876956716179848,0.002729607280343771,-0.15445610880851746,Walking,,,,,,,
1648,COMPASS,,,,192.88821411132812,16.45713996887207,0,98.21607208251953,,,,-0.01556396484375,-0.9841461181640625,-0.1414642333984375,-0.024772457778453827,-0.06709514558315277,-0.013835121877491474,-33.91511535644531,-114.77647399902344,-308.39422607421875,0.0014384984970092773,0.0047193169593811035,-0.025062263011932373,1.4827748850373454,0.1499624558525933,-0.15790164656236672,0.013133645057678223,-0.9961286187171936,-0.0869220495223999,0.029876956716179848,0.002729607280343771,-0.15445610880851746,Walking,,,,,,,
1808,Gyrometer,,,,192.88821411132812,16.45713996887207,0,98.21607208251953,,,,-0.01556396484375,-0.9841461181640625,-0.1414642333984375,-0.03777587413787842,-0.07086378335952759,0.042815372347831726,-33.91511535644531,-114.77647399902344,-308.39422607421875,0.0014384984970092773,0.0047193169593811035,-0.025062263011932373,1.4827748850373454,0.1499624558525933,-0.15790164656236672,0.013133645057678223,-0.9961286187171936,-0.0869220495223999,0.029876956716179848,0.002729607280343771,-0.15445610880851746,Walking,,,,,,,
1843,Magnetometer,,,,192.88821411132812,16.45713996887207,0,98.21607208251953,,,,-0.01556396484375,-0.9841461181640625,-0.1414642333984375,-0.03777587413787842,-0.07086378335952759,0.042815372347831726,-33.60331726074219,-115.19326782226562,-307.537353515625,0.0014384984970092773,0.0047193169593811035,-0.025062263011932373,1.4827748850373454,0.1499624558525933,-0.15790164656236672,0.013133645057678223,-0.9961286187171936,-0.0869220495223999,0.029876956716179848,0.002729607280343771,-0.15445610880851746,Walking,,,,,,,
1873,Accelerometer,,,,192.88821411132812,16.45713996887207,0,98.21607208251953,,,,-0.0011749267578125,-0.958343505859375,-0.0383453369140625,-0.03777587413787842,-0.07086378335952759,0.042815372347831726,-33.60331726074219,-115.19326782226562,-307.537353515625,0.0014384984970092773,0.0047193169593811035,-0.025062263011932373,1.4827748850373454,0.1499624558525933,-0.15790164656236672,0.013133645057678223,-0.9961286187171936,-0.0869220495223999,0.029876956716179848,0.002729607280343771,-0.15445610880851746,Walking,,,,,,,
1915,Device Motion,,,,192.88821411132812,16.45713996887207,0,98.21607208251953,,,,-0.0011749267578125,-0.958343505859375,-0.0383453369140625,-0.03777587413787842,-0.07086378335952759,0.042815372347831726,-33.60331726074219,-115.19326782226562,-307.537353515625,-0.023675858974456787,0.00027358531951904297,0.03208506107330322,1.4866146539197909,0.1137804698251942,-0.14167918307432376,0.009546204470098019,-0.9964588284492493,-0.08353783190250397,-0.024245964363217354,-0.022168166935443878,-0.039761755615472794,Walking,,,,,,,
2024,Altimeter,,,,192.88821411132812,16.45713996887207,0.039642333984375,98.21560668945312,,,,-0.0011749267578125,-0.958343505859375,-0.0383453369140625,-0.03777587413787842,-0.07086378335952759,0.042815372347831726,-33.60331726074219,-115.19326782226562,-307.537353515625,-0.023675858974456787,0.00027358531951904297,0.03208506107330322,1.4866146539197909,0.1137804698251942,-0.14167918307432376,0.009546204470098019,-0.9964588284492493,-0.08353783190250397,-0.024245964363217354,-0.022168166935443878,-0.039761755615472794,Walking,,,,,,,
2108,Gyrometer,,,,192.88821411132812,16.45713996887207,0.039642333984375,98.21560668945312,,,,-0.0011749267578125,-0.958343505859375,-0.0383453369140625,0.17931409180164337,0.05970674008131027,-0.010550645180046558,-33.60331726074219,-115.19326782226562,-307.537353515625,-0.023675858974456787,0.00027358531951904297,0.03208506107330322,1.4866146539197909,0.1137804698251942,-0.14167918307432376,0.009546204470098019,-0.9964588284492493,-0.08353783190250397,-0.024245964363217354,-0.022168166935443878,-0.039761755615472794,Walking,,,,,,,
2141,Magnetometer,,,,192.88821411132812,16.45713996887207,0.039642333984375,98.21560668945312,,,,-0.0011749267578125,-0.958343505859375,-0.0383453369140625,0.17931409180164337,0.05970674008131027,-0.010550645180046558,-32.81022644042969,-115.357177734375,-306.53155517578125,-0.023675858974456787,0.00027358531951904297,0.03208506107330322,1.4866146539197909,0.1137804698251942,-0.14167918307432376,0.009546204470098019,-0.9964588284492493,-0.08353783190250397,-0.024245964363217354,-0.022168166935443878,-0.039761755615472794,Walking,,,,,,,
2170,Accelerometer,,,,192.88821411132812,16.45713996887207,0.039642333984375,98.21560668945312,,,,-0.0265655517578125,-1.0222320556640625,-0.044097900390625,0.17931409180164337,0.05970674008131027,-0.010550645180046558,-32.81022644042969,-115.357177734375,-306.53155517578125,-0.023675858974456787,0.00027358531951904297,0.03208506107330322,1.4866146539197909,0.1137804698251942,-0.14167918307432376,0.009546204470098019,-0.9964588284492493,-0.08353783190250397,-0.024245964363217354,-0.022168166935443878,-0.039761755615472794,Walking,,,,,,,
2214,Device Motion,,,,192.88821411132812,16.45713996887207,0.039642333984375,98.21560668945312,,,,-0.0265655517578125,-1.0222320556640625,-0.044097900390625,0.17931409180164337,0.05970674008131027,-0.010550645180046558,-32.81022644042969,-115.357177734375,-306.53155517578125,-0.016182661056518555,-0.09848767518997192,-0.029778949916362762,1.5014545107954722,0.11932779027150024,-0.1237960138987636,0.008248090744018555,-0.997596800327301,-0.0687929019331932,-0.06731906533241272,0.11562785506248474,0.14406704902648926,Walking,,,,,,,
2245,COMPASS,,,,191.84877014160156,16.458721160888672,0.039642333984375,98.21560668945312,,,,-0.0265655517578125,-1.0222320556640625,-0.044097900390625,0.17931409180164337,0.05970674008131027,-0.010550645180046558,-32.81022644042969,-115.357177734375,-306.53155517578125,-0.016182661056518555,-0.09848767518997192,-0.029778949916362762,1.5014545107954722,0.11932779027150024,-0.1237960138987636,0.008248090744018555,-0.997596800327301,-0.0687929019331932,-0.06731906533241272,0.11562785506248474,0.14406704902648926,Walking,,,,,,,
2340,COMPASS,,,,190.84439086914062,16.45945167541504,0.039642333984375,98.21560668945312,,,,-0.0265655517578125,-1.0222320556640625,-0.044097900390625,0.17931409180164337,0.05970674008131027,-0.010550645180046558,-32.81022644042969,-115.357177734375,-306.53155517578125,-0.016182661056518555,-0.09848767518997192,-0.029778949916362762,1.5014545107954722,0.11932779027150024,-0.1237960138987636,0.008248090744018555,-0.997596800327301,-0.0687929019331932,-0.06731906533241272,0.11562785506248474,0.14406704902648926,Walking,,,,,,,
2408,Gyrometer,,,,190.84439086914062,16.45945167541504,0.039642333984375,98.21560668945312,,,,-0.0265655517578125,-1.0222320556640625,-0.044097900390625,0.16742467880249023,0.12145639210939407,0.149473637342453,-32.81022644042969,-115.357177734375,-306.53155517578125,-0.016182661056518555,-0.09848767518997192,-0.029778949916362762,1.5014545107954722,0.11932779027150024,-0.1237960138987636,0.008248090744018555,-0.997596800327301,-0.0687929019331932,-0.06731906533241272,0.11562785506248474,0.14406704902648926,Walking,,,,,,,
2442,COMPASS,,,,189.6014404296875,16.459959030151367,0.039642333984375,98.21560668945312,,,,-0.0265655517578125,-1.0222320556640625,-0.044097900390625,0.16742467880249023,0.12145639210939407,0.149473637342453,-32.81022644042969,-115.357177734375,-306.53155517578125,-0.016182661056518555,-0.09848767518997192,-0.029778949916362762,1.5014545107954722,0.11932779027150024,-0.1237960138987636,0.008248090744018555,-0.997596800327301,-0.0687929019331932,-0.06731906533241272,0.11562785506248474,0.14406704902648926,Walking,,,,,,,
2470,Magnetometer,,,,189.6014404296875,16.459959030151367,0.039642333984375,98.21560668945312,,,,-0.0265655517578125,-1.0222320556640625,-0.044097900390625,0.16742467880249023,0.12145639210939407,0.149473637342453,-32.139892578125,-115.84913635253906,-305.76885986328125,-0.016182661056518555,-0.09848767518997192,-0.029778949916362762,1.5014545107954722,0.11932779027150024,-0.1237960138987636,0.008248090744018555,-0.997596800327301,-0.0687929019331932,-0.06731906533241272,0.11562785506248474,0.14406704902648926,Walking,,,,,,,
2501,Accelerometer,,,,189.6014404296875,16.459959030151367,0.039642333984375,98.21560668945312,,,,-0.00054931640625,-0.9613800048828125,-0.11810302734375,0.16742467880249023,0.12145639210939407,0.149473637342453,-32.139892578125,-115.84913635253906,-305.76885986328125,-0.016182661056518555,-0.09848767518997192,-0.029778949916362762,1.5014545107954722,0.11932779027150024,-0.1237960138987636,0.008248090744018555,-0.997596800327301,-0.0687929019331932,-0.06731906533241272,0.11562785506248474,0.14406704902648926,Walking,,,,,,,
2529,Device Motion,,,,189.6014404296875,16.459959030151367,0.039642333984375,98.21560668945312,,,,-0.00054931640625,-0.9613800048828125,-0.11810302734375,0.16742467880249023,0.12145639210939407,0.149473637342453,-32.139892578125,-115.84913635253906,-305.76885986328125,0.059103041887283325,0.03184807300567627,-0.0220416858792305,1.519920663356086,-0.3956009629694604,0.4207160321355743,-0.01959802769124508,-0.9987061023712158,-0.04692818224430084,0.028270380571484566,-0.003563163336366415,-0.0032061703968793154,Walking,,,,,,,
2709,Gyrometer,,,,189.6014404296875,16.459959030151367,0.039642333984375,98.21560668945312,,,,-0.00054931640625,-0.9613800048828125,-0.11810302734375,-0.13958479464054108,0.04722370579838753,0.04934358224272728,-32.139892578125,-115.84913635253906,-305.76885986328125,0.059103041887283325,0.03184807300567627,-0.0220416858792305,1.519920663356086,-0.3956009629694604,0.4207160321355743,-0.01959802769124508,-0.9987061023712158,-0.04692818224430084,0.028270380571484566,-0.003563163336366415,-0.0032061703968793154,Walking,,,,,,,
2744,COMPASS,,,,188.54930114746094,16.461124420166016,0.039642333984375,98.21560668945312,,,,-0.00054931640625,-0.9613800048828125,-0.11810302734375,-0.13958479464054108,0.04722370579838753,0.04934358224272728,-32.139892578125,-115.84913635253906,-305.76885986328125,0.059103041887283325,0.03184807300567627,-0.0220416858792305,1.519920663356086,-0.3956009629694604,0.4207160321355743,-0.01959802769124508,-0.9987061023712158,-0.04692818224430084,0.028270380571484566,-0.003563163336366415,-0.0032061703968793154,Walking,,,,,,,
2775,Magnetometer,,,,188.54930114746094,16.461124420166016,0.039642333984375,98.21560668945312,,,,-0.00054931640625,-0.9613800048828125,-0.11810302734375,-0.13958479464054108,0.04722370579838753,0.04934358224272728,-31.305984497070312,-116.47149658203125,-307.27587890625,0.059103041887283325,0.03184807300567627,-0.0220416858792305,1.519920663356086,-0.3956009629694604,0.4207160321355743,-0.01959802769124508,-0.9987061023712158,-0.04692818224430084,0.028270380571484566,-0.003563163336366415,-0.0032061703968793154,Walking,,,,,,,
2805,Accelerometer,,,,188.54930114746094,16.461124420166016,0.039642333984375,98.21560668945312,,,,-0.0005950927734375,-0.9712066650390625,-0.0525665283203125,-0.13958479464054108,0.04722370579838753,0.04934358224272728,-31.305984497070312,-116.47149658203125,-307.27587890625,0.059103041887283325,0.03184807300567627,-0.0220416858792305,1.519920663356086,-0.3956009629694604,0.4207160321355743,-0.01959802769124508,-0.9987061023712158,-0.04692818224430084,0.028270380571484566,-0.003563163336366415,-0.0032061703968793154,Walking,,,,,,,
2832,Device Motion,,,,188.54930114746094,16.461124420166016,0.039642333984375,98.21560668945312,,,,-0.0005950927734375,-0.9712066650390625,-0.0525665283203125,-0.13958479464054108,0.04722370579838753,0.04934358224272728,-31.305984497070312,-116.47149658203125,-307.27587890625,-0.001452803611755371,0.0016968250274658203,0.04037517309188843,1.493476466246608,-0.3020301619008794,0.3251741793811991,-0.02297651208937168,-0.9970123171806335,-0.07374618202447891,-0.11784940958023071,0.002401936799287796,-0.048612385988235474,Walking,,,,,,,
2958,COMPASS,,,,189.56826782226562,16.46169090270996,0.039642333984375,98.21560668945312,,,,-0.0005950927734375,-0.9712066650390625,-0.0525665283203125,-0.13958479464054108,0.04722370579838753,0.04934358224272728,-31.305984497070312,-116.47149658203125,-307.27587890625,-0.001452803611755371,0.0016968250274658203,0.04037517309188843,1.493476466246608,-0.3020301619008794,0.3251741793811991,-0.02297651208937168,-0.9970123171806335,-0.07374618202447891,-0.11784940958023071,0.002401936799287796,-0.048612385988235474,Walking,,,,,,,
3009,Gyrometer,,,,189.56826782226562,16.46169090270996,0.039642333984375,98.21560668945312,,,,-0.0005950927734375,-0.9712066650390625,-0.0525665283203125,0.02167120762169361,-0.11296170204877853,-0.06150943413376808,-31.305984497070312,-116.47149658203125,-307.27587890625,-0.001452803611755371,0.0016968250274658203,0.04037517309188843,1.493476466246608,-0.3020301619008794,0.3251741793811991,-0.02297651208937168,-0.9970123171806335,-0.07374618202447891,-0.11784940958023071,0.002401936799287796,-0.048612385988235474,Walking,,,,,,,
3043,Magnetometer,,,,189.56826782226562,16.46169090270996,0.039642333984375,98.21560668945312,,,,-0.0005950927734375,-0.9712066650390625,-0.0525665283203125,0.02167120762169361,-0.11296170204877853,-0.06150943413376808,-31.0560302734375,-116.70074462890625,-310.3586730957031,-0.001452803611755371,0.0016968250274658203,0.04037517309188843,1.493476466246608,-0.3020301619008794,0.3251741793811991,-0.02297651208937168,-0.9970123171806335,-0.07374618202447891,-0.11784940958023071,0.002401936799287796,-0.048612385988235474,Walking,,,,,,,
3073,Altimeter,,,,189.56826782226562,16.46169090270996,0.066070556640625,98.21527099609375,,,,-0.0005950927734375,-0.9712066650390625,-0.0525665283203125,0.02167120762169361,-0.11296170204877853,-0.06150943413376808,-31.0560302734375,-116.70074462890625,-310.3586730957031,-0.001452803611755371,0.0016968250274658203,0.04037517309188843,1.493476466246608,-0.3020301619008794,0.3251741793811991,-0.02297651208937168,-0.9970123171806335,-0.07374618202447891,-0.11784940958023071,0.002401936799287796,-0.048612385988235474,Walking,,,,,,,
3102,Accelerometer,,,,189.56826782226562,16.46169090270996,0.066070556640625,98.21527099609375,,,,-0.0143585205078125,-1.05657958984375,-0.0884552001953125,0.02167120762169361,-0.11296170204877853,-0.06150943413376808,-31.0560302734375,-116.70074462890625,-310.3586730957031,-0.001452803611755371,0.0016968250274658203,0.04037517309188843,1.493476466246608,-0.3020301619008794,0.3251741793811991,-0.02297651208937168,-0.9970123171806335,-0.07374618202447891,-0.11784940958023071,0.002401936799287796,-0.048612385988235474,Walking,,,,,,,
3131,Device Motion,,,,189.56826782226562,16.46169090270996,0.066070556640625,98.21527099609375,,,,-0.0143585205078125,-1.05657958984375,-0.0884552001953125,0.02167120762169361,-0.11296170204877853,-0.06150943413376808,-31.0560302734375,-116.70074462890625,-310.3586730957031,0.0036796927452087402,0.03757476806640625,-0.004861056804656982,1.4885560488995637,-0.2602139494515623,0.26321751219094847,-0.021135730668902397,-0.9966201782226562,-0.07938283681869507,-0.0056736827827990055,0.16252808272838593,0.006604725029319525,Walking,,,,,,,
3197,COMPASS,,,,190.78884887695312,16.463237762451172,0.066070556640625,98.21527099609375,,,,-0.0143585205078125,-1.05657958984375,-0.0884552001953125,0.02167120762169361,-0.11296170204877853,-0.06150943413376808,-31.0560302734375,-116.70074462890625,-310.3586730957031,0.0036796927452087402,0.03757476806640625,-0.004861056804656982,1.4885560488995637,-0.2602139494515623,0.26321751219094847,-0.021135730668902397,-0.9966201782226562,-0.07938283681869507,-0.0056736827827990055,0.16252808272838593,0.006604725029319525,Walking,,,,,,,
3257,COMPASS,,,,191.96484375,16.463180541992188,0.066070556640625,98.21527099609375,,,,-0.0143585205078125,-1.05657958984375,-0.0884552001953125,0.02167120762169361,-0.11296170204877853,-0.06150943413376808,-31.0560302734375,-116.70074462890625,-310.3586730957031,0.0036796927452087402,0.03757476806640625,-0.004861056804656982,1.4885560488995637,-0.2602139494515623,0.26321751219094847,-0.021135730668902397,-0.9966201782226562,-0.07938283681869507,-0.0056736827827990055,0.16252808272838593,0.006604725029319525,Walking,,,,,,,
3310,Gyrometer,,,,191.96484375,16.463180541992188,0.066070556640625,98.21527099609375,,,,-0.0143585205078125,-1.05657958984375,-0.0884552001953125,-0.016457537189126015,-0.04586229845881462,-0.034087661653757095,-31.0560302734375,-116.70074462890625,-310.3586730957031,0.0036796927452087402,0.03757476806640625,-0.004861056804656982,1.4885560488995637,-0.2602139494515623,0.26321751219094847,-0.021135730668902397,-0.9966201782226562,-0.07938283681869507,-0.0056736827827990055,0.16252808272838593,0.006604725029319525,Walking,,,,,,,
3344,Magnetometer,,,,191.96484375,16.463180541992188,0.066070556640625,98.21527099609375,,,,-0.0143585205078125,-1.05657958984375,-0.0884552001953125,-0.016457537189126015,-0.04586229845881462,-0.034087661653757095,-31.157150268554688,-116.45039367675781,-311.78289794921875,0.0036796927452087402,0.03757476806640625,-0.004861056804656982,1.4885560488995637,-0.2602139494515623,0.26321751219094847,-0.021135730668902397,-0.9966201782226562,-0.07938283681869507,-0.0056736827827990055,0.16252808272838593,0.006604725029319525,Walking,,,,,,,
3375,Accelerometer,,,,191.96484375,16.463180541992188,0.066070556640625,98.21527099609375,,,,-0.0239410400390625,-0.9966583251953125,-0.1043548583984375,-0.016457537189126015,-0.04586229845881462,-0.034087661653757095,-31.157150268554688,-116.45039367675781,-311.78289794921875,0.0036796927452087402,0.03757476806640625,-0.004861056804656982,1.4885560488995637,-0.2602139494515623,0.26321751219094847,-0.021135730668902397,-0.9966201782226562,-0.07938283681869507,-0.0056736827827990055,0.16252808272838593,0.006604725029319525,Walking,,,,,,,
3410,Device Motion,,,,191.96484375,16.463180541992188,0.066070556640625,98.21527099609375,,,,-0.0239410400390625,-0.9966583251953125,-0.1043548583984375,-0.016457537189126015,-0.04586229845881462,-0.034087661653757095,-31.157150268554688,-116.45039367675781,-311.78289794921875,0.0009642541408538818,0.04727339744567871,0.009827613830566406,1.4894165516793705,-0.011298839050211309,-0.004183410267917176,-0.0009184611844830215,-0.9966905117034912,-0.08128464221954346,-0.011444084346294403,0.07081988453865051,-0.02721700631082058,Walking,,,,,,,
3610,Gyrometer,,,,191.96484375,16.463180541992188,0.066070556640625,98.21527099609375,,,,-0.0239410400390625,-0.9966583251953125,-0.1043548583984375,0.0592566654086113,-0.02744041197001934,-0.07921092957258224,-31.157150268554688,-116.45039367675781,-311.78289794921875,0.0009642541408538818,0.04727339744567871,0.009827613830566406,1.4894165516793705,-0.011298839050211309,-0.004183410267917176,-0.0009184611844830215,-0.9966905117034912,-0.08128464221954346,-0.011444084346294403,0.07081988453865051,-0.02721700631082058,Walking,,,,,,,
3644,Magnetometer,,,,191.96484375,16.463180541992188,0.066070556640625,98.21527099609375,,,,-0.0239410400390625,-0.9966583251953125,-0.1043548583984375,0.0592566654086113,-0.02744041197001934,-0.07921092957258224,-32.81355285644531,-117.186279296875,-312.751708984375,0.0009642541408538818,0.04727339744567871,0.009827613830566406,1.4894165516793705,-0.011298839050211309,-0.004183410267917176,-0.0009184611844830215,-0.9966905117034912,-0.08128464221954346,-0.011444084346294403,0.07081988453865051,-0.02721700631082058,Walking,,,,,,,
3676,Accelerometer,,,,191.96484375,16.463180541992188,0.066070556640625,98.21527099609375,,,,-0.0112457275390625,-1.016754150390625,-0.045257568359375,0.0592566654086113,-0.02744041197001934,-0.07921092957258224,-32.81355285644531,-117.186279296875,-312.751708984375,0.0009642541408538818,0.04727339744567871,0.009827613830566406,1.4894165516793705,-0.011298839050211309,-0.004183410267917176,-0.0009184611844830215,-0.9966905117034912,-0.08128464221954346,-0.011444084346294403,0.07081988453865051,-0.02721700631082058,Walking,,,,,,,
3710,Device Motion,,,,191.96484375,16.463180541992188,0.066070556640625,98.21527099609375,,,,-0.0112457275390625,-1.016754150390625,-0.045257568359375,0.0592566654086113,-0.02744041197001934,-0.07921092957258224,-32.81355285644531,-117.186279296875,-312.751708984375,-0.0014918744564056396,-0.03317612409591675,0.007809765636920929,1.4924103178051418,0.0003450578169834281,-0.016496380087163757,2.7019894332624972e-05,-0.996929407119751,-0.07830540835857391,0.1930529624223709,0.05886119604110718,-0.0061066243797540665,Walking,,,,,,,
3855,COMPASS,,,,190.9520721435547,16.46459197998047,0.066070556640625,98.21527099609375,,,,-0.0112457275390625,-1.016754150390625,-0.045257568359375,0.0592566654086113,-0.02744041197001934,-0.07921092957258224,-32.81355285644531,-117.186279296875,-312.751708984375,-0.0014918744564056396,-0.03317612409591675,0.007809765636920929,1.4924103178051418,0.0003450578169834281,-0.016496380087163757,2.7019894332624972e-05,-0.996929407119751,-0.07830540835857391,0.1930529624223709,0.05886119604110718,-0.0061066243797540665,Walking,,,,,,,
3910,Gyrometer,,,,190.9520721435547,16.46459197998047,0.066070556640625,98.21527099609375,,,,-0.0112457275390625,-1.016754150390625,-0.045257568359375,0.20977559685707092,0.08797193318605423,0.04753769189119339,-32.81355285644531,-117.186279296875,-312.751708984375,-0.0014918744564056396,-0.03317612409591675,0.007809765636920929,1.4924103178051418,0.0003450578169834281,-0.016496380087163757,2.7019894332624972e-05,-0.996929407119751,-0.07830540835857391,0.1930529624223709,0.05886119604110718,-0.0061066243797540665,Walking,,,,,,,
3944,Magnetometer,,,,190.9520721435547,16.46459197998047,0.066070556640625,98.21527099609375,,,,-0.0112457275390625,-1.016754150390625,-0.045257568359375,0.20977559685707092,0.08797193318605423,0.04753769189119339,-33.44096374511719,-117.9881591796875,-309.68316650390625,-0.0014918744564056396,-0.03317612409591675,0.007809765636920929,1.4924103178051418,0.0003450578169834281,-0.016496380087163757,2.7019894332624972e-05,-0.996929407119751,-0.07830540835857391,0.1930529624223709,0.05886119604110718,-0.0061066243797540665,Walking,,,,,,,
3974,Accelerometer,,,,190.9520721435547,16.46459197998047,0.066070556640625,98.21527099609375,,,,-0.0325469970703125,-0.9854583740234375,-0.062469482421875,0.20977559685707092,0.08797193318605423,0.04753769189119339,-33.44096374511719,-117.9881591796875,-309.68316650390625,-0.0014918744564056396,-0.03317612409591675,0.007809765636920929,1.4924103178051418,0.0003450578169834281,-0.016496380087163757,2.7019894332624972e-05,-0.996929407119751,-0.07830540835857391,0.1930529624223709,0.05886119604110718,-0.0061066243797540665,Walking,,,,,,,
4004,COMPASS,,,,189.8300323486328,16.46527862548828,0.066070556640625,98.21527099609375,,,,-0.0325469970703125,-0.9854583740234375,-0.062469482421875,0.20977559685707092,0.08797193318605423,0.04753769189119339,-33.44096374511719,-117.9881591796875,-309.68316650390625,-0.0014918744564056396,-0.03317612409591675,0.007809765636920929,1.4924103178051418,0.0003450578169834281,-0.016496380087163757,2.7019894332624972e-05,-0.996929407119751,-0.07830540835857391,0.1930529624223709,0.05886119604110718,-0.0061066243797540665,Walking,,,,,,,
4032,Device Motion,,,,189.8300323486328,16.46527862548828,0.066070556640625,98.21527099609375,,,,-0.0325469970703125,-0.9854583740234375,-0.062469482421875,0.20977559685707092,0.08797193318605423,0.04753769189119339,-33.44096374511719,-117.9881591796875,-309.68316650390625,-0.0007892251014709473,0.02927267551422119,-0.09077674150466919,1.518795702070909,-0.3360442259561885,0.35914466719850724,-0.017139829695224762,-0.9986482858657837,-0.04907016083598137,0.05722486972808838,0.1667039692401886,0.1403125822544098,Walking,,,,,,,
4059,COMPASS,,,,188.71383666992188,16.465587615966797,0.066070556640625,98.21527099609375,,,,-0.0325469970703125,-0.9854583740234375,-0.062469482421875,0.20977559685707092,0.08797193318605423,0.04753769189119339,-33.44096374511719,-117.9881591796875,-309.68316650390625,-0.0007892251014709473,0.02927267551422119,-0.09077674150466919,1.518795702070909,-0.3360442259561885,0.35914466719850724,-0.017139829695224762,-0.9986482858657837,-0.04907016083598137,0.05722486972808838,0.1667039692401886,0.1403125822544098,Walking,,,,,,,
4087,Altimeter,,,,188.71383666992188,16.465587615966797,0.07928466796875,98.21514129638672,,,,-0.0325469970703125,-0.9854583740234375,-0.062469482421875,0.20977559685707092,0.08797193318605423,0.04753769189119339,-33.44096374511719,-117.9881591796875,-309.68316650390625,-0.0007892251014709473,0.02927267551422119,-0.09077674150466919,1.518795702070909,-0.3360442259561885,0.35914466719850724,-0.017139829695224762,-0.9986482858657837,-0.04907016083598137,0.05722486972808838,0.1667039692401886,0.1403125822544098,Walking,,,,,,,
4211,Gyrometer,,,,188.71383666992188,16.465587615966797,0.07928466796875,98.21514129638672,,,,-0.0325469970703125,-0.9854583740234375,-0.062469482421875,-0.15690386295318604,0.08184400200843811,0.06807518750429153,-33.44096374511719,-117.9881591796875,-309.68316650390625,-0.0007892251014709473,0.02927267551422119,-0.09077674150466919,1.518795702070909,-0.3360442259561885,0.35914466719850724,-0.017139829695224762,-0.9986482858657837,-0.04907016083598137,0.05722486972808838,0.1667039692401886,0.1403125822544098,Walking,,,,,,,
4243,Magnetometer,,,,188.71383666992188,16.465587615966797,0.07928466796875,98.21514129638672,,,,-0.0325469970703125,-0.9854583740234375,-0.062469482421875,-0.15690386295318604,0.08184400200843811,0.06807518750429153,-33.2496337890625,-118.19589233398438,-310.21490478515625,-0.0007892251014709473,0.02927267551422119,-0.09077674150466919,1.518795702070909,-0.3360442259561885,0.35914466719850724,-0.017139829695224762,-0.9986482858657837,-0.04907016083598137,0.05722486972808838,0.1667039692401886,0.1403125822544098,Walking,,,,,,,
4275,Accelerometer,,,,188.71383666992188,16.465587615966797,0.07928466796875,98.21514129638672,,,,0.0033111572265625,-0.968017578125,-0.047454833984375,-0.15690386295318604,0.08184400200843811,0.06807518750429153,-33.2496337890625,-118.19589233398438,-310.21490478515625,-0.0007892251014709473,0.02927267551422119,-0.09077674150466919,1.518795702070909,-0.3360442259561885,0.35914466719850724,-0.017139829695224762,-0.9986482858657837,-0.04907016083598137,0.05722486972808838,0.1667039692401886,0.1403125822544098,Walking,,,,,,,
4308,Device Motion,,,,188.71383666992188,16.465587615966797,0.07928466796875,98.21514129638672,,,,0.0033111572265625,-0.968017578125,-0.047454833984375,-0.15690386295318604,0.08184400200843811,0.06807518750429153,-33.2496337890625,-118.19589233398438,-310.21490478515625,0.036554962396621704,-0.013692080974578857,0.00663042813539505,1.4853078833214046,-0.29029373065185765,0.32700835051296034,-0.0244394913315773,-0.9963480830192566,-0.08181057125329971,-0.12459199130535126,-0.05029824376106262,0.02600923553109169,Walking,,,,,,,
4511,Magnetometer,,,,188.71383666992188,16.465587615966797,0.07928466796875,98.21514129638672,,,,0.0033111572265625,-0.968017578125,-0.047454833984375,-0.15690386295318604,0.08184400200843811,0.06807518750429153,-33.11424255371094,-118.10955810546875,-309.5986022949219,0.036554962396621704,-0.013692080974578857,0.00663042813539505,1.4853078833214046,-0.29029373065185765,0.32700835051296034,-0.0244394913315773,-0.9963480830192566,-0.08181057125329971,-0.12459199130535126,-0.05029824376106262,0.02600923553109169,Walking,,,,,,,
4545,COMPASS,,,,189.92251586914062,16.466655731201172,0.07928466796875,98.21514129638672,,,,0.0033111572265625,-0.968017578125,-0.047454833984375,-0.15690386295318604,0.08184400200843811,0.06807518750429153,-33.11424255371094,-118.10955810546875,-309.5986022949219,0.036554962396621704,-0.013692080974578857,0.00663042813539505,1.4853078833214046,-0.29029373065185765,0.32700835051296034,-0.0244394913315773,-0.9963480830192566,-0.08181057125329971,-0.12459199130535126,-0.05029824376106262,0.02600923553109169,Walking,,,,,,,
4576,Gyrometer,,,,189.92251586914062,16.466655731201172,0.07928466796875,98.21514129638672,,,,0.0033111572265625,-0.968017578125,-0.047454833984375,0.23226332664489746,-0.1359892636537552,-0.08351752907037735,-33.11424255371094,-118.10955810546875,-309.5986022949219,0.036554962396621704,-0.013692080974578857,0.00663042813539505,1.4853078833214046,-0.29029373065185765,0.32700835051296034,-0.0244394913315773,-0.9963480830192566,-0.08181057125329971,-0.12459199130535126,-0.05029824376106262,0.02600923553109169,Walking,,,,,,,
4606,Accelerometer,,,,189.92251586914062,16.466655731201172,0.07928466796875,98.21514129638672,,,,0.011505126953125,-1.078826904296875,-0.04736328125,0.23226332664489746,-0.1359892636537552,-0.08351752907037735,-33.11424255371094,-118.10955810546875,-309.5986022949219,0.036554962396621704,-0.013692080974578857,0.00663042813539505,1.4853078833214046,-0.29029373065185765,0.32700835051296034,-0.0244394913315773,-0.9963480830192566,-0.08181057125329971,-0.12459199130535126,-0.05029824376106262,0.02600923553109169,Walking,,,,,,,
4636,COMPASS,,,,190.9380340576172,16.467214584350586,0.07928466796875,98.21514129638672,,,,0.011505126953125,-1.078826904296875,-0.04736328125,0.23226332664489746,-0.1359892636537552,-0.08351752907037735,-33.11424255371094,-118.10955810546875,-309.5986022949219,0.036554962396621704,-0.013692080974578857,0.00663042813539505,1.4853078833214046,-0.29029373065185765,0.32700835051296034,-0.0244394913315773,-0.9963480830192566,-0.08181057125329971,-0.12459199130535126,-0.05029824376106262,0.02600923553109169,Walking,,,,,,,
4663,Device Motion,,,,190.9380340576172,16.467214584350586,0.07928466796875,98.21514129638672,,,,0.011505126953125,-1.078826904296875,-0.04736328125,0.23226332664489746,-0.1359892636537552,-0.08351752907037735,-33.11424255371094,-118.10955810546875,-309.5986022949219,-0.0027434229850769043,-0.05102914571762085,-0.04239845275878906,1.5070173185957494,-0.21550396247783854,0.21261295965151777,-0.013629280030727386,-0.9979668259620667,-0.06226165592670441,0.08746161311864853,-0.1000509262084961,-0.03370373696088791,Walking,,,,,,,
4773,COMPASS,,,,192.17527770996094,16.468276977539062,0.07928466796875,98.21514129638672,,,,0.011505126953125,-1.078826904296875,-0.04736328125,0.23226332664489746,-0.1359892636537552,-0.08351752907037735,-33.11424255371094,-118.10955810546875,-309.5986022949219,-0.0027434229850769043,-0.05102914571762085,-0.04239845275878906,1.5070173185957494,-0.21550396247783854,0.21261295965151777,-0.013629280030727386,-0.9979668259620667,-0.06226165592670441,0.08746161311864853,-0.1000509262084961,-0.03370373696088791,Walking,,,,,,,
4811,Magnetometer,,,,192.17527770996094,16.468276977539062,0.07928466796875,98.21514129638672,,,,0.011505126953125,-1.078826904296875,-0.04736328125,0.23226332664489746,-0.1359892636537552,-0.08351752907037735,-32.39216613769531,-118.33815002441406,-308.922119140625,-0.0027434229850769043,-0.05102914571762085,-0.04239845275878906,1.5070173185957494,-0.21550396247783854,0.21261295965151777,-0.013629280030727386,-0.9979668259620667,-0.06226165592670441,0.08746161311864853,-0.1000509262084961,-0.03370373696088791,Walking,,,,,,,
4841,Gyrometer,,,,192.17527770996094,16.468276977539062,0.07928466796875,98.21514129638672,,,,0.011505126953125,-1.078826904296875,-0.04736328125,-0.039138615131378174,-0.13268747925758362,-0.042449455708265305,-32.39216613769531,-118.33815002441406,-308.922119140625,-0.0027434229850769043,-0.05102914571762085,-0.04239845275878906,1.5070173185957494,-0.21550396247783854,0.21261295965151777,-0.013629280030727386,-0.9979668259620667,-0.06226165592670441,0.08746161311864853,-0.1000509262084961,-0.03370373696088791,Walking,,,,,,,
4870,Accelerometer,,,,192.17527770996094,16.468276977539062,0.07928466796875,98.21514129638672,,,,-0.0381011962890625,-1.011932373046875,-0.1193695068359375,-0.039138615131378174,-0.13268747925758362,-0.042449455708265305,-32.39216613769531,-118.33815002441406,-308.922119140625,-0.0027434229850769043,-0.05102914571762085,-0.04239845275878906,1.5070173185957494,-0.21550396247783854,0.21261295965151777,-0.013629280030727386,-0.9979668259620667,-0.06226165592670441,0.08746161311864853,-0.1000509262084961,-0.03370373696088791,Walking,,,,,,,
4899,Activity Manager,,,,192.17527770996094,16.468276977539062,0.07928466796875,98.21514129638672,,,,-0.0381011962890625,-1.011932373046875,-0.1193695068359375,-0.039138615131378174,-0.13268747925758362,-0.042449455708265305,-32.39216613769531,-118.33815002441406,-308.922119140625,-0.0027434229850769043,-0.05102914571762085,-0.04239845275878906,1.5070173185957494,-0.21550396247783854,0.21261295965151777,-0.013629280030727386,-0.9979668259620667,-0.06226165592670441,0.08746161311864853,-0.1000509262084961,-0.03370373696088791,Walking,,,,,,,
4930,Device Motion,,,,192.17527770996094,16.468276977539062,0.07928466796875,98.21514129638672,,,,-0.0381011962890625,-1.011932373046875,-0.1193695068359375,-0.039138615131378174,-0.13268747925758362,-0.042449455708265305,-32.39216613769531,-118.33815002441406,-308.922119140625,0.012528895400464535,0.036432087421417236,0.004066102206707001,1.5114486883708573,-0.15187213708391387,0.11806765338729161,-0.008973607793450356,-0.9982394576072693,-0.058631617575883865,-0.053579311817884445,0.04622093588113785,0.021689023822546005,Walking,,,,,,,
5026,Altimeter,,,,192.17527770996094,16.468276977539062,0.092498779296875,98.21497344970703,,,,-0.0381011962890625,-1.011932373046875,-0.1193695068359375,-0.039138615131378174,-0.13268747925758362,-0.042449455708265305,-32.39216613769531,-118.33815002441406,-308.922119140625,0.012528895400464535,0.036432087421417236,0.004066102206707001,1.5114486883708573,-0.15187213708391387,0.11806765338729161,-0.008973607793450356,-0.9982394576072693,-0.058631617575883865,-0.053579311817884445,0.04622093588113785,0.021689023822546005,Walking,,,,,,,
5110,Magnetometer,,,,192.17527770996094,16.468276977539062,0.092498779296875,98.21497344970703,,,,-0.0381011962890625,-1.011932373046875,-0.1193695068359375,-0.039138615131378174,-0.13268747925758362,-0.042449455708265305,-31.622634887695312,-118.05995178222656,-309.170654296875,0.012528895400464535,0.036432087421417236,0.004066102206707001,1.5114486883708573,-0.15187213708391387,0.11806765338729161,-0.008973607793450356,-0.9982394576072693,-0.058631617575883865,-0.053579311817884445,0.04622093588113785,0.021689023822546005,Walking,,,,,,,
5144,Gyrometer,,,,192.17527770996094,16.468276977539062,0.092498779296875,98.21497344970703,,,,-0.0381011962890625,-1.011932373046875,-0.1193695068359375,-0.03921451419591904,0.17517207562923431,0.038726091384887695,-31.622634887695312,-118.05995178222656,-309.170654296875,0.012528895400464535,0.036432087421417236,0.004066102206707001,1.5114486883708573,-0.15187213708391387,0.11806765338729161,-0.008973607793450356,-0.9982394576072693,-0.058631617575883865,-0.053579311817884445,0.04622093588113785,0.021689023822546005,Walking,,,,,,,
5180,Accelerometer,,,,192.17527770996094,16.468276977539062,0.092498779296875,98.21497344970703,,,,-0.010284423828125,-0.99761962890625,-0.0449066162109375,-0.03921451419591904,0.17517207562923431,0.038726091384887695,-31.622634887695312,-118.05995178222656,-309.170654296875,0.012528895400464535,0.036432087421417236,0.004066102206707001,1.5114486883708573,-0.15187213708391387,0.11806765338729161,-0.008973607793450356,-0.9982394576072693,-0.058631617575883865,-0.053579311817884445,0.04622093588113785,0.021689023822546005,Walking,,,,,,,
5206,Device Motion,,,,192.17527770996094,16.468276977539062,0.092498779296875,98.21497344970703,,,,-0.010284423828125,-0.99761962890625,-0.0449066162109375,-0.03921451419591904,0.17517207562923431,0.038726091384887695,-31.622634887695312,-118.05995178222656,-309.170654296875,-0.01653224043548107,-0.021494567394256592,0.0316476970911026,1.4983976586656946,-0.11512544372856848,0.1096147238967289,-0.008309044875204563,-0.9973803758621216,-0.07185469567775726,-0.04104391112923622,0.14633503556251526,0.04850325733423233,Walking,,,,,,,
5232,COMPASS,,,,191.11380004882812,16.469141006469727,0.092498779296875,98.21497344970703,,,,-0.010284423828125,-0.99761962890625,-0.0449066162109375,-0.03921451419591904,0.17517207562923431,0.038726091384887695,-31.622634887695312,-118.05995178222656,-309.170654296875,-0.01653224043548107,-0.021494567394256592,0.0316476970911026,1.4983976586656946,-0.11512544372856848,0.1096147238967289,-0.008309044875204563,-0.9973803758621216,-0.07185469567775726,-0.04104391112923622,0.14633503556251526,0.04850325733423233,Walking,,,,,,,
5371,COMPASS,,,,189.9508056640625,16.469629287719727,0.092498779296875,98.21497344970703,,,,-0.010284423828125,-0.99761962890625,-0.0449066162109375,-0.03921451419591904,0.17517207562923431,0.038726091384887695,-31.622634887695312,-118.05995178222656,-309.170654296875,-0.01653224043548107,-0.021494567394256592,0.0316476970911026,1.4983976586656946,-0.11512544372856848,0.1096147238967289,-0.008309044875204563,-0.9973803758621216,-0.07185469567775726,-0.04104391112923622,0.14633503556251526,0.04850325733423233,Walking,,,,,,,
5409,Magnetometer,,,,189.9508056640625,16.469629287719727,0.092498779296875,98.21497344970703,,,,-0.010284423828125,-0.99761962890625,-0.0449066162109375,-0.03921451419591904,0.17517207562923431,0.038726091384887695,-30.746658325195312,-118.15866088867188,-306.98358154296875,-0.01653224043548107,-0.021494567394256592,0.0316476970911026,1.4983976586656946,-0.11512544372856848,0.1096147238967289,-0.008309044875204563,-0.9973803758621216,-0.07185469567775726,-0.04104391112923622,0.14633503556251526,0.04850325733423233,Walking,,,,,,,
5442,Gyrometer,,,,189.9508056640625,16.469629287719727,0.092498779296875,98.21497344970703,,,,-0.010284423828125,-0.99761962890625,-0.0449066162109375,0.13611948490142822,0.10507848113775253,-0.09038902074098587,-30.746658325195312,-118.15866088867188,-306.98358154296875,-0.01653224043548107,-0.021494567394256592,0.0316476970911026,1.4983976586656946,-0.11512544372856848,0.1096147238967289,-0.008309044875204563,-0.9973803758621216,-0.07185469567775726,-0.04104391112923622,0.14633503556251526,0.04850325733423233,Walking,,,,,,,
5473,Accelerometer,,,,189.9508056640625,16.469629287719727,0.092498779296875,98.21497344970703,,,,-0.0019989013671875,-0.9578857421875,-0.0530853271484375,0.13611948490142822,0.10507848113775253,-0.09038902074098587,-30.746658325195312,-118.15866088867188,-306.98358154296875,-0.01653224043548107,-0.021494567394256592,0.0316476970911026,1.4983976586656946,-0.11512544372856848,0.1096147238967289,-0.008309044875204563,-0.9973803758621216,-0.07185469567775726,-0.04104391112923622,0.14633503556251526,0.04850325733423233,Walking,,,,,,,
5504,Device Motion,,,,189.9508056640625,16.469629287719727,0.092498779296875,98.21497344970703,,,,-0.0019989013671875,-0.9578857421875,-0.0530853271484375,0.13611948490142822,0.10507848113775253,-0.09038902074098587,-30.746658325195312,-118.15866088867188,-306.98358154296875,-0.009227783419191837,0.03713959455490112,-0.01424235850572586,1.5226275674723495,-0.1470113514650919,0.17465649291474028,-0.007053345907479525,-0.9988400936126709,-0.04763209819793701,0.13639506697654724,0.08465389162302017,0.045043960213661194,Walking,,,,,,,
5570,COMPASS,,,,188.84486389160156,16.470949172973633,0.092498779296875,98.21497344970703,,,,-0.0019989013671875,-0.9578857421875,-0.0530853271484375,0.13611948490142822,0.10507848113775253,-0.09038902074098587,-30.746658325195312,-118.15866088867188,-306.98358154296875,-0.009227783419191837,0.03713959455490112,-0.01424235850572586,1.5226275674723495,-0.1470113514650919,0.17465649291474028,-0.007053345907479525,-0.9988400936126709,-0.04763209819793701,0.13639506697654724,0.08465389162302017,0.045043960213661194,Walking,,,,,,,
5709,Magnetometer,,,,188.84486389160156,16.470949172973633,0.092498779296875,98.21497344970703,,,,-0.0019989013671875,-0.9578857421875,-0.0530853271484375,0.13611948490142822,0.10507848113775253,-0.09038902074098587,-28.529296875,-117.31195068359375,-306.60504150390625,-0.009227783419191837,0.03713959455490112,-0.01424235850572586,1.5226275674723495,-0.1470113514650919,0.17465649291474028,-0.007053345907479525,-0.9988400936126709,-0.04763209819793701,0.13639506697654724,0.08465389162302017,0.045043960213661194,Walking,,,,,,,
5742,Gyrometer,,,,188.84486389160156,16.470949172973633,0.092498779296875,98.21497344970703,,,,-0.0019989013671875,-0.9578857421875,-0.0530853271484375,-0.15797126293182373,0.0673564001917839,0.07901652157306671,-28.529296875,-117.31195068359375,-306.60504150390625,-0.009227783419191837,0.03713959455490112,-0.01424235850572586,1.5226275674723495,-0.1470113514650919,0.17465649291474028,-0.007053345907479525,-0.9988400936126709,-0.04763209819793701,0.13639506697654724,0.08465389162302017,0.045043960213661194,Walking,,,,,,,
5773,Accelerometer,,,,188.84486389160156,16.470949172973633,0.092498779296875,98.21497344970703,,,,-0.0166778564453125,-0.99334716796875,-0.0812530517578125,-0.15797126293182373,0.0673564001917839,0.07901652157306671,-28.529296875,-117.31195068359375,-306.60504150390625,-0.009227783419191837,0.03713959455490112,-0.01424235850572586,1.5226275674723495,-0.1470113514650919,0.17465649291474028,-0.007053345907479525,-0.9988400936126709,-0.04763209819793701,0.13639506697654724,0.08465389162302017,0.045043960213661194,Walking,,,,,,,
5804,Device Motion,,,,188.84486389160156,16.470949172973633,0.092498779296875,98.21497344970703,,,,-0.0166778564453125,-0.99334716796875,-0.0812530517578125,-0.15797126293182373,0.0673564001917839,0.07901652157306671,-28.529296875,-117.31195068359375,-306.60504150390625,0.025106998160481453,0.016710281372070312,0.010119207203388214,1.505917087540382,-0.30389175363601423,0.34113964907009325,-0.019400207325816154,-0.9978960752487183,-0.061861809343099594,-0.010104307904839516,0.0006490116938948631,0.013645099475979805,Walking,,,,,,,
6009,Magnetometer,,,,188.84486389160156,16.470949172973633,0.092498779296875,98.21497344970703,,,,-0.0166778564453125,-0.99334716796875,-0.0812530517578125,-0.15797126293182373,0.0673564001917839,0.07901652157306671,-27.314208984375,-117.14846801757812,-308.80706787109375,0.025106998160481453,0.016710281372070312,0.010119207203388214,1.505917087540382,-0.30389175363601423,0.34113964907009325,-0.019400207325816154,-0.9978960752487183,-0.061861809343099594,-0.010104307904839516,0.0006490116938948631,0.013645099475979805,Walking,,,,,,,
6043,Gyrometer,,,,188.84486389160156,16.470949172973633,0.092498779296875,98.21497344970703,,,,-0.0166778564453125,-0.99334716796875,-0.0812530517578125,0.11921853572130203,-0.05415697768330574,-0.04122599959373474,-27.314208984375,-117.14846801757812,-308.80706787109375,0.025106998160481453,0.016710281372070312,0.010119207203388214,1.505917087540382,-0.30389175363601423,0.34113964907009325,-0.019400207325816154,-0.9978960752487183,-0.061861809343099594,-0.010104307904839516,0.0006490116938948631,0.013645099475979805,Walking,,,,,,,
6073,Altimeter,,,,188.84486389160156,16.470949172973633,0.134765625,98.21446990966797,,,,-0.0166778564453125,-0.99334716796875,-0.0812530517578125,0.11921853572130203,-0.05415697768330574,-0.04122599959373474,-27.314208984375,-117.14846801757812,-308.80706787109375,0.025106998160481453,0.016710281372070312,0.010119207203388214,1.505917087540382,-0.30389175363601423,0.34113964907009325,-0.019400207325816154,-0.9978960752487183,-0.061861809343099594,-0.010104307904839516,0.0006490116938948631,0.013645099475979805,Walking,,,,,,,
6102,COMPASS,,,,189.89346313476562,16.472124099731445,0.134765625,98.21446990966797,,,,-0.0166778564453125,-0.99334716796875,-0.0812530517578125,0.11921853572130203,-0.05415697768330574,-0.04122599959373474,-27.314208984375,-117.14846801757812,-308.80706787109375,0.025106998160481453,0.016710281372070312,0.010119207203388214,1.505917087540382,-0.30389175363601423,0.34113964907009325,-0.019400207325816154,-0.9978960752487183,-0.061861809343099594,-0.010104307904839516,0.0006490116938948631,0.013645099475979805,Walking,,,,,,,
6130,Accelerometer,,,,189.89346313476562,16.472124099731445,0.134765625,98.21446990966797,,,,0.0104827880859375,-1.050384521484375,-0.010986328125,0.11921853572130203,-0.05415697768330574,-0.04122599959373474,-27.314208984375,-117.14846801757812,-308.80706787109375,0.025106998160481453,0.016710281372070312,0.010119207203388214,1.505917087540382,-0.30389175363601423,0.34113964907009325,-0.019400207325816154,-0.9978960752487183,-0.061861809343099594,-0.010104307904839516,0.0006490116938948631,0.013645099475979805,Walking,,,,,,,
6158,Device Motion,,,,189.89346313476562,16.472124099731445,0.134765625,98.21446990966797,,,,0.0104827880859375,-1.050384521484375,-0.010986328125,0.11921853572130203,-0.05415697768330574,-0.04122599959373474,-27.314208984375,-117.14846801757812,-308.80706787109375,0.018817635253071785,-0.0712098479270935,0.013300660997629166,1.519615898022204,-0.3120368663251907,0.32302024230702714,-0.015704838559031487,-0.9986905455589294,-0.04868587478995323,-0.12944413721561432,-0.1817275434732437,0.04213263466954231,Walking,,,,,,,
6288,COMPASS,,,,190.8974151611328,16.47347640991211,0.134765625,98.21446990966797,,,,0.0104827880859375,-1.050384521484375,-0.010986328125,0.11921853572130203,-0.05415697768330574,-0.04122599959373474,-27.314208984375,-117.14846801757812,-308.80706787109375,0.018817635253071785,-0.0712098479270935,0.013300660997629166,1.519615898022204,-0.3120368663251907,0.32302024230702714,-0.015704838559031487,-0.9986905455589294,-0.04868587478995323,-0.12944413721561432,-0.1817275434732437,0.04213263466954231,Walking,,,,,,,
