Timestamp (ms),Triggering Sensor,Latitude,Longitude,Altitude,Heading (degrees),Heading accuracy (degrees),Relative Altitude (m),Pressure (kPa),Speed (m/s),Speed Accuracy (m/s),Floor,Acceleration - X axis,Acceleration - Y axis,Acceleration - Z axis,Gyrometer - X axis,Gyrometer - Y axis,Gyrometer - Z axis,Magnetometer - X axis,Magnetometer - Y axis,Magnetometer - Z axis,User acceleration - X axis,User acceleration - Y axis,User acceleration - Z axis,Attitude Pitch,Attitude Roll,Attitude Yaw,Gravity - X axis,Gravity - Y axis,Gravity - Z axis,Rotation Rate - X axis,Rotation Rate - Y axis,Rotation Rate - Z axis,Activity Type,Number of Steps,Distance,Floors Ascended,Floors Descended,Current Pace,Current Cadence,Average Active Pace
10,Gyrometer,,,,,,,,,,,,,,-0.04259726032614708,0.051298074424266815,0.003163302782922983,,,,,,,,,,,,,,,,,,,,,,,
46,GPS,40.44379098485689,-79.94434550258487,289.8380889892578,,,,,-1.0,-1.0,N/A,,,,-0.04259726032614708,0.051298074424266815,0.003163302782922983,,,,,,,,,,,,,,,,,,,,,,,
74,GPS,40.44379098485689,-79.94434550258487,289.8380889892578,,,,,-1.0,-1.0,N/A,,,,-0.04259726032614708,0.051298074424266815,0.003163302782922983,,,,,,,,,,,,,,,,,,,,,,,
102,COMPASS,40.44379098485689,-79.94434550258487,289.8380889892578,148.85316467285156,15.491217613220215,,,-1.0,-1.0,N/A,,,,-0.04259726032614708,0.051298074424266815,0.003163302782922983,,,,,,,,,,,,,,,,,5,3.699999999953434,0,0,0.6844120621681213,1.913740158081055,0.7010135135223361
130,Accelerometer,40.44379098485689,-79.94434550258487,289.8380889892578,148.85316467285156,15.491217613220215,,,-1.0,-1.0,N/A,0.0252685546875,-0.98583984375,-0.2342681884765625,-0.04259726032614708,0.051298074424266815,0.003163302782922983,,,,,,,,,,,,,,,,,5,3.699999999953434,0,0,0.6844120621681213,1.913740158081055,0.7010135135223361
154,Accelerometer,40.44379098485689,-79.94434550258487,289.8380889892578,148.85316467285156,15.491217613220215,,,-1.0,-1.0,N/A,0.0252685546875,-0.98583984375,-0.2342681884765625,-0.04259726032614708,0.051298074424266815,0.003163302782922983,,,,,,,,,,,,,,,,,5,3.699999999953434,0,0,0.6844120621681213,1.913740158081055,0.7010135135223361
182,GPS,40.443916052880844,-79.94448516327576,289.8378715515137,148.85316467285156,15.491217613220215,,,-1.0,-1.0,N/A,0.0252685546875,-0.98583984375,-0.2342681884765625,-0.04259726032614708,0.051298074424266815,0.003163302782922983,,,,,,,,,,,,,,,,,5,3.699999999953434,0,0,0.6844120621681213,1.913740158081055,0.7010135135223361
212,GPS,40.44391427644042,-79.94448302663785,289.8378715515137,148.85316467285156,15.491217613220215,,,-1.0,-1.0,N/A,0.0252685546875,-0.98583984375,-0.2342681884765625,-0.04259726032614708,0.051298074424266815,0.003163302782922983,,,,,,,,,,,,,,,,,5,3.699999999953434,0,0,0.6844120621681213,1.913740158081055,0.7010135135223361
238,Magnetometer,40.44391427644042,-79.94448302663785,289.8378715515137,148.85316467285156,15.491217613220215,,,-1.0,-1.0,N/A,0.0252685546875,-0.98583984375,-0.2342681884765625,-0.04259726032614708,0.051298074424266815,0.003163302782922983,-48.9886474609375,-123.94229125976562,-306.08660888671875,,,,,,,,,,,,,,5,3.699999999953434,0,0,0.6844120621681213,1.913740158081055,0.7010135135223361
266,Activity Manager,40.44391427644042,-79.94448302663785,289.8378715515137,148.85316467285156,15.491217613220215,,,-1.0,-1.0,N/A,0.0252685546875,-0.98583984375,-0.2342681884765625,-0.04259726032614708,0.051298074424266815,0.003163302782922983,-48.9886474609375,-123.94229125976562,-306.08660888671875,,,,,,,,,,,,,Walking,5,3.699999999953434,0,0,0.6844120621681213,1.913740158081055,0.7010135135223361
296,Device Motion,40.44391427644042,-79.94448302663785,289.8378715515137,148.85316467285156,15.491217613220215,,,-1.0,-1.0,N/A,0.0252685546875,-0.98583984375,-0.2342681884765625,-0.04259726032614708,0.051298074424266815,0.003163302782922983,-48.9886474609375,-123.94229125976562,-306.08660888671875,0.01136714592576027,-0.010853230953216553,-0.007177203893661499,1.3233433506106282,0.13333939288301322,-0.10390345996378691,0.03256290778517723,-0.9695394039154053,-0.24276167154312134,-0.025303905829787254,-0.06203387305140495,0.025567036122083664,Walking,5,3.699999999953434,0,0,0.6844120621681213,1.913740158081055,0.7010135135223361
324,Gyrometer,40.44391427644042,-79.94448302663785,289.8378715515137,148.85316467285156,15.491217613220215,,,-1.0,-1.0,N/A,0.0252685546875,-0.98583984375,-0.2342681884765625,-0.1318669468164444,-0.15027578175067902,0.14880385994911194,-48.9886474609375,-123.94229125976562,-306.08660888671875,0.01136714592576027,-0.010853230953216553,-0.007177203893661499,1.3233433506106282,0.13333939288301322,-0.10390345996378691,0.03256290778517723,-0.9695394039154053,-0.24276167154312134,-0.025303905829787254,-0.06203387305140495,0.025567036122083664,Walking,5,3.699999999953434,0,0,0.6844120621681213,1.913740158081055,0.7010135135223361
352,Accelerometer,40.44391427644042,-79.94448302663785,289.8378715515137,148.85316467285156,15.491217613220215,,,-1.0,-1.0,N/A,-0.0215606689453125,-0.96240234375,-0.190582275390625,-0.1318669468164444,-0.15027578175067902,0.14880385994911194,-48.9886474609375,-123.94229125976562,-306.08660888671875,0.01136714592576027,-0.010853230953216553,-0.007177203893661499,1.3233433506106282,0.13333939288301322,-0.10390345996378691,0.03256290778517723,-0.9695394039154053,-0.24276167154312134,-0.025303905829787254,-0.06203387305140495,0.025567036122083664,Walking,5,3.699999999953434,0,0,0.6844120621681213,1.913740158081055,0.7010135135223361
381,Magnetometer,40.44391427644042,-79.94448302663785,289.8378715515137,148.85316467285156,15.491217613220215,,,-1.0,-1.0,N/A,-0.0215606689453125,-0.96240234375,-0.190582275390625,-0.1318669468164444,-0.15027578175067902,0.14880385994911194,-49.33149719238281,-123.85125732421875,-305.0152893066406,0.01136714592576027,-0.010853230953216553,-0.007177203893661499,1.3233433506106282,0.13333939288301322,-0.10390345996378691,0.03256290778517723,-0.9695394039154053,-0.24276167154312134,-0.025303905829787254,-0.06203387305140495,0.025567036122083664,Walking,5,3.699999999953434,0,0,0.6844120621681213,1.913740158081055,0.7010135135223361
408,Device Motion,40.44391427644042,-79.94448302663785,289.8378715515137,148.85316467285156,15.491217613220215,,,-1.0,-1.0,N/A,-0.0215606689453125,-0.96240234375,-0.190582275390625,-0.1318669468164444,-0.15027578175067902,0.14880385994911194,-49.33149719238281,-123.85125732421875,-305.0152893066406,-0.05911335349082947,0.05234575271606445,0.0490572452545166,1.3351966481580537,0.07826425737989215,-0.058768049322228726,0.01825030706822872,-0.9723745584487915,-0.23271197080612183,0.036402627825737,-0.001981371082365513,0.01074461080133915,Walking,5,3.699999999953434,0,0,0.6844120621681213,1.913740158081055,0.7010135135223361
604,Gyrometer,40.44391427644042,-79.94448302663785,289.8378715515137,148.85316467285156,15.491217613220215,,,-1.0,-1.0,N/A,-0.0215606689453125,-0.96240234375,-0.190582275390625,0.02052258513867855,-0.03007587604224682,-0.001517202821560204,-49.33149719238281,-123.85125732421875,-305.0152893066406,-0.05911335349082947,0.05234575271606445,0.0490572452545166,1.3351966481580537,0.07826425737989215,-0.058768049322228726,0.01825030706822872,-0.9723745584487915,-0.23271197080612183,0.036402627825737,-0.001981371082365513,0.01074461080133915,Walking,5,3.699999999953434,0,0,0.6844120621681213,1.913740158081055,0.7010135135223361
640,Accelerometer,40.44391427644042,-79.94448302663785,289.8378715515137,148.85316467285156,15.491217613220215,,,-1.0,-1.0,N/A,0.02679443359375,-0.979583740234375,-0.21014404296875,0.02052258513867855,-0.03007587604224682,-0.001517202821560204,-49.33149719238281,-123.85125732421875,-305.0152893066406,-0.05911335349082947,0.05234575271606445,0.0490572452545166,1.3351966481580537,0.07826425737989215,-0.058768049322228726,0.01825030706822872,-0.9723745584487915,-0.23271197080612183,0.036402627825737,-0.001981371082365513,0.01074461080133915,Walking,5,3.699999999953434,0,0,0.6844120621681213,1.913740158081055,0.7010135135223361
669,Magnetometer,40.44391427644042,-79.94448302663785,289.8378715515137,148.85316467285156,15.491217613220215,,,-1.0,-1.0,N/A,0.02679443359375,-0.979583740234375,-0.21014404296875,0.02052258513867855,-0.03007587604224682,-0.001517202821560204,-48.99369812011719,-124.06683349609375,-304.7034912109375,-0.05911335349082947,0.05234575271606445,0.0490572452545166,1.3351966481580537,0.07826425737989215,-0.058768049322228726,0.01825030706822872,-0.9723745584487915,-0.23271197080612183,0.036402627825737,-0.001981371082365513,0.01074461080133915,Walking,5,3.699999999953434,0,0,0.6844120621681213,1.913740158081055,0.7010135135223361
700,Device Motion,40.44391427644042,-79.94448302663785,289.8378715515137,148.85316467285156,15.491217613220215,,,-1.0,-1.0,N/A,0.02679443359375,-0.979583740234375,-0.21014404296875,0.02052258513867855,-0.03007587604224682,-0.001517202821560204,-48.99369812011719,-124.06683349609375,-304.7034912109375,-0.0009258091449737549,-0.00042122602462768555,0.02084672451019287,1.3329754659930348,0.11565594605555653,-0.1014017630653774,0.027186188846826553,-0.9718536734580994,-0.23401187360286713,0.016665609553456306,-0.031326774507761,0.0023117917589843273,Walking,5,3.699999999953434,0,0,0.6844120621681213,1.913740158081055,0.7010135135223361
748,COMPASS,40.44391427644042,-79.94448302663785,289.8378715515137,149.8583221435547,15.486860275268555,,,-1.0,-1.0,N/A,0.02679443359375,-0.979583740234375,-0.21014404296875,0.02052258513867855,-0.03007587604224682,-0.001517202821560204,-48.99369812011719,-124.06683349609375,-304.7034912109375,-0.0009258091449737549,-0.00042122602462768555,0.02084672451019287,1.3329754659930348,0.11565594605555653,-0.1014017630653774,0.027186188846826553,-0.9718536734580994,-0.23401187360286713,0.016665609553456306,-0.031326774507761,0.0023117917589843273,Walking,5,3.699999999953434,0,0,0.6844120621681213,1.913740158081055,0.7010135135223361
905,Gyrometer,40.44391427644042,-79.94448302663785,289.8378715515137,149.8583221435547,15.486860275268555,,,-1.0,-1.0,N/A,0.02679443359375,-0.979583740234375,-0.21014404296875,0.00011185276525793597,-0.023496005684137344,0.11210709810256958,-48.99369812011719,-124.06683349609375,-304.7034912109375,-0.0009258091449737549,-0.00042122602462768555,0.02084672451019287,1.3329754659930348,0.11565594605555653,-0.1014017630653774,0.027186188846826553,-0.9718536734580994,-0.23401187360286713,0.016665609553456306,-0.031326774507761,0.0023117917589843273,Walking,5,3.699999999953434,0,0,0.6844120621681213,1.913740158081055,0.7010135135223361
943,Magnetometer,40.44391427644042,-79.94448302663785,289.8378715515137,149.8583221435547,15.486860275268555,,,-1.0,-1.0,N/A,0.02679443359375,-0.979583740234375,-0.21014404296875,0.00011185276525793597,-0.023496005684137344,0.11210709810256958,-48.56434631347656,-124.04074096679688,-304.9264831542969,-0.0009258091449737549,-0.00042122602462768555,0.02084672451019287,1.3329754659930348,0.11565594605555653,-0.1014017630653774,0.027186188846826553,-0.9718536734580994,-0.23401187360286713,0.016665609553456306,-0.031326774507761,0.0023117917589843273,Walking,5,3.699999999953434,0,0,0.6844120621681213,1.913740158081055,0.7010135135223361
972,Accelerometer,40.44391427644042,-79.94448302663785,289.8378715515137,149.8583221435547,15.486860275268555,,,-1.0,-1.0,N/A,0.035919189453125,-0.982666015625,-0.232330322265625,0.00011185276525793597,-0.023496005684137344,0.11210709810256958,-48.56434631347656,-124.04074096679688,-304.9264831542969,-0.0009258091449737549,-0.00042122602462768555,0.02084672451019287,1.3329754659930348,0.11565594605555653,-0.1014017630653774,0.027186188846826553,-0.9718536734580994,-0.23401187360286713,0.016665609553456306,-0.031326774507761,0.0023117917589843273,Walking,5,3.699999999953434,0,0,0.6844120621681213,1.913740158081055,0.7010135135223361
1002,Device Motion,40.44391427644042,-79.94448302663785,289.8378715515137,149.8583221435547,15.486860275268555,,,-1.0,-1.0,N/A,0.035919189453125,-0.982666015625,-0.232330322265625,0.00011185276525793597,-0.023496005684137344,0.11210709810256958,-48.56434631347656,-124.04074096679688,-304.9264831542969,0.01630350947380066,0.002807438373565674,0.01831674575805664,1.3313352931932116,0.07892578932464503,-0.08289207333621078,0.018700141459703445,-0.9714659452438354,-0.23644104599952698,-0.004012454301118851,-0.03844231739640236,0.09277364611625671,Walking,5,3.699999999953434,0,0,0.6844120621681213,1.913740158081055,0.7010135135223361
1041,Altimeter,40.44391427644042,-79.94448302663785,289.8378715515137,149.8583221435547,15.486860275268555,0,98.07823944091797,-1.0,-1.0,N/A,0.035919189453125,-0.982666015625,-0.232330322265625,0.00011185276525793597,-0.023496005684137344,0.11210709810256958,-48.56434631347656,-124.04074096679688,-304.9264831542969,0.01630350947380066,0.002807438373565674,0.01831674575805664,1.3313352931932116,0.07892578932464503,-0.08289207333621078,0.018700141459703445,-0.9714659452438354,-0.23644104599952698,-0.004012454301118851,-0.03844231739640236,0.09277364611625671,Walking,5,3.699999999953434,0,0,0.6844120621681213,1.913740158081055,0.7010135135223361
1205,Gyrometer,40.44391427644042,-79.94448302663785,289.8378715515137,149.8583221435547,15.486860275268555,0,98.07823944091797,-1.0,-1.0,N/A,0.035919189453125,-0.982666015625,-0.232330322265625,0.12438054382801056,0.07061851024627686,-0.014754178933799267,-48.56434631347656,-124.04074096679688,-304.9264831542969,0.01630350947380066,0.002807438373565674,0.01831674575805664,1.3313352931932116,0.07892578932464503,-0.08289207333621078,0.018700141459703445,-0.9714659452438354,-0.23644104599952698,-0.004012454301118851,-0.03844231739640236,0.09277364611625671,Walking,5,3.699999999953434,0,0,0.6844120621681213,1.913740158081055,0.7010135135223361
1241,Magnetometer,40.44391427644042,-79.94448302663785,289.8378715515137,149.8583221435547,15.486860275268555,0,98.07823944091797,-1.0,-1.0,N/A,0.035919189453125,-0.982666015625,-0.232330322265625,0.12438054382801056,0.07061851024627686,-0.014754178933799267,-49.61830139160156,-123.60054016113281,-304.37298583984375,0.01630350947380066,0.002807438373565674,0.01831674575805664,1.3313352931932116,0.07892578932464503,-0.08289207333621078,0.018700141459703445,-0.9714659452438354,-0.23644104599952698,-0.004012454301118851,-0.03844231739640236,0.09277364611625671,Walking,5,3.699999999953434,0,0,0.6844120621681213,1.913740158081055,0.7010135135223361
1274,COMPASS,40.44391427644042,-79.94448302663785,289.8378715515137,148.84461975097656,15.485089302062988,0,98.07823944091797,-1.0,-1.0,N/A,0.035919189453125,-0.982666015625,-0.232330322265625,0.12438054382801056,0.07061851024627686,-0.014754178933799267,-49.61830139160156,-123.60054016113281,-304.37298583984375,0.01630350947380066,0.002807438373565674,0.01831674575805664,1.3313352931932116,0.07892578932464503,-0.08289207333621078,0.018700141459703445,-0.9714659452438354,-0.23644104599952698,-0.004012454301118851,-0.03844231739640236,0.09277364611625671,Walking,5,3.699999999953434,0,0,0.6844120621681213,1.913740158081055,0.7010135135223361
1305,Accelerometer,40.44391427644042,-79.94448302663785,289.8378715515137,148.84461975097656,15.485089302062988,0,98.07823944091797,-1.0,-1.0,N/A,-0.0084991455078125,-1.0119476318359375,-0.1794281005859375,0.12438054382801056,0.07061851024627686,-0.014754178933799267,-49.61830139160156,-123.60054016113281,-304.37298583984375,0.01630350947380066,0.002807438373565674,0.01831674575805664,1.3313352931932116,0.07892578932464503,-0.08289207333621078,0.018700141459703445,-0.9714659452438354,-0.23644104599952698,-0.004012454301118851,-0.03844231739640236,0.09277364611625671,Walking,5,3.699999999953434,0,0,0.6844120621681213,1.913740158081055,0.7010135135223361
1332,Device Motion,40.44391427644042,-79.94448302663785,289.8378715515137,148.84461975097656,15.485089302062988,0,98.07823944091797,-1.0,-1.0,N/A,-0.0084991455078125,-1.0119476318359375,-0.1794281005859375,0.12438054382801056,0.07061851024627686,-0.014754178933799267,-49.61830139160156,-123.60054016113281,-304.37298583984375,-0.03126177564263344,-0.023584187030792236,0.039209768176078796,1.354958092970822,0.09474201450451239,-0.07819995547488566,0.02026018314063549,-0.9767972230911255,-0.21320560574531555,-0.01230604574084282,0.08383530378341675,0.07479240745306015,Walking,5,3.699999999953434,0,0,0.6844120621681213,1.913740158081055,0.7010135135223361
1506,Gyrometer,40.44391427644042,-79.94448302663785,289.8378715515137,148.84461975097656,15.485089302062988,0,98.07823944091797,-1.0,-1.0,N/A,-0.0084991455078125,-1.0119476318359375,-0.1794281005859375,-0.0951443612575531,-0.04496081545948982,0.008039284497499466,-49.61830139160156,-123.60054016113281,-304.37298583984375,-0.03126177564263344,-0.023584187030792236,0.039209768176078796,1.354958092970822,0.09474201450451239,-0.07819995547488566,0.02026018314063549,-0.9767972230911255,-0.21320560574531555,-0.01230604574084282,0.08383530378341675,0.07479240745306015,Walking,5,3.699999999953434,0,0,0.6844120621681213,1.913740158081055,0.7010135135223361
1540,Magnetometer,40.44391427644042,-79.94448302663785,289.8378715515137,148.84461975097656,15.485089302062988,0,98.07823944091797,-1.0,-1.0,N/A,-0.0084991455078125,-1.0119476318359375,-0.1794281005859375,-0.0951443612575531,-0.04496081545948982,0.008039284497499466,-49.78440856933594,-123.56321716308594,-305.50689697265625,-0.03126177564263344,-0.023584187030792236,0.039209768176078796,1.354958092970822,0.09474201450451239,-0.07819995547488566,0.02026018314063549,-0.9767972230911255,-0.21320560574531555,-0.01230604574084282,0.08383530378341675,0.07479240745306015,Walking,5,3.699999999953434,0,0,0.6844120621681213,1.913740158081055,0.7010135135223361
1571,Accelerometer,40.44391427644042,-79.94448302663785,289.8378715515137,148.84461975097656,15.485089302062988,0,98.07823944091797,-1.0,-1.0,N/A,-0.0089111328125,-0.9631500244140625,-0.19854736328125,-0.0951443612575531,-0.04496081545948982,0.008039284497499466,-49.78440856933594,-123.56321716308594,-305.50689697265625,-0.03126177564263344,-0.023584187030792236,0.039209768176078796,1.354958092970822,0.09474201450451239,-0.07819995547488566,0.02026018314063549,-0.9767972230911255,-0.21320560574531555,-0.01230604574084282,0.08383530378341675,0.07479240745306015,Walking,5,3.699999999953434,0,0,0.6844120621681213,1.913740158081055,0.7010135135223361
1599,Device Motion,40.44391427644042,-79.94448302663785,289.8378715515137,148.84461975097656,15.485089302062988,0,98.07823944091797,-1.0,-1.0,N/A,-0.0089111328125,-0.9631500244140625,-0.19854736328125,-0.0951443612575531,-0.04496081545948982,0.008039284497499466,-49.78440856933594,-123.56321716308594,-305.50689697265625,-0.02839168906211853,0.003946185111999512,0.04681426286697388,1.3373692301356561,0.06116725122937483,-0.03911051889177078,0.014139989390969276,-0.9728793501853943,-0.23088090121746063,-0.09326545894145966,-0.04631846025586128,-0.009315025061368942,Walking,5,3.699999999953434,0,0,0.6844120621681213,1.913740158081055,0.7010135135223361
1628,COMPASS,40.44391427644042,-79.94448302663785,289.8378715515137,147.80615234375,15.485450744628906,0,98.07823944091797,-1.0,-1.0,N/A,-0.0089111328125,-0.9631500244140625,-0.19854736328125,-0.0951443612575531,-0.04496081545948982,0.008039284497499466,-49.78440856933594,-123.56321716308594,-305.50689697265625,-0.02839168906211853,0.003946185111999512,0.04681426286697388,1.3373692301356561,0.06116725122937483,-0.03911051889177078,0.014139989390969276,-0.9728793501853943,-0.23088090121746063,-0.09326545894145966,-0.04631846025586128,-0.009315025061368942,Walking,5,3.699999999953434,0,0,0.6844120621681213,1.913740158081055,0.7010135135223361
1786,COMPASS,40.44391427644042,-79.94448302663785,289.8378715515137,146.8011016845703,15.4851713180542,0,98.07823944091797,-1.0,-1.0,N/A,-0.0089111328125,-0.9631500244140625,-0.19854736328125,-0.0951443612575531,-0.04496081545948982,0.008039284497499466,-49.78440856933594,-123.56321716308594,-305.50689697265625,-0.02839168906211853,0.003946185111999512,0.04681426286697388,1.3373692301356561,0.06116725122937483,-0.03911051889177078,0.014139989390969276,-0.9728793501853943,-0.23088090121746063,-0.09326545894145966,-0.04631846025586128,-0.009315025061368942,Walking,5,3.699999999953434,0,0,0.6844120621681213,1.913740158081055,0.7010135135223361
1819,Gyrometer,40.44391427644042,-79.94448302663785,289.8378715515137,146.8011016845703,15.4851713180542,0,98.07823944091797,-1.0,-1.0,N/A,-0.0089111328125,-0.9631500244140625,-0.19854736328125,-0.01714463159441948,-0.03488155081868172,0.03627518191933632,-49.78440856933594,-123.56321716308594,-305.50689697265625,-0.02839168906211853,0.003946185111999512,0.04681426286697388,1.3373692301356561,0.06116725122937483,-0.03911051889177078,0.014139989390969276,-0.9728793501853943,-0.23088090121746063,-0.09326545894145966,-0.04631846025586128,-0.009315025061368942,Walking,5,3.699999999953434,0,0,0.6844120621681213,1.913740158081055,0.7010135135223361
1850,Magnetometer,40.44391427644042,-79.94448302663785,289.8378715515137,146.8011016845703,15.4851713180542,0,98.07823944091797,-1.0,-1.0,N/A,-0.0089111328125,-0.9631500244140625,-0.19854736328125,-0.01714463159441948,-0.03488155081868172,0.03627518191933632,-50.45561218261719,-122.95787048339844,-308.638427734375,-0.02839168906211853,0.003946185111999512,0.04681426286697388,1.3373692301356561,0.06116725122937483,-0.03911051889177078,0.014139989390969276,-0.9728793501853943,-0.23088090121746063,-0.09326545894145966,-0.04631846025586128,-0.009315025061368942,Walking,5,3.699999999953434,0,0,0.6844120621681213,1.913740158081055,0.7010135135223361
1879,Accelerometer,40.44391427644042,-79.94448302663785,289.8378715515137,146.8011016845703,15.4851713180542,0,98.07823944091797,-1.0,-1.0,N/A,0.022613525390625,-0.9948272705078125,-0.226837158203125,-0.01714463159441948,-0.03488155081868172,0.03627518191933632,-50.45561218261719,-122.95787048339844,-308.638427734375,-0.02839168906211853,0.003946185111999512,0.04681426286697388,1.3373692301356561,0.06116725122937483,-0.03911051889177078,0.014139989390969276,-0.9728793501853943,-0.23088090121746063,-0.09326545894145966,-0.04631846025586128,-0.009315025061368942,Walking,5,3.699999999953434,0,0,0.6844120621681213,1.913740158081055,0.7010135135223361
1908,Device Motion,40.44391427644042,-79.94448302663785,289.8378715515137,146.8011016845703,15.4851713180542,0,98.07823944091797,-1.0,-1.0,N/A,0.022613525390625,-0.9948272705078125,-0.226837158203125,-0.01714463159441948,-0.03488155081868172,0.03627518191933632,-50.45561218261719,-122.95787048339844,-308.638427734375,0.02448868751525879,-0.026435673236846924,0.021340131759643555,1.3271586759329765,-0.00182735490973628,0.03729607248296688,-0.0004408214008435607,-0.9704668521881104,-0.2412344217300415,-0.04401276633143425,-0.027513252571225166,-0.009333639405667782,Walking,5,3.699999999953434,0,0,0.6844120621681213,1.913740158081055,0.7010135135223361
2039,Altimeter,40.44391427644042,-79.94448302663785,289.8378715515137,146.8011016845703,15.4851713180542,-0.029083251953125,98.07858276367188,-1.0,-1.0,N/A,0.022613525390625,-0.9948272705078125,-0.226837158203125,-0.01714463159441948,-0.03488155081868172,0.03627518191933632,-50.45561218261719,-122.95787048339844,-308.638427734375,0.02448868751525879,-0.026435673236846924,0.021340131759643555,1.3271586759329765,-0.00182735490973628,0.03729607248296688,-0.0004408214008435607,-0.9704668521881104,-0.2412344217300415,-0.04401276633143425,-0.027513252571225166,-0.009333639405667782,Walking,5,3.699999999953434,0,0,0.6844120621681213,1.913740158081055,0.7010135135223361
2106,Gyrometer,40.44391427644042,-79.94448302663785,289.8378715515137,146.8011016845703,15.4851713180542,-0.029083251953125,98.07858276367188,-1.0,-1.0,N/A,0.022613525390625,-0.9948272705078125,-0.226837158203125,0.18092504143714905,0.013086507096886635,0.023209182545542717,-50.45561218261719,-122.95787048339844,-308.638427734375,0.02448868751525879,-0.026435673236846924,0.021340131759643555,1.3271586759329765,-0.00182735490973628,0.03729607248296688,-0.0004408214008435607,-0.9704668521881104,-0.2412344217300415,-0.04401276633143425,-0.027513252571225166,-0.009333639405667782,Walking,5,3.699999999953434,0,0,0.6844120621681213,1.913740158081055,0.7010135135223361
2141,Magnetometer,40.44391427644042,-79.94448302663785,289.8378715515137,146.8011016845703,15.4851713180542,-0.029083251953125,98.07858276367188,-1.0,-1.0,N/A,0.022613525390625,-0.9948272705078125,-0.226837158203125,0.18092504143714905,0.013086507096886635,0.023209182545542717,-49.4818115234375,-123.40672302246094,-309.12225341796875,0.02448868751525879,-0.026435673236846924,0.021340131759643555,1.3271586759329765,-0.00182735490973628,0.03729607248296688,-0.0004408214008435607,-0.9704668521881104,-0.2412344217300415,-0.04401276633143425,-0.027513252571225166,-0.009333639405667782,Walking,5,3.699999999953434,0,0,0.6844120621681213,1.913740158081055,0.7010135135223361
2172,Accelerometer,40.44391427644042,-79.94448302663785,289.8378715515137,146.8011016845703,15.4851713180542,-0.029083251953125,98.07858276367188,-1.0,-1.0,N/A,0.02044677734375,-0.99163818359375,-0.11151123046875,0.18092504143714905,0.013086507096886635,0.023209182545542717,-49.4818115234375,-123.40672302246094,-309.12225341796875,0.02448868751525879,-0.026435673236846924,0.021340131759643555,1.3271586759329765,-0.00182735490973628,0.03729607248296688,-0.0004408214008435607,-0.9704668521881104,-0.2412344217300415,-0.04401276633143425,-0.027513252571225166,-0.009333639405667782,Walking,5,3.699999999953434,0,0,0.6844120621681213,1.913740158081055,0.7010135135223361
2197,Device Motion,40.44391427644042,-79.94448302663785,289.8378715515137,146.8011016845703,15.4851713180542,-0.029083251953125,98.07858276367188,-1.0,-1.0,N/A,0.02044677734375,-0.99163818359375,-0.11151123046875,0.18092504143714905,0.013086507096886635,0.023209182545542717,-49.4818115234375,-123.40672302246094,-309.12225341796875,0.01059684157371521,-0.019751667976379395,0.11849451065063477,1.3396183981530578,0.031073855618363348,0.009575723103822245,0.007118633482605219,-0.9733971953392029,-0.2290138155221939,0.0862608402967453,-0.017040561884641647,0.014858719892799854,Walking,5,3.699999999953434,0,0,0.6844120621681213,1.913740158081055,0.7010135135223361
2347,COMPASS,40.44391427644042,-79.94448302663785,289.8378715515137,147.86944580078125,15.489115715026855,-0.029083251953125,98.07858276367188,-1.0,-1.0,N/A,0.02044677734375,-0.99163818359375,-0.11151123046875,0.18092504143714905,0.013086507096886635,0.023209182545542717,-49.4818115234375,-123.40672302246094,-309.12225341796875,0.01059684157371521,-0.019751667976379395,0.11849451065063477,1.3396183981530578,0.031073855618363348,0.009575723103822245,0.007118633482605219,-0.9733971953392029,-0.2290138155221939,0.0862608402967453,-0.017040561884641647,0.014858719892799854,Walking,5,3.699999999953434,0,0,0.6844120621681213,1.913740158081055,0.7010135135223361
2384,COMPASS,40.44391427644042,-79.94448302663785,289.8378715515137,149.1418914794922,15.489811897277832,-0.029083251953125,98.07858276367188,-1.0,-1.0,N/A,0.02044677734375,-0.99163818359375,-0.11151123046875,0.18092504143714905,0.013086507096886635,0.023209182545542717,-49.4818115234375,-123.40672302246094,-309.12225341796875,0.01059684157371521,-0.019751667976379395,0.11849451065063477,1.3396183981530578,0.031073855618363348,0.009575723103822245,0.007118633482605219,-0.9733971953392029,-0.2290138155221939,0.0862608402967453,-0.017040561884641647,0.014858719892799854,Walking,5,3.699999999953434,0,0,0.6844120621681213,1.913740158081055,0.7010135135223361
2409,Gyrometer,40.44391427644042,-79.94448302663785,289.8378715515137,149.1418914794922,15.489811897277832,-0.029083251953125,98.07858276367188,-1.0,-1.0,N/A,0.02044677734375,-0.99163818359375,-0.11151123046875,0.14529886841773987,-0.20340265333652496,-0.2547478675842285,-49.4818115234375,-123.40672302246094,-309.12225341796875,0.01059684157371521,-0.019751667976379395,0.11849451065063477,1.3396183981530578,0.031073855618363348,0.009575723103822245,0.007118633482605219,-0.9733971953392029,-0.2290138155221939,0.0862608402967453,-0.017040561884641647,0.014858719892799854,Walking,5,3.699999999953434,0,0,0.6844120621681213,1.913740158081055,0.7010135135223361
2435,COMPASS,40.44391427644042,-79.94448302663785,289.8378715515137,150.18951416015625,15.490513801574707,-0.029083251953125,98.07858276367188,-1.0,-1.0,N/A,0.02044677734375,-0.99163818359375,-0.11151123046875,0.14529886841773987,-0.20340265333652496,-0.2547478675842285,-49.4818115234375,-123.40672302246094,-309.12225341796875,0.01059684157371521,-0.019751667976379395,0.11849451065063477,1.3396183981530578,0.031073855618363348,0.009575723103822245,0.007118633482605219,-0.9733971953392029,-0.2290138155221939,0.0862608402967453,-0.017040561884641647,0.014858719892799854,Walking,5,3.699999999953434,0,0,0.6844120621681213,1.913740158081055,0.7010135135223361
2462,Magnetometer,40.44391427644042,-79.94448302663785,289.8378715515137,150.18951416015625,15.490513801574707,-0.029083251953125,98.07858276367188,-1.0,-1.0,N/A,0.02044677734375,-0.99163818359375,-0.11151123046875,0.14529886841773987,-0.20340265333652496,-0.2547478675842285,-46.565643310546875,-125.2076416015625,-310.9765625,0.01059684157371521,-0.019751667976379395,0.11849451065063477,1.3396183981530578,0.031073855618363348,0.009575723103822245,0.007118633482605219,-0.9733971953392029,-0.2290138155221939,0.0862608402967453,-0.017040561884641647,0.014858719892799854,Walking,5,3.699999999953434,0,0,0.6844120621681213,1.913740158081055,0.7010135135223361
2486,COMPASS,40.44391427644042,-79.94448302663785,289.8378715515137,151.333984375,15.491562843322754,-0.029083251953125,98.07858276367188,-1.0,-1.0,N/A,0.02044677734375,-0.99163818359375,-0.11151123046875,0.14529886841773987,-0.20340265333652496,-0.2547478675842285,-46.565643310546875,-125.2076416015625,-310.9765625,0.01059684157371521,-0.019751667976379395,0.11849451065063477,1.3396183981530578,0.031073855618363348,0.009575723103822245,0.007118633482605219,-0.9733971953392029,-0.2290138155221939,0.0862608402967453,-0.017040561884641647,0.014858719892799854,Walking,5,3.699999999953434,0,0,0.6844120621681213,1.913740158081055,0.7010135135223361
2496,Accelerometer,40.44391427644042,-79.94448302663785,289.8378715515137,151.333984375,15.491562843322754,-0.029083251953125,98.07858276367188,-1.0,-1.0,N/A,0.07342529296875,-1.046722412109375,-0.218963623046875,0.14529886841773987,-0.20340265333652496,-0.2547478675842285,-46.565643310546875,-125.2076416015625,-310.9765625,0.01059684157371521,-0.019751667976379395,0.11849451065063477,1.3396183981530578,0.031073855618363348,0.009575723103822245,0.007118633482605219,-0.9733971953392029,-0.2290138155221939,0.0862608402967453,-0.017040561884641647,0.014858719892799854,Walking,5,3.699999999953434,0,0,0.6844120621681213,1.913740158081055,0.7010135135223361
2521,Device Motion,40.44391427644042,-79.94448302663785,289.8378715515137,151.333984375,15.491562843322754,-0.029083251953125,98.07858276367188,-1.0,-1.0,N/A,0.07342529296875,-1.046722412109375,-0.218963623046875,0.14529886841773987,-0.20340265333652496,-0.2547478675842285,-46.565643310546875,-125.2076416015625,-310.9765625,0.047443926334381104,-0.07235991954803467,0.00451524555683136,1.3438699226908504,0.11573927770325887,-0.11752063818019155,0.02598138526082039,-0.9743624925613403,-0.2234787493944168,0.07776782661676407,-0.24234464764595032,-0.20855876803398132,Walking,5,3.699999999953434,0,0,0.6844120621681213,1.913740158081055,0.7010135135223361
2584,COMPASS,40.44391427644042,-79.94448302663785,289.8378715515137,152.51626586914062,15.493232727050781,-0.029083251953125,98.07858276367188,-1.0,-1.0,N/A,0.07342529296875,-1.046722412109375,-0.218963623046875,0.14529886841773987,-0.20340265333652496,-0.2547478675842285,-46.565643310546875,-125.2076416015625,-310.9765625,0.047443926334381104,-0.07235991954803467,0.00451524555683136,1.3438699226908504,0.11573927770325887,-0.11752063818019155,0.02598138526082039,-0.9743624925613403,-0.2234787493944168,0.07776782661676407,-0.24234464764595032,-0.20855876803398132,Walking,5,3.699999999953434,0,0,0.6844120621681213,1.913740158081055,0.7010135135223361
2616,Pedometer,40.44391427644042,-79.94448302663785,289.8378715515137,152.51626586914062,15.493232727050781,-0.029083251953125,98.07858276367188,-1.0,-1.0,N/A,0.07342529296875,-1.046722412109375,-0.218963623046875,0.14529886841773987,-0.20340265333652496,-0.2547478675842285,-46.565643310546875,-125.2076416015625,-310.9765625,0.047443926334381104,-0.07235991954803467,0.00451524555683136,1.3438699226908504,0.11573927770325887,-0.11752063818019155,0.02598138526082039,-0.9743624925613403,-0.2234787493944168,0.07776782661676407,-0.24234464764595032,-0.20855876803398132,Walking,9,6.57999999995809,0,0,0.6947193145751953,1.928460955619812,0.706449468089606
2707,Gyrometer,40.44391427644042,-79.94448302663785,289.8378715515137,152.51626586914062,15.493232727050781,-0.029083251953125,98.07858276367188,-1.0,-1.0,N/A,0.07342529296875,-1.046722412109375,-0.218963623046875,-0.21660873293876648,-0.11017124354839325,-0.021509552374482155,-46.565643310546875,-125.2076416015625,-310.9765625,0.047443926334381104,-0.07235991954803467,0.00451524555683136,1.3438699226908504,0.11573927770325887,-0.11752063818019155,0.02598138526082039,-0.9743624925613403,-0.2234787493944168,0.07776782661676407,-0.24234464764595032,-0.20855876803398132,Walking,9,6.57999999995809,0,0,0.6947193145751953,1.928460955619812,0.706449468089606
2740,Magnetometer,40.44391427644042,-79.94448302663785,289.8378715515137,152.51626586914062,15.493232727050781,-0.029083251953125,98.07858276367188,-1.0,-1.0,N/A,0.07342529296875,-1.046722412109375,-0.218963623046875,-0.21660873293876648,-0.11017124354839325,-0.021509552374482155,-42.907989501953125,-127.3592529296875,-313.40814208984375,0.047443926334381104,-0.07235991954803467,0.00451524555683136,1.3438699226908504,0.11573927770325887,-0.11752063818019155,0.02598138526082039,-0.9743624925613403,-0.2234787493944168,0.07776782661676407,-0.24234464764595032,-0.20855876803398132,Walking,9,6.57999999995809,0,0,0.6947193145751953,1.928460955619812,0.706449468089606
2769,Device Motion,40.44391427644042,-79.94448302663785,289.8378715515137,152.51626586914062,15.493232727050781,-0.029083251953125,98.07858276367188,-1.0,-1.0,N/A,0.07342529296875,-1.046722412109375,-0.218963623046875,-0.21660873293876648,-0.11017124354839325,-0.021509552374482155,-42.907989501953125,-127.3592529296875,-313.40814208984375,-0.02835819125175476,0.08161360025405884,0.04565620422363281,1.317547476419704,0.16792987906415924,-0.18764546264903267,0.04187750443816185,-0.9681035280227661,-0.24702636897563934,-0.19485649466514587,-0.10614880174398422,-0.06343606114387512,Walking,9,6.57999999995809,0,0,0.6947193145751953,1.928460955619812,0.706449468089606
2797,Accelerometer,40.44391427644042,-79.94448302663785,289.8378715515137,152.51626586914062,15.493232727050781,-0.029083251953125,98.07858276367188,-1.0,-1.0,N/A,0.0126800537109375,-0.89154052734375,-0.1981201171875,-0.21660873293876648,-0.11017124354839325,-0.021509552374482155,-42.907989501953125,-127.3592529296875,-313.40814208984375,-0.02835819125175476,0.08161360025405884,0.04565620422363281,1.317547476419704,0.16792987906415924,-0.18764546264903267,0.04187750443816185,-0.9681035280227661,-0.24702636897563934,-0.19485649466514587,-0.10614880174398422,-0.06343606114387512,Walking,9,6.57999999995809,0,0,0.6947193145751953,1.928460955619812,0.706449468089606
2843,COMPASS,40.44391427644042,-79.94448302663785,289.8378715515137,151.5077362060547,15.4974365234375,-0.029083251953125,98.07858276367188,-1.0,-1.0,N/A,0.0126800537109375,-0.89154052734375,-0.1981201171875,-0.21660873293876648,-0.11017124354839325,-0.021509552374482155,-42.907989501953125,-127.3592529296875,-313.40814208984375,-0.02835819125175476,0.08161360025405884,0.04565620422363281,1.317547476419704,0.16792987906415924,-0.18764546264903267,0.04187750443816185,-0.9681035280227661,-0.24702636897563934,-0.19485649466514587,-0.10614880174398422,-0.06343606114387512,Walking,9,6.57999999995809,0,0,0.6947193145751953,1.928460955619812,0.706449468089606
3007,Gyrometer,40.44391427644042,-79.94448302663785,289.8378715515137,151.5077362060547,15.4974365234375,-0.029083251953125,98.07858276367188,-1.0,-1.0,N/A,0.0126800537109375,-0.89154052734375,-0.1981201171875,-0.11727362871170044,0.17670126259326935,0.08333883434534073,-42.907989501953125,-127.3592529296875,-313.40814208984375,-0.02835819125175476,0.08161360025405884,0.04565620422363281,1.317547476419704,0.16792987906415924,-0.18764546264903267,0.04187750443816185,-0.9681035280227661,-0.24702636897563934,-0.19485649466514587,-0.10614880174398422,-0.06343606114387512,Walking,9,6.57999999995809,0,0,0.6947193145751953,1.928460955619812,0.706449468089606
3039,COMPASS,40.44391427644042,-79.94448302663785,289.8378715515137,150.42164611816406,15.500162124633789,-0.029083251953125,98.07858276367188,-1.0,-1.0,N/A,0.0126800537109375,-0.89154052734375,-0.1981201171875,-0.11727362871170044,0.17670126259326935,0.08333883434534073,-42.907989501953125,-127.3592529296875,-313.40814208984375,-0.02835819125175476,0.08161360025405884,0.04565620422363281,1.317547476419704,0.16792987906415924,-0.18764546264903267,0.04187750443816185,-0.9681035280227661,-0.24702636897563934,-0.19485649466514587,-0.10614880174398422,-0.06343606114387512,Walking,9,6.57999999995809,0,0,0.6947193145751953,1.928460955619812,0.706449468089606
3069,Magnetometer,40.44391427644042,-79.94448302663785,289.8378715515137,150.42164611816406,15.500162124633789,-0.029083251953125,98.07858276367188,-1.0,-1.0,N/A,0.0126800537109375,-0.89154052734375,-0.1981201171875,-0.11727362871170044,0.17670126259326935,0.08333883434534073,-41.444091796875,-129.216064453125,-313.92425537109375,-0.02835819125175476,0.08161360025405884,0.04565620422363281,1.317547476419704,0.16792987906415924,-0.18764546264903267,0.04187750443816185,-0.9681035280227661,-0.24702636897563934,-0.19485649466514587,-0.10614880174398422,-0.06343606114387512,Walking,9,6.57999999995809,0,0,0.6947193145751953,1.928460955619812,0.706449468089606
3082,Device Motion,40.44391427644042,-79.94448302663785,289.8378715515137,150.42164611816406,15.500162124633789,-0.029083251953125,98.07858276367188,-1.0,-1.0,N/A,0.0126800537109375,-0.89154052734375,-0.1981201171875,-0.11727362871170044,0.17670126259326935,0.08333883434534073,-41.444091796875,-129.216064453125,-313.92425537109375,-0.040438681840896606,-0.13536900281906128,-0.03685486316680908,1.3328498823876314,0.15266955202391452,-0.14646902297044542,0.03584577515721321,-0.971824049949646,-0.23296618461608887,-0.10665333271026611,0.12187986820936203,0.11072101444005966,Walking,9,6.57999999995809,0,0,0.6947193145751953,1.928460955619812,0.706449468089606
3108,Accelerometer,40.44391427644042,-79.94448302663785,289.8378715515137,150.42164611816406,15.500162124633789,-0.029083251953125,98.07858276367188,-1.0,-1.0,N/A,-0.0015411376953125,-1.1000518798828125,-0.279266357421875,-0.11727362871170044,0.17670126259326935,0.08333883434534073,-41.444091796875,-129.216064453125,-313.92425537109375,-0.040438681840896606,-0.13536900281906128,-0.03685486316680908,1.3328498823876314,0.15266955202391452,-0.14646902297044542,0.03584577515721321,-0.971824049949646,-0.23296618461608887,-0.10665333271026611,0.12187986820936203,0.11072101444005966,Walking,9,6.57999999995809,0,0,0.6947193145751953,1.928460955619812,0.706449468089606
3134,COMPASS,40.44391427644042,-79.94448302663785,289.8378715515137,149.35218811035156,15.501862525939941,-0.029083251953125,98.07858276367188,-1.0,-1.0,N/A,-0.0015411376953125,-1.1000518798828125,-0.279266357421875,-0.11727362871170044,0.17670126259326935,0.08333883434534073,-41.444091796875,-129.216064453125,-313.92425537109375,-0.040438681840896606,-0.13536900281906128,-0.03685486316680908,1.3328498823876314,0.15266955202391452,-0.14646902297044542,0.03584577515721321,-0.971824049949646,-0.23296618461608887,-0.10665333271026611,0.12187986820936203,0.11072101444005966,Walking,9,6.57999999995809,0,0,0.6947193145751953,1.928460955619812,0.706449468089606
3159,Altimeter,40.44391427644042,-79.94448302663785,289.8378715515137,149.35218811035156,15.501862525939941,-0.058135986328125,98.07892608642578,-1.0,-1.0,N/A,-0.0015411376953125,-1.1000518798828125,-0.279266357421875,-0.11727362871170044,0.17670126259326935,0.08333883434534073,-41.444091796875,-129.216064453125,-313.92425537109375,-0.040438681840896606,-0.13536900281906128,-0.03685486316680908,1.3328498823876314,0.15266955202391452,-0.14646902297044542,0.03584577515721321,-0.971824049949646,-0.23296618461608887,-0.10665333271026611,0.12187986820936203,0.11072101444005966,Walking,9,6.57999999995809,0,0,0.6947193145751953,1.928460955619812,0.706449468089606
3303,COMPASS,40.44391427644042,-79.94448302663785,289.8378715515137,147.91934204101562,15.504888534545898,-0.058135986328125,98.07892608642578,-1.0,-1.0,N/A,-0.0015411376953125,-1.1000518798828125,-0.279266357421875,-0.11727362871170044,0.17670126259326935,0.08333883434534073,-41.444091796875,-129.216064453125,-313.92425537109375,-0.040438681840896606,-0.13536900281906128,-0.03685486316680908,1.3328498823876314,0.15266955202391452,-0.14646902297044542,0.03584577515721321,-0.971824049949646,-0.23296618461608887,-0.10665333271026611,0.12187986820936203,0.11072101444005966,Walking,9,6.57999999995809,0,0,0.6947193145751953,1.928460955619812,0.706449468089606
3337,Gyrometer,40.44391427644042,-79.94448302663785,289.8378715515137,147.91934204101562,15.504888534545898,-0.058135986328125,98.07892608642578,-1.0,-1.0,N/A,-0.0015411376953125,-1.1000518798828125,-0.279266357421875,-0.12087049335241318,0.29230377078056335,0.1801133155822754,-41.444091796875,-129.216064453125,-313.92425537109375,-0.040438681840896606,-0.13536900281906128,-0.03685486316680908,1.3328498823876314,0.15266955202391452,-0.14646902297044542,0.03584577515721321,-0.971824049949646,-0.23296618461608887,-0.10665333271026611,0.12187986820936203,0.11072101444005966,Walking,9,6.57999999995809,0,0,0.6947193145751953,1.928460955619812,0.706449468089606
3366,COMPASS,40.44391427644042,-79.94448302663785,289.8378715515137,146.75453186035156,15.505904197692871,-0.058135986328125,98.07892608642578,-1.0,-1.0,N/A,-0.0015411376953125,-1.1000518798828125,-0.279266357421875,-0.12087049335241318,0.29230377078056335,0.1801133155822754,-41.444091796875,-129.216064453125,-313.92425537109375,-0.040438681840896606,-0.13536900281906128,-0.03685486316680908,1.3328498823876314,0.15266955202391452,-0.14646902297044542,0.03584577515721321,-0.971824049949646,-0.23296618461608887,-0.10665333271026611,0.12187986820936203,0.11072101444005966,Walking,9,6.57999999995809,0,0,0.6947193145751953,1.928460955619812,0.706449468089606
3395,Magnetometer,40.44391427644042,-79.94448302663785,289.8378715515137,146.75453186035156,15.505904197692871,-0.058135986328125,98.07892608642578,-1.0,-1.0,N/A,-0.0015411376953125,-1.1000518798828125,-0.279266357421875,-0.12087049335241318,0.29230377078056335,0.1801133155822754,-41.4722900390625,-131.65086364746094,-315.1478271484375,-0.040438681840896606,-0.13536900281906128,-0.03685486316680908,1.3328498823876314,0.15266955202391452,-0.14646902297044542,0.03584577515721321,-0.971824049949646,-0.23296618461608887,-0.10665333271026611,0.12187986820936203,0.11072101444005966,Walking,9,6.57999999995809,0,0,0.6947193145751953,1.928460955619812,0.706449468089606
3422,Device Motion,40.44391427644042,-79.94448302663785,289.8378715515137,146.75453186035156,15.505904197692871,-0.058135986328125,98.07892608642578,-1.0,-1.0,N/A,-0.0015411376953125,-1.1000518798828125,-0.279266357421875,-0.12087049335241318,0.29230377078056335,0.1801133155822754,-41.4722900390625,-131.65086364746094,-315.1478271484375,0.01870015263557434,0.11639988422393799,0.02959674596786499,1.3284823281331628,-0.021720351991574113,0.043196512216712085,-0.005211385898292065,-0.9707853198051453,-0.23989327251911163,-0.2783243954181671,0.2828455865383148,0.1562766134738922,Walking,9,6.57999999995809,0,0,0.6947193145751953,1.928460955619812,0.706449468089606
3449,Accelerometer,40.44391427644042,-79.94448302663785,289.8378715515137,146.75453186035156,15.505904197692871,-0.058135986328125,98.07892608642578,-1.0,-1.0,N/A,0.00909423828125,-0.8520355224609375,-0.2269134521484375,-0.12087049335241318,0.29230377078056335,0.1801133155822754,-41.4722900390625,-131.65086364746094,-315.1478271484375,0.01870015263557434,0.11639988422393799,0.02959674596786499,1.3284823281331628,-0.021720351991574113,0.043196512216712085,-0.005211385898292065,-0.9707853198051453,-0.23989327251911163,-0.2783243954181671,0.2828455865383148,0.1562766134738922,Walking,9,6.57999999995809,0,0,0.6947193145751953,1.928460955619812,0.706449468089606
3601,COMPASS,40.44391427644042,-79.94448302663785,289.8378715515137,147.7714080810547,15.509757995605469,-0.058135986328125,98.07892608642578,-1.0,-1.0,N/A,0.00909423828125,-0.8520355224609375,-0.2269134521484375,-0.12087049335241318,0.29230377078056335,0.1801133155822754,-41.4722900390625,-131.65086364746094,-315.1478271484375,0.01870015263557434,0.11639988422393799,0.02959674596786499,1.3284823281331628,-0.021720351991574113,0.043196512216712085,-0.005211385898292065,-0.9707853198051453,-0.23989327251911163,-0.2783243954181671,0.2828455865383148,0.1562766134738922,Walking,9,6.57999999995809,0,0,0.6947193145751953,1.928460955619812,0.706449468089606
3634,Magnetometer,40.44391427644042,-79.94448302663785,289.8378715515137,147.7714080810547,15.509757995605469,-0.058135986328125,98.07892608642578,-1.0,-1.0,N/A,0.00909423828125,-0.8520355224609375,-0.2269134521484375,-0.12087049335241318,0.29230377078056335,0.1801133155822754,-40.38104248046875,-133.12890625,-314.50555419921875,0.01870015263557434,0.11639988422393799,0.02959674596786499,1.3284823281331628,-0.021720351991574113,0.043196512216712085,-0.005211385898292065,-0.9707853198051453,-0.23989327251911163,-0.2783243954181671,0.2828455865383148,0.1562766134738922,Walking,9,6.57999999995809,0,0,0.6947193145751953,1.928460955619812,0.706449468089606
3664,Gyrometer,40.44391427644042,-79.94448302663785,289.8378715515137,147.7714080810547,15.509757995605469,-0.058135986328125,98.07892608642578,-1.0,-1.0,N/A,0.00909423828125,-0.8520355224609375,-0.2269134521484375,0.20396031439304352,-0.06292570382356644,-0.01576458103954792,-40.38104248046875,-133.12890625,-314.50555419921875,0.01870015263557434,0.11639988422393799,0.02959674596786499,1.3284823281331628,-0.021720351991574113,0.043196512216712085,-0.005211385898292065,-0.9707853198051453,-0.23989327251911163,-0.2783243954181671,0.2828455865383148,0.1562766134738922,Walking,9,6.57999999995809,0,0,0.6947193145751953,1.928460955619812,0.706449468089606
3692,Device Motion,40.44391427644042,-79.94448302663785,289.8378715515137,147.7714080810547,15.509757995605469,-0.058135986328125,98.07892608642578,-1.0,-1.0,N/A,0.00909423828125,-0.8520355224609375,-0.2269134521484375,0.20396031439304352,-0.06292570382356644,-0.01576458103954792,-40.38104248046875,-133.12890625,-314.50555419921875,0.036315470933914185,-0.11644744873046875,-0.022127002477645874,1.3353251126813108,0.03185899112917661,-0.00751080299343234,0.007431485690176487,-0.9724045395851135,-0.2331828773021698,0.0908634290099144,0.017612624913454056,0.0011862904066219926,Walking,9,6.57999999995809,0,0,0.6947193145751953,1.928460955619812,0.706449468089606
3721,COMPASS,40.44391427644042,-79.94448302663785,289.8378715515137,148.87924194335938,15.511667251586914,-0.058135986328125,98.07892608642578,-1.0,-1.0,N/A,0.00909423828125,-0.8520355224609375,-0.2269134521484375,0.20396031439304352,-0.06292570382356644,-0.01576458103954792,-40.38104248046875,-133.12890625,-314.50555419921875,0.036315470933914185,-0.11644744873046875,-0.022127002477645874,1.3353251126813108,0.03185899112917661,-0.00751080299343234,0.007431485690176487,-0.9724045395851135,-0.2331828773021698,0.0908634290099144,0.017612624913454056,0.0011862904066219926,Walking,9,6.57999999995809,0,0,0.6947193145751953,1.928460955619812,0.706449468089606
3748,Accelerometer,40.44391427644042,-79.94448302663785,289.8378715515137,148.87924194335938,15.511667251586914,-0.058135986328125,98.07892608642578,-1.0,-1.0,N/A,0.032684326171875,-1.0701904296875,-0.275238037109375,0.20396031439304352,-0.06292570382356644,-0.01576458103954792,-40.38104248046875,-133.12890625,-314.50555419921875,0.036315470933914185,-0.11644744873046875,-0.022127002477645874,1.3353251126813108,0.03185899112917661,-0.00751080299343234,0.007431485690176487,-0.9724045395851135,-0.2331828773021698,0.0908634290099144,0.017612624913454056,0.0011862904066219926,Walking,9,6.57999999995809,0,0,0.6947193145751953,1.928460955619812,0.706449468089606
3820,COMPASS,40.44391427644042,-79.94448302663785,289.8378715515137,150.02220153808594,15.513294219970703,-0.058135986328125,98.07892608642578,-1.0,-1.0,N/A,0.032684326171875,-1.0701904296875,-0.275238037109375,0.20396031439304352,-0.06292570382356644,-0.01576458103954792,-40.38104248046875,-133.12890625,-314.50555419921875,0.036315470933914185,-0.11644744873046875,-0.022127002477645874,1.3353251126813108,0.03185899112917661,-0.00751080299343234,0.007431485690176487,-0.9724045395851135,-0.2331828773021698,0.0908634290099144,0.017612624913454056,0.0011862904066219926,Walking,9,6.57999999995809,0,0,0.6947193145751953,1.928460955619812,0.706449468089606
3881,COMPASS,40.44391427644042,-79.94448302663785,289.8378715515137,151.2224884033203,15.51425552368164,-0.058135986328125,98.07892608642578,-1.0,-1.0,N/A,0.032684326171875,-1.0701904296875,-0.275238037109375,0.20396031439304352,-0.06292570382356644,-0.01576458103954792,-40.38104248046875,-133.12890625,-314.50555419921875,0.036315470933914185,-0.11644744873046875,-0.022127002477645874,1.3353251126813108,0.03185899112917661,-0.00751080299343234,0.007431485690176487,-0.9724045395851135,-0.2331828773021698,0.0908634290099144,0.017612624913454056,0.0011862904066219926,Walking,9,6.57999999995809,0,0,0.6947193145751953,1.928460955619812,0.706449468089606
3912,Magnetometer,40.44391427644042,-79.94448302663785,289.8378715515137,151.2224884033203,15.51425552368164,-0.058135986328125,98.07892608642578,-1.0,-1.0,N/A,0.032684326171875,-1.0701904296875,-0.275238037109375,0.20396031439304352,-0.06292570382356644,-0.01576458103954792,-38.31660461425781,-135.67054748535156,-314.584716796875,0.036315470933914185,-0.11644744873046875,-0.022127002477645874,1.3353251126813108,0.03185899112917661,-0.00751080299343234,0.007431485690176487,-0.9724045395851135,-0.2331828773021698,0.0908634290099144,0.017612624913454056,0.0011862904066219926,Walking,9,6.57999999995809,0,0,0.6947193145751953,1.928460955619812,0.706449468089606
3941,Gyrometer,40.44391427644042,-79.94448302663785,289.8378715515137,151.2224884033203,15.51425552368164,-0.058135986328125,98.07892608642578,-1.0,-1.0,N/A,0.032684326171875,-1.0701904296875,-0.275238037109375,0.0977683737874031,0.1509128212928772,-0.007056844420731068,-38.31660461425781,-135.67054748535156,-314.584716796875,0.036315470933914185,-0.11644744873046875,-0.022127002477645874,1.3353251126813108,0.03185899112917661,-0.00751080299343234,0.007431485690176487,-0.9724045395851135,-0.2331828773021698,0.0908634290099144,0.017612624913454056,0.0011862904066219926,Walking,9,6.57999999995809,0,0,0.6947193145751953,1.928460955619812,0.706449468089606
3970,Device Motion,40.44391427644042,-79.94448302663785,289.8378715515137,151.2224884033203,15.51425552368164,-0.058135986328125,98.07892608642578,-1.0,-1.0,N/A,0.032684326171875,-1.0701904296875,-0.275238037109375,0.0977683737874031,0.1509128212928772,-0.007056844420731068,-38.31660461425781,-135.67054748535156,-314.584716796875,-0.044630084186792374,0.1041492223739624,0.025110870599746704,1.3264642390706942,0.1060337636321475,-0.12265021441103593,0.025602396577596664,-0.9702991247177124,-0.24054954946041107,0.10575679689645767,0.28352564573287964,0.00988637562841177,Walking,9,6.57999999995809,0,0,0.6947193145751953,1.928460955619812,0.706449468089606
3997,Accelerometer,40.44391427644042,-79.94448302663785,289.8378715515137,151.2224884033203,15.51425552368164,-0.058135986328125,98.07892608642578,-1.0,-1.0,N/A,-0.0149993896484375,-0.85845947265625,-0.21685791015625,0.0977683737874031,0.1509128212928772,-0.007056844420731068,-38.31660461425781,-135.67054748535156,-314.584716796875,-0.044630084186792374,0.1041492223739624,0.025110870599746704,1.3264642390706942,0.1060337636321475,-0.12265021441103593,0.025602396577596664,-0.9702991247177124,-0.24054954946041107,0.10575679689645767,0.28352564573287964,0.00988637562841177,Walking,9,6.57999999995809,0,0,0.6947193145751953,1.928460955619812,0.706449468089606
4043,Altimeter,40.44391427644042,-79.94448302663785,289.8378715515137,151.2224884033203,15.51425552368164,-0.07928466796875,98.07916259765625,-1.0,-1.0,N/A,-0.0149993896484375,-0.85845947265625,-0.21685791015625,0.0977683737874031,0.1509128212928772,-0.007056844420731068,-38.31660461425781,-135.67054748535156,-314.584716796875,-0.044630084186792374,0.1041492223739624,0.025110870599746704,1.3264642390706942,0.1060337636321475,-0.12265021441103593,0.025602396577596664,-0.9702991247177124,-0.24054954946041107,0.10575679689645767,0.28352564573287964,0.00988637562841177,Walking,9,6.57999999995809,0,0,0.6947193145751953,1.928460955619812,0.706449468089606
4179,COMPASS,40.44391427644042,-79.94448302663785,289.8378715515137,150.03189086914062,15.519168853759766,-0.07928466796875,98.07916259765625,-1.0,-1.0,N/A,-0.0149993896484375,-0.85845947265625,-0.21685791015625,0.0977683737874031,0.1509128212928772,-0.007056844420731068,-38.31660461425781,-135.67054748535156,-314.584716796875,-0.044630084186792374,0.1041492223739624,0.025110870599746704,1.3264642390706942,0.1060337636321475,-0.12265021441103593,0.025602396577596664,-0.9702991247177124,-0.24054954946041107,0.10575679689645767,0.28352564573287964,0.00988637562841177,Walking,9,6.57999999995809,0,0,0.6947193145751953,1.928460955619812,0.706449468089606
4213,Magnetometer,40.44391427644042,-79.94448302663785,289.8378715515137,150.03189086914062,15.519168853759766,-0.07928466796875,98.07916259765625,-1.0,-1.0,N/A,-0.0149993896484375,-0.85845947265625,-0.21685791015625,0.0977683737874031,0.1509128212928772,-0.007056844420731068,-37.46812438964844,-136.75636291503906,-315.6496276855469,-0.044630084186792374,0.1041492223739624,0.025110870599746704,1.3264642390706942,0.1060337636321475,-0.12265021441103593,0.025602396577596664,-0.9702991247177124,-0.24054954946041107,0.10575679689645767,0.28352564573287964,0.00988637562841177,Walking,9,6.57999999995809,0,0,0.6947193145751953,1.928460955619812,0.706449468089606
4240,COMPASS,40.44391427644042,-79.94448302663785,289.8378715515137,148.73422241210938,15.520156860351562,-0.07928466796875,98.07916259765625,-1.0,-1.0,N/A,-0.0149993896484375,-0.85845947265625,-0.21685791015625,0.0977683737874031,0.1509128212928772,-0.007056844420731068,-37.46812438964844,-136.75636291503906,-315.6496276855469,-0.044630084186792374,0.1041492223739624,0.025110870599746704,1.3264642390706942,0.1060337636321475,-0.12265021441103593,0.025602396577596664,-0.9702991247177124,-0.24054954946041107,0.10575679689645767,0.28352564573287964,0.00988637562841177,Walking,9,6.57999999995809,0,0,0.6947193145751953,1.928460955619812,0.706449468089606
4269,Gyrometer,40.44391427644042,-79.94448302663785,289.8378715515137,148.73422241210938,15.520156860351562,-0.07928466796875,98.07916259765625,-1.0,-1.0,N/A,-0.0149993896484375,-0.85845947265625,-0.21685791015625,0.06910104304552078,0.26750174164772034,0.1463545560836792,-37.46812438964844,-136.75636291503906,-315.6496276855469,-0.044630084186792374,0.1041492223739624,0.025110870599746704,1.3264642390706942,0.1060337636321475,-0.12265021441103593,0.025602396577596664,-0.9702991247177124,-0.24054954946041107,0.10575679689645767,0.28352564573287964,0.00988637562841177,Walking,9,6.57999999995809,0,0,0.6947193145751953,1.928460955619812,0.706449468089606
4297,Device Motion,40.44391427644042,-79.94448302663785,289.8378715515137,148.73422241210938,15.520156860351562,-0.07928466796875,98.07916259765625,-1.0,-1.0,N/A,-0.0149993896484375,-0.85845947265625,-0.21685791015625,0.06910104304552078,0.26750174164772034,0.1463545560836792,-37.46812438964844,-136.75636291503906,-315.6496276855469,0.02271115779876709,-0.11428993940353394,-0.008499324321746826,1.3199501343434545,0.12632848500956725,-0.10253675888747046,0.03127443417906761,-0.9687027335166931,-0.24624603986740112,-0.056722790002822876,0.3163427710533142,0.1619812250137329,Walking,9,6.57999999995809,0,0,0.6947193145751953,1.928460955619812,0.706449468089606
4325,COMPASS,40.44391427644042,-79.94448302663785,289.8378715515137,147.47723388671875,15.52112865447998,-0.07928466796875,98.07916259765625,-1.0,-1.0,N/A,-0.0149993896484375,-0.85845947265625,-0.21685791015625,0.06910104304552078,0.26750174164772034,0.1463545560836792,-37.46812438964844,-136.75636291503906,-315.6496276855469,0.02271115779876709,-0.11428993940353394,-0.008499324321746826,1.3199501343434545,0.12632848500956725,-0.10253675888747046,0.03127443417906761,-0.9687027335166931,-0.24624603986740112,-0.056722790002822876,0.3163427710533142,0.1619812250137329,Walking,9,6.57999999995809,0,0,0.6947193145751953,1.928460955619812,0.706449468089606
4353,Accelerometer,40.44391427644042,-79.94448302663785,289.8378715515137,147.47723388671875,15.52112865447998,-0.07928466796875,98.07916259765625,-1.0,-1.0,N/A,0.0393829345703125,-1.0869598388671875,-0.307769775390625,0.06910104304552078,0.26750174164772034,0.1463545560836792,-37.46812438964844,-136.75636291503906,-315.6496276855469,0.02271115779876709,-0.11428993940353394,-0.008499324321746826,1.3199501343434545,0.12632848500956725,-0.10253675888747046,0.03127443417906761,-0.9687027335166931,-0.24624603986740112,-0.056722790002822876,0.3163427710533142,0.1619812250137329,Walking,9,6.57999999995809,0,0,0.6947193145751953,1.928460955619812,0.706449468089606
4379,COMPASS,40.44391427644042,-79.94448302663785,289.8378715515137,146.08155822753906,15.52208137512207,-0.07928466796875,98.07916259765625,-1.0,-1.0,N/A,0.0393829345703125,-1.0869598388671875,-0.307769775390625,0.06910104304552078,0.26750174164772034,0.1463545560836792,-37.46812438964844,-136.75636291503906,-315.6496276855469,0.02271115779876709,-0.11428993940353394,-0.008499324321746826,1.3199501343434545,0.12632848500956725,-0.10253675888747046,0.03127443417906761,-0.9687027335166931,-0.24624603986740112,-0.056722790002822876,0.3163427710533142,0.1619812250137329,Walking,9,6.57999999995809,0,0,0.6947193145751953,1.928460955619812,0.706449468089606
4418,COMPASS,40.44391427644042,-79.94448302663785,289.8378715515137,144.9853515625,15.52299690246582,-0.07928466796875,98.07916259765625,-1.0,-1.0,N/A,0.0393829345703125,-1.0869598388671875,-0.307769775390625,0.06910104304552078,0.26750174164772034,0.1463545560836792,-37.46812438964844,-136.75636291503906,-315.6496276855469,0.02271115779876709,-0.11428993940353394,-0.008499324321746826,1.3199501343434545,0.12632848500956725,-0.10253675888747046,0.03127443417906761,-0.9687027335166931,-0.24624603986740112,-0.056722790002822876,0.3163427710533142,0.1619812250137329,Walking,9,6.57999999995809,0,0,0.6947193145751953,1.928460955619812,0.706449468089606
