Timestamp (ms),Triggering Sensor,Latitude,Longitude,Altitude,Heading (degrees),Heading accuracy (degrees),Relative Altitude (m),Pressure (kPa),Speed (m/s),Speed Accuracy (m/s),Floor,Acceleration - X axis,Acceleration - Y axis,Acceleration - Z axis,Gyrometer - X axis,Gyrometer - Y axis,Gyrometer - Z axis,Magnetometer - X axis,Magnetometer - Y axis,Magnetometer - Z axis,User acceleration - X axis,User acceleration - Y axis,User acceleration - Z axis,Attitude Pitch,Attitude Roll,Attitude Yaw,Gravity - X axis,Gravity - Y axis,Gravity - Z axis,Rotation Rate - X axis,Rotation Rate - Y axis,Rotation Rate - Z axis,Activity Type,Number of Steps,Distance,Floors Ascended,Floors Descended,Current Pace,Current Cadence,Average Active Pace
10,Gyrometer,,,,,,,,,,,,,,0.002660498023033142,-0.006503173150122166,0.04282069951295853,,,,,,,,,,,,,,,,,,,,,,,
45,COMPASS,,,,179.0545196533203,17.13608169555664,,,,,,,,,0.002660498023033142,-0.006503173150122166,0.04282069951295853,,,,,,,,,,,,,,,,,,,,,,,
80,Activity Manager,,,,179.0545196533203,17.13608169555664,,,,,,,,,0.002660498023033142,-0.006503173150122166,0.04282069951295853,,,,,,,,,,,,,,,,Walking,,,,,,,
112,Magnetometer,,,,179.0545196533203,17.13608169555664,,,,,,,,,0.002660498023033142,-0.006503173150122166,0.04282069951295853,-24.422653198242188,-106.43937683105469,-312.95330810546875,,,,,,,,,,,,,Walking,,,,,,,
144,Accelerometer,,,,179.0545196533203,17.13608169555664,,,,,,-0.0296173095703125,-0.9104461669921875,-0.4154815673828125,0.002660498023033142,-0.006503173150122166,0.04282069951295853,-24.422653198242188,-106.43937683105469,-312.95330810546875,,,,,,,,,,,,,Walking,,,,,,,
244,Device Motion,,,,179.0545196533203,17.13608169555664,,,,,,-0.0296173095703125,-0.9104461669921875,-0.4154815673828125,0.002660498023033142,-0.006503173150122166,0.04282069951295853,-24.422653198242188,-106.43937683105469,-312.95330810546875,0.0036714384332299232,0.0024390220642089844,0.024637311697006226,1.1604675490145133,-0.03430311257808939,0.02248704368110109,-0.013681194745004177,-0.9169897437095642,-0.3986760079860687,-0.015530319884419441,0.04714979976415634,0.017596550285816193,Walking,,,,,,,
304,Gyrometer,,,,179.0545196533203,17.13608169555664,,,,,,-0.0296173095703125,-0.9104461669921875,-0.4154815673828125,0.054001983255147934,0.047084156423807144,-0.015063637867569923,-24.422653198242188,-106.43937683105469,-312.95330810546875,0.0036714384332299232,0.0024390220642089844,0.024637311697006226,1.1604675490145133,-0.03430311257808939,0.02248704368110109,-0.013681194745004177,-0.9169897437095642,-0.3986760079860687,-0.015530319884419441,0.04714979976415634,0.017596550285816193,Walking,,,,,,,
341,Magnetometer,,,,179.0545196533203,17.13608169555664,,,,,,-0.0296173095703125,-0.9104461669921875,-0.4154815673828125,0.054001983255147934,0.047084156423807144,-0.015063637867569923,-24.39208984375,-106.32945251464844,-312.3994140625,0.0036714384332299232,0.0024390220642089844,0.024637311697006226,1.1604675490145133,-0.03430311257808939,0.02248704368110109,-0.013681194745004177,-0.9169897437095642,-0.3986760079860687,-0.015530319884419441,0.04714979976415634,0.017596550285816193,Walking,,,,,,,
376,Accelerometer,,,,179.0545196533203,17.13608169555664,,,,,,-0.017333984375,-0.9216156005859375,-0.388824462890625,0.054001983255147934,0.047084156423807144,-0.015063637867569923,-24.39208984375,-106.32945251464844,-312.3994140625,0.0036714384332299232,0.0024390220642089844,0.024637311697006226,1.1604675490145133,-0.03430311257808939,0.02248704368110109,-0.013681194745004177,-0.9169897437095642,-0.3986760079860687,-0.015530319884419441,0.04714979976415634,0.017596550285816193,Walking,,,,,,,
543,Device Motion,,,,179.0545196533203,17.13608169555664,,,,,,-0.017333984375,-0.9216156005859375,-0.388824462890625,0.054001983255147934,0.047084156423807144,-0.015063637867569923,-24.39208984375,-106.32945251464844,-312.3994140625,0.0011965036392211914,-0.0041075944900512695,0.032660603523254395,1.1664748157153837,-0.036406702325581644,0.035434150777153416,-0.014319048263132572,-0.9193695187568665,-0.3931342363357544,0.003975242841988802,0.005202521104365587,0.01978432759642601,Walking,,,,,,,
583,COMPASS,,,,178.04229736328125,17.126806259155273,,,,,,-0.017333984375,-0.9216156005859375,-0.388824462890625,0.054001983255147934,0.047084156423807144,-0.015063637867569923,-24.39208984375,-106.32945251464844,-312.3994140625,0.0011965036392211914,-0.0041075944900512695,0.032660603523254395,1.1664748157153837,-0.036406702325581644,0.035434150777153416,-0.014319048263132572,-0.9193695187568665,-0.3931342363357544,0.003975242841988802,0.005202521104365587,0.01978432759642601,Walking,,,,,,,
614,Gyrometer,,,,178.04229736328125,17.126806259155273,,,,,,-0.017333984375,-0.9216156005859375,-0.388824462890625,0.06316698342561722,0.0774252861738205,0.005878129042685032,-24.39208984375,-106.32945251464844,-312.3994140625,0.0011965036392211914,-0.0041075944900512695,0.032660603523254395,1.1664748157153837,-0.036406702325581644,0.035434150777153416,-0.014319048263132572,-0.9193695187568665,-0.3931342363357544,0.003975242841988802,0.005202521104365587,0.01978432759642601,Walking,,,,,,,
646,Magnetometer,,,,178.04229736328125,17.126806259155273,,,,,,-0.017333984375,-0.9216156005859375,-0.388824462890625,0.06316698342561722,0.0774252861738205,0.005878129042685032,-24.011459350585938,-106.1517333984375,-312.2944641113281,0.0011965036392211914,-0.0041075944900512695,0.032660603523254395,1.1664748157153837,-0.036406702325581644,0.035434150777153416,-0.014319048263132572,-0.9193695187568665,-0.3931342363357544,0.003975242841988802,0.005202521104365587,0.01978432759642601,Walking,,,,,,,
679,Accelerometer,,,,178.04229736328125,17.126806259155273,,,,,,-0.0052947998046875,-0.927276611328125,-0.38604736328125,0.06316698342561722,0.0774252861738205,0.005878129042685032,-24.011459350585938,-106.1517333984375,-312.2944641113281,0.0011965036392211914,-0.0041075944900512695,0.032660603523254395,1.1664748157153837,-0.036406702325581644,0.035434150777153416,-0.014319048263132572,-0.9193695187568665,-0.3931342363357544,0.003975242841988802,0.005202521104365587,0.01978432759642601,Walking,,,,,,,
842,Device Motion,,,,178.04229736328125,17.126806259155273,,,,,,-0.0052947998046875,-0.927276611328125,-0.38604736328125,0.06316698342561722,0.0774252861738205,0.005878129042685032,-24.011459350585938,-106.1517333984375,-312.2944641113281,-0.009920209646224976,0.000805974006652832,0.03695487976074219,1.176801193724084,-0.020148799829704443,0.03400379718929178,-0.007734205573797226,-0.9233827590942383,-0.3838024437427521,-0.01800522394478321,0.04718343913555145,-0.008999625220894814,Walking,,,,,,,
904,Gyrometer,,,,178.04229736328125,17.126806259155273,,,,,,-0.0052947998046875,-0.927276611328125,-0.38604736328125,-0.023325828835368156,-0.0054909056052565575,0.0025920546613633633,-24.011459350585938,-106.1517333984375,-312.2944641113281,-0.009920209646224976,0.000805974006652832,0.03695487976074219,1.176801193724084,-0.020148799829704443,0.03400379718929178,-0.007734205573797226,-0.9233827590942383,-0.3838024437427521,-0.01800522394478321,0.04718343913555145,-0.008999625220894814,Walking,,,,,,,
943,Activity Manager,,,,178.04229736328125,17.126806259155273,,,,,,-0.0052947998046875,-0.927276611328125,-0.38604736328125,-0.023325828835368156,-0.0054909056052565575,0.0025920546613633633,-24.011459350585938,-106.1517333984375,-312.2944641113281,-0.009920209646224976,0.000805974006652832,0.03695487976074219,1.176801193724084,-0.020148799829704443,0.03400379718929178,-0.007734205573797226,-0.9233827590942383,-0.3838024437427521,-0.01800522394478321,0.04718343913555145,-0.008999625220894814,Walking,,,,,,,
976,Magnetometer,,,,178.04229736328125,17.126806259155273,,,,,,-0.0052947998046875,-0.927276611328125,-0.38604736328125,-0.023325828835368156,-0.0054909056052565575,0.0025920546613633633,-24.301010131835938,-106.22776794433594,-312.4451904296875,-0.009920209646224976,0.000805974006652832,0.03695487976074219,1.176801193724084,-0.020148799829704443,0.03400379718929178,-0.007734205573797226,-0.9233827590942383,-0.3838024437427521,-0.01800522394478321,0.04718343913555145,-0.008999625220894814,Walking,,,,,,,
1008,Accelerometer,,,,178.04229736328125,17.126806259155273,,,,,,-0.0297393798828125,-0.9374847412109375,-0.3419342041015625,-0.023325828835368156,-0.0054909056052565575,0.0025920546613633633,-24.301010131835938,-106.22776794433594,-312.4451904296875,-0.009920209646224976,0.000805974006652832,0.03695487976074219,1.176801193724084,-0.020148799829704443,0.03400379718929178,-0.007734205573797226,-0.9233827590942383,-0.3838024437427521,-0.01800522394478321,0.04718343913555145,-0.008999625220894814,Walking,,,,,,,
1040,Altimeter,,,,178.04229736328125,17.126806259155273,0,98.18619537353516,,,,-0.0297393798828125,-0.9374847412109375,-0.3419342041015625,-0.023325828835368156,-0.0054909056052565575,0.0025920546613633633,-24.301010131835938,-106.22776794433594,-312.4451904296875,-0.009920209646224976,0.000805974006652832,0.03695487976074219,1.176801193724084,-0.020148799829704443,0.03400379718929178,-0.007734205573797226,-0.9233827590942383,-0.3838024437427521,-0.01800522394478321,0.04718343913555145,-0.008999625220894814,Walking,,,,,,,
1087,COMPASS,,,,177.00576782226562,17.12154197692871,0,98.18619537353516,,,,-0.0297393798828125,-0.9374847412109375,-0.3419342041015625,-0.023325828835368156,-0.0054909056052565575,0.0025920546613633633,-24.301010131835938,-106.22776794433594,-312.4451904296875,-0.009920209646224976,0.000805974006652832,0.03695487976074219,1.176801193724084,-0.020148799829704443,0.03400379718929178,-0.007734205573797226,-0.9233827590942383,-0.3838024437427521,-0.01800522394478321,0.04718343913555145,-0.008999625220894814,Walking,,,,,,,
1141,Device Motion,,,,177.00576782226562,17.12154197692871,0,98.18619537353516,,,,-0.0297393798828125,-0.9374847412109375,-0.3419342041015625,-0.023325828835368156,-0.0054909056052565575,0.0025920546613633633,-24.301010131835938,-106.22776794433594,-312.4451904296875,-0.0077721476554870605,-0.01893448829650879,0.040686726570129395,1.1794445758527747,-0.030312951921776354,0.05464946131311759,-0.011560746468603611,-0.9243943095207214,-0.3812629282474518,0.02340102568268776,0.0713859349489212,0.053099364042282104,Walking,,,,,,,
1205,Gyrometer,,,,177.00576782226562,17.12154197692871,0,98.18619537353516,,,,-0.0297393798828125,-0.9374847412109375,-0.3419342041015625,0.043834831565618515,0.10054977983236313,0.04202468320727348,-24.301010131835938,-106.22776794433594,-312.4451904296875,-0.0077721476554870605,-0.01893448829650879,0.040686726570129395,1.1794445758527747,-0.030312951921776354,0.05464946131311759,-0.011560746468603611,-0.9243943095207214,-0.3812629282474518,0.02340102568268776,0.0713859349489212,0.053099364042282104,Walking,,,,,,,
1239,Magnetometer,,,,177.00576782226562,17.12154197692871,0,98.18619537353516,,,,-0.0297393798828125,-0.9374847412109375,-0.3419342041015625,0.043834831565618515,0.10054977983236313,0.04202468320727348,-24.700225830078125,-105.7723388671875,-312.5618896484375,-0.0077721476554870605,-0.01893448829650879,0.040686726570129395,1.1794445758527747,-0.030312951921776354,0.05464946131311759,-0.011560746468603611,-0.9243943095207214,-0.3812629282474518,0.02340102568268776,0.0713859349489212,0.053099364042282104,Walking,,,,,,,
1257,Accelerometer,,,,177.00576782226562,17.12154197692871,0,98.18619537353516,,,,-0.0008544921875,-0.951141357421875,-0.3354339599609375,0.043834831565618515,0.10054977983236313,0.04202468320727348,-24.700225830078125,-105.7723388671875,-312.5618896484375,-0.0077721476554870605,-0.01893448829650879,0.040686726570129395,1.1794445758527747,-0.030312951921776354,0.05464946131311759,-0.011560746468603611,-0.9243943095207214,-0.3812629282474518,0.02340102568268776,0.0713859349489212,0.053099364042282104,Walking,,,,,,,
1407,COMPASS,,,,175.89169311523438,17.119125366210938,0,98.18619537353516,,,,-0.0008544921875,-0.951141357421875,-0.3354339599609375,0.043834831565618515,0.10054977983236313,0.04202468320727348,-24.700225830078125,-105.7723388671875,-312.5618896484375,-0.0077721476554870605,-0.01893448829650879,0.040686726570129395,1.1794445758527747,-0.030312951921776354,0.05464946131311759,-0.011560746468603611,-0.9243943095207214,-0.3812629282474518,0.02340102568268776,0.0713859349489212,0.053099364042282104,Walking,,,,,,,
1443,Device Motion,,,,175.89169311523438,17.119125366210938,0,98.18619537353516,,,,-0.0008544921875,-0.951141357421875,-0.3354339599609375,0.043834831565618515,0.10054977983236313,0.04202468320727348,-24.700225830078125,-105.7723388671875,-312.5618896484375,0.022303909063339233,-0.0028821229934692383,0.053864985704422,1.1982352236165272,-0.038982873313970594,0.07950890110783046,-0.014186239801347256,-0.9313981533050537,-0.3637251853942871,0.06458498537540436,-0.00370617164298892,0.060011088848114014,Walking,,,,,,,
1505,Gyrometer,,,,175.89169311523438,17.119125366210938,0,98.18619537353516,,,,-0.0008544921875,-0.951141357421875,-0.3354339599609375,0.023732759058475494,-0.06054616719484329,-0.013618873432278633,-24.700225830078125,-105.7723388671875,-312.5618896484375,0.022303909063339233,-0.0028821229934692383,0.053864985704422,1.1982352236165272,-0.038982873313970594,0.07950890110783046,-0.014186239801347256,-0.9313981533050537,-0.3637251853942871,0.06458498537540436,-0.00370617164298892,0.060011088848114014,Walking,,,,,,,
1543,Magnetometer,,,,175.89169311523438,17.119125366210938,0,98.18619537353516,,,,-0.0008544921875,-0.951141357421875,-0.3354339599609375,0.023732759058475494,-0.06054616719484329,-0.013618873432278633,-25.215499877929688,-106.08976745605469,-313.556396484375,0.022303909063339233,-0.0028821229934692383,0.053864985704422,1.1982352236165272,-0.038982873313970594,0.07950890110783046,-0.014186239801347256,-0.9313981533050537,-0.3637251853942871,0.06458498537540436,-0.00370617164298892,0.060011088848114014,Walking,,,,,,,
1574,Accelerometer,,,,175.89169311523438,17.119125366210938,0,98.18619537353516,,,,-0.02764892578125,-0.9388885498046875,-0.298492431640625,0.023732759058475494,-0.06054616719484329,-0.013618873432278633,-25.215499877929688,-106.08976745605469,-313.556396484375,0.022303909063339233,-0.0028821229934692383,0.053864985704422,1.1982352236165272,-0.038982873313970594,0.07950890110783046,-0.014186239801347256,-0.9313981533050537,-0.3637251853942871,0.06458498537540436,-0.00370617164298892,0.060011088848114014,Walking,,,,,,,
1740,Device Motion,,,,175.89169311523438,17.119125366210938,0,98.18619537353516,,,,-0.02764892578125,-0.9388885498046875,-0.298492431640625,0.023732759058475494,-0.06054616719484329,-0.013618873432278633,-25.215499877929688,-106.08976745605469,-313.556396484375,0.0026159286499023438,-0.03063058853149414,0.06078106164932251,1.2172474308828731,-0.06582122080658968,0.09314707188270818,-0.022772785276174545,-0.9381498694419861,-0.3454795777797699,0.20774687826633453,-0.03574919328093529,-0.04330224171280861,Walking,,,,,,,
1806,Gyrometer,,,,175.89169311523438,17.119125366210938,0,98.18619537353516,,,,-0.02764892578125,-0.9388885498046875,-0.298492431640625,0.12904267013072968,-0.1387842446565628,-0.05818501114845276,-25.215499877929688,-106.08976745605469,-313.556396484375,0.0026159286499023438,-0.03063058853149414,0.06078106164932251,1.2172474308828731,-0.06582122080658968,0.09314707188270818,-0.022772785276174545,-0.9381498694419861,-0.3454795777797699,0.20774687826633453,-0.03574919328093529,-0.04330224171280861,Walking,,,,,,,
1842,Magnetometer,,,,175.89169311523438,17.119125366210938,0,98.18619537353516,,,,-0.02764892578125,-0.9388885498046875,-0.298492431640625,0.12904267013072968,-0.1387842446565628,-0.05818501114845276,-25.48870849609375,-105.65765380859375,-313.7139892578125,0.0026159286499023438,-0.03063058853149414,0.06078106164932251,1.2172474308828731,-0.06582122080658968,0.09314707188270818,-0.022772785276174545,-0.9381498694419861,-0.3454795777797699,0.20774687826633453,-0.03574919328093529,-0.04330224171280861,Walking,,,,,,,
1874,Accelerometer,,,,175.89169311523438,17.119125366210938,0,98.18619537353516,,,,-0.0114898681640625,-0.9270172119140625,-0.306121826171875,0.12904267013072968,-0.1387842446565628,-0.05818501114845276,-25.48870849609375,-105.65765380859375,-313.7139892578125,0.0026159286499023438,-0.03063058853149414,0.06078106164932251,1.2172474308828731,-0.06582122080658968,0.09314707188270818,-0.022772785276174545,-0.9381498694419861,-0.3454795777797699,0.20774687826633453,-0.03574919328093529,-0.04330224171280861,Walking,,,,,,,
1904,COMPASS,,,,176.92276000976562,17.116811752319336,0,98.18619537353516,,,,-0.0114898681640625,-0.9270172119140625,-0.306121826171875,0.12904267013072968,-0.1387842446565628,-0.05818501114845276,-25.48870849609375,-105.65765380859375,-313.7139892578125,0.0026159286499023438,-0.03063058853149414,0.06078106164932251,1.2172474308828731,-0.06582122080658968,0.09314707188270818,-0.022772785276174545,-0.9381498694419861,-0.3454795777797699,0.20774687826633453,-0.03574919328093529,-0.04330224171280861,Walking,,,,,,,
2018,Altimeter,,,,176.92276000976562,17.116811752319336,0.01849365234375,98.18597412109375,,,,-0.0114898681640625,-0.9270172119140625,-0.306121826171875,0.12904267013072968,-0.1387842446565628,-0.05818501114845276,-25.48870849609375,-105.65765380859375,-313.7139892578125,0.0026159286499023438,-0.03063058853149414,0.06078106164932251,1.2172474308828731,-0.06582122080658968,0.09314707188270818,-0.022772785276174545,-0.9381498694419861,-0.3454795777797699,0.20774687826633453,-0.03574919328093529,-0.04330224171280861,Walking,,,,,,,
2055,Device Motion,,,,176.92276000976562,17.116811752319336,0.01849365234375,98.18597412109375,,,,-0.0114898681640625,-0.9270172119140625,-0.306121826171875,0.12904267013072968,-0.1387842446565628,-0.05818501114845276,-25.48870849609375,-105.65765380859375,-313.7139892578125,-0.016994832083582878,0.016207456588745117,-0.03472551703453064,1.2319326837991902,-0.0710358163108216,0.06759374200587366,-0.023593537509441376,-0.9431329965591431,-0.331576943397522,0.03171346336603165,-0.06839209794998169,-0.12419581413269043,Walking,,,,,,,
2085,COMPASS,,,,178.0248260498047,17.115734100341797,0.01849365234375,98.18597412109375,,,,-0.0114898681640625,-0.9270172119140625,-0.306121826171875,0.12904267013072968,-0.1387842446565628,-0.05818501114845276,-25.48870849609375,-105.65765380859375,-313.7139892578125,-0.016994832083582878,0.016207456588745117,-0.03472551703453064,1.2319326837991902,-0.0710358163108216,0.06759374200587366,-0.023593537509441376,-0.9431329965591431,-0.331576943397522,0.03171346336603165,-0.06839209794998169,-0.12419581413269043,Walking,,,,,,,
2114,Gyrometer,,,,178.0248260498047,17.115734100341797,0.01849365234375,98.18597412109375,,,,-0.0114898681640625,-0.9270172119140625,-0.306121826171875,-0.06484637409448624,-0.13591629266738892,0.019473832100629807,-25.48870849609375,-105.65765380859375,-313.7139892578125,-0.016994832083582878,0.016207456588745117,-0.03472551703453064,1.2319326837991902,-0.0710358163108216,0.06759374200587366,-0.023593537509441376,-0.9431329965591431,-0.331576943397522,0.03171346336603165,-0.06839209794998169,-0.12419581413269043,Walking,,,,,,,
2145,Magnetometer,,,,178.0248260498047,17.115734100341797,0.01849365234375,98.18597412109375,,,,-0.0114898681640625,-0.9270172119140625,-0.306121826171875,-0.06484637409448624,-0.13591629266738892,0.019473832100629807,-25.78216552734375,-106.0457763671875,-315.260009765625,-0.016994832083582878,0.016207456588745117,-0.03472551703453064,1.2319326837991902,-0.0710358163108216,0.06759374200587366,-0.023593537509441376,-0.9431329965591431,-0.331576943397522,0.03171346336603165,-0.06839209794998169,-0.12419581413269043,Walking,,,,,,,
2166,Accelerometer,,,,178.0248260498047,17.115734100341797,0.01849365234375,98.18597412109375,,,,-0.0579681396484375,-0.902557373046875,-0.3317718505859375,-0.06484637409448624,-0.13591629266738892,0.019473832100629807,-25.78216552734375,-106.0457763671875,-315.260009765625,-0.016994832083582878,0.016207456588745117,-0.03472551703453064,1.2319326837991902,-0.0710358163108216,0.06759374200587366,-0.023593537509441376,-0.9431329965591431,-0.331576943397522,0.03171346336603165,-0.06839209794998169,-0.12419581413269043,Walking,,,,,,,
2338,Device Motion,,,,178.0248260498047,17.115734100341797,0.01849365234375,98.18597412109375,,,,-0.0579681396484375,-0.902557373046875,-0.3317718505859375,-0.06484637409448624,-0.13591629266738892,0.019473832100629807,-25.78216552734375,-106.0457763671875,-315.260009765625,-0.0075390636920928955,0.002646923065185547,0.03788280487060547,1.2075415717665166,-0.0815946745441042,0.05374899384381634,-0.02895994856953621,-0.9347453117370605,-0.35413649678230286,-0.06490903347730637,-0.03888322785496712,-0.031276099383831024,Walking,,,,,,,
2406,Gyrometer,,,,178.0248260498047,17.115734100341797,0.01849365234375,98.18597412109375,,,,-0.0579681396484375,-0.902557373046875,-0.3317718505859375,-0.04007444903254509,0.06521788239479065,0.010244381614029408,-25.78216552734375,-106.0457763671875,-315.260009765625,-0.0075390636920928955,0.002646923065185547,0.03788280487060547,1.2075415717665166,-0.0815946745441042,0.05374899384381634,-0.02895994856953621,-0.9347453117370605,-0.35413649678230286,-0.06490903347730637,-0.03888322785496712,-0.031276099383831024,Walking,,,,,,,
2447,Magnetometer,,,,178.0248260498047,17.115734100341797,0.01849365234375,98.18597412109375,,,,-0.0579681396484375,-0.902557373046875,-0.3317718505859375,-0.04007444903254509,0.06521788239479065,0.010244381614029408,-26.191024780273438,-106.16700744628906,-317.58074951171875,-0.0075390636920928955,0.002646923065185547,0.03788280487060547,1.2075415717665166,-0.0815946745441042,0.05374899384381634,-0.02895994856953621,-0.9347453117370605,-0.35413649678230286,-0.06490903347730637,-0.03888322785496712,-0.031276099383831024,Walking,,,,,,,
2485,Accelerometer,,,,178.0248260498047,17.115734100341797,0.01849365234375,98.18597412109375,,,,-0.0353851318359375,-0.9397430419921875,-0.2999267578125,-0.04007444903254509,0.06521788239479065,0.010244381614029408,-26.191024780273438,-106.16700744628906,-317.58074951171875,-0.0075390636920928955,0.002646923065185547,0.03788280487060547,1.2075415717665166,-0.0815946745441042,0.05374899384381634,-0.02895994856953621,-0.9347453117370605,-0.35413649678230286,-0.06490903347730637,-0.03888322785496712,-0.031276099383831024,Walking,,,,,,,
2637,Device Motion,,,,178.0248260498047,17.115734100341797,0.01849365234375,98.18597412109375,,,,-0.0353851318359375,-0.9397430419921875,-0.2999267578125,-0.04007444903254509,0.06521788239479065,0.010244381614029408,-26.191024780273438,-106.16700744628906,-317.58074951171875,-0.02666565775871277,-0.03397864103317261,0.039251744747161865,1.2106335147110814,-0.06327392148270557,0.05288540981374326,-0.022284530103206635,-0.9358394742012024,-0.35172122716903687,0.17620936036109924,0.1341291069984436,0.06024644896388054,Walking,,,,,,,
2707,Gyrometer,,,,178.0248260498047,17.115734100341797,0.01849365234375,98.18597412109375,,,,-0.0353851318359375,-0.9397430419921875,-0.2999267578125,0.11115901172161102,0.06585917621850967,0.03448660299181938,-26.191024780273438,-106.16700744628906,-317.58074951171875,-0.02666565775871277,-0.03397864103317261,0.039251744747161865,1.2106335147110814,-0.06327392148270557,0.05288540981374326,-0.022284530103206635,-0.9358394742012024,-0.35172122716903687,0.17620936036109924,0.1341291069984436,0.06024644896388054,Walking,,,,,,,
2744,Magnetometer,,,,178.0248260498047,17.115734100341797,0.01849365234375,98.18597412109375,,,,-0.0353851318359375,-0.9397430419921875,-0.2999267578125,0.11115901172161102,0.06585917621850967,0.03448660299181938,-26.387252807617188,-106.98663330078125,-316.4910888671875,-0.02666565775871277,-0.03397864103317261,0.039251744747161865,1.2106335147110814,-0.06327392148270557,0.05288540981374326,-0.022284530103206635,-0.9358394742012024,-0.35172122716903687,0.17620936036109924,0.1341291069984436,0.06024644896388054,Walking,,,,,,,
2776,Accelerometer,,,,178.0248260498047,17.115734100341797,0.01849365234375,98.18597412109375,,,,-0.0372772216796875,-0.99468994140625,-0.345947265625,0.11115901172161102,0.06585917621850967,0.03448660299181938,-26.387252807617188,-106.98663330078125,-316.4910888671875,-0.02666565775871277,-0.03397864103317261,0.039251744747161865,1.2106335147110814,-0.06327392148270557,0.05288540981374326,-0.022284530103206635,-0.9358394742012024,-0.35172122716903687,0.17620936036109924,0.1341291069984436,0.06024644896388054,Walking,,,,,,,
2862,COMPASS,,,,176.94683837890625,17.113018035888672,0.01849365234375,98.18597412109375,,,,-0.0372772216796875,-0.99468994140625,-0.345947265625,0.11115901172161102,0.06585917621850967,0.03448660299181938,-26.387252807617188,-106.98663330078125,-316.4910888671875,-0.02666565775871277,-0.03397864103317261,0.039251744747161865,1.2106335147110814,-0.06327392148270557,0.05288540981374326,-0.022284530103206635,-0.9358394742012024,-0.35172122716903687,0.17620936036109924,0.1341291069984436,0.06024644896388054,Walking,,,,,,,
2936,Device Motion,,,,176.94683837890625,17.113018035888672,0.01849365234375,98.18597412109375,,,,-0.0372772216796875,-0.99468994140625,-0.345947265625,0.11115901172161102,0.06585917621850967,0.03448660299181938,-26.387252807617188,-106.98663330078125,-316.4910888671875,-0.0024811886250972748,0.021890103816986084,-0.03857550024986267,1.23769076034095,-0.1143656495683391,0.12260494506105195,-0.03731371462345123,-0.945031464099884,-0.32484307885169983,0.03820580244064331,0.05055463686585426,0.1307561993598938,Walking,,,,,,,
2982,COMPASS,,,,175.93077087402344,17.112831115722656,0.01849365234375,98.18597412109375,,,,-0.0372772216796875,-0.99468994140625,-0.345947265625,0.11115901172161102,0.06585917621850967,0.03448660299181938,-26.387252807617188,-106.98663330078125,-316.4910888671875,-0.0024811886250972748,0.021890103816986084,-0.03857550024986267,1.23769076034095,-0.1143656495683391,0.12260494506105195,-0.03731371462345123,-0.945031464099884,-0.32484307885169983,0.03820580244064331,0.05055463686585426,0.1307561993598938,Walking,,,,,,,
3015,Gyrometer,,,,175.93077087402344,17.112831115722656,0.01849365234375,98.18597412109375,,,,-0.0372772216796875,-0.99468994140625,-0.345947265625,0.10920850932598114,-0.0916534885764122,0.1729600578546524,-26.387252807617188,-106.98663330078125,-316.4910888671875,-0.0024811886250972748,0.021890103816986084,-0.03857550024986267,1.23769076034095,-0.1143656495683391,0.12260494506105195,-0.03731371462345123,-0.945031464099884,-0.32484307885169983,0.03820580244064331,0.05055463686585426,0.1307561993598938,Walking,,,,,,,
3046,Magnetometer,,,,175.93077087402344,17.112831115722656,0.01849365234375,98.18597412109375,,,,-0.0372772216796875,-0.99468994140625,-0.345947265625,0.10920850932598114,-0.0916534885764122,0.1729600578546524,-27.556167602539062,-109.11470031738281,-315.0360107421875,-0.0024811886250972748,0.021890103816986084,-0.03857550024986267,1.23769076034095,-0.1143656495683391,0.12260494506105195,-0.03731371462345123,-0.945031464099884,-0.32484307885169983,0.03820580244064331,0.05055463686585426,0.1307561993598938,Walking,,,,,,,
3078,Altimeter,,,,175.93077087402344,17.112831115722656,0.039642333984375,98.18575286865234,,,,-0.0372772216796875,-0.99468994140625,-0.345947265625,0.10920850932598114,-0.0916534885764122,0.1729600578546524,-27.556167602539062,-109.11470031738281,-315.0360107421875,-0.0024811886250972748,0.021890103816986084,-0.03857550024986267,1.23769076034095,-0.1143656495683391,0.12260494506105195,-0.03731371462345123,-0.945031464099884,-0.32484307885169983,0.03820580244064331,0.05055463686585426,0.1307561993598938,Walking,,,,,,,
3109,Accelerometer,,,,175.93077087402344,17.112831115722656,0.039642333984375,98.18575286865234,,,,-0.025726318359375,-0.87957763671875,-0.359588623046875,0.10920850932598114,-0.0916534885764122,0.1729600578546524,-27.556167602539062,-109.11470031738281,-315.0360107421875,-0.0024811886250972748,0.021890103816986084,-0.03857550024986267,1.23769076034095,-0.1143656495683391,0.12260494506105195,-0.03731371462345123,-0.945031464099884,-0.32484307885169983,0.03820580244064331,0.05055463686585426,0.1307561993598938,Walking,,,,,,,
3236,Device Motion,,,,175.93077087402344,17.112831115722656,0.039642333984375,98.18575286865234,,,,-0.025726318359375,-0.87957763671875,-0.359588623046875,0.10920850932598114,-0.0916534885764122,0.1729600578546524,-27.556167602539062,-109.11470031738281,-315.0360107421875,0.023426532745361328,0.015775680541992188,0.006123542785644531,1.221069613486188,-0.16337228675190182,0.17732412024123903,-0.05572935938835144,-0.9394664168357849,-0.3380785286426544,-0.09572909772396088,0.039670564234256744,-0.024835266172885895,Walking,,,,,,,
3308,Gyrometer,,,,175.93077087402344,17.112831115722656,0.039642333984375,98.18575286865234,,,,-0.025726318359375,-0.87957763671875,-0.359588623046875,-0.1837991327047348,0.006225937977433205,-0.017779529094696045,-27.556167602539062,-109.11470031738281,-315.0360107421875,0.023426532745361328,0.015775680541992188,0.006123542785644531,1.221069613486188,-0.16337228675190182,0.17732412024123903,-0.05572935938835144,-0.9394664168357849,-0.3380785286426544,-0.09572909772396088,0.039670564234256744,-0.024835266172885895,Walking,,,,,,,
3345,Magnetometer,,,,175.93077087402344,17.112831115722656,0.039642333984375,98.18575286865234,,,,-0.025726318359375,-0.87957763671875,-0.359588623046875,-0.1837991327047348,0.006225937977433205,-0.017779529094696045,-27.799957275390625,-109.84103393554688,-314.06475830078125,0.023426532745361328,0.015775680541992188,0.006123542785644531,1.221069613486188,-0.16337228675190182,0.17732412024123903,-0.05572935938835144,-0.9394664168357849,-0.3380785286426544,-0.09572909772396088,0.039670564234256744,-0.024835266172885895,Walking,,,,,,,
3377,Accelerometer,,,,175.93077087402344,17.112831115722656,0.039642333984375,98.18575286865234,,,,-0.040130615234375,-0.93988037109375,-0.358917236328125,-0.1837991327047348,0.006225937977433205,-0.017779529094696045,-27.799957275390625,-109.84103393554688,-314.06475830078125,0.023426532745361328,0.015775680541992188,0.006123542785644531,1.221069613486188,-0.16337228675190182,0.17732412024123903,-0.05572935938835144,-0.9394664168357849,-0.3380785286426544,-0.09572909772396088,0.039670564234256744,-0.024835266172885895,Walking,,,,,,,
3535,Device Motion,,,,175.93077087402344,17.112831115722656,0.039642333984375,98.18575286865234,,,,-0.040130615234375,-0.93988037109375,-0.358917236328125,-0.1837991327047348,0.006225937977433205,-0.017779529094696045,-27.799957275390625,-109.84103393554688,-314.06475830078125,0.007417567074298859,-0.0341111421585083,0.009590297937393188,1.2196300396630089,-0.17374062040177066,0.18454279860979741,-0.05946529284119606,-0.9389721751213074,-0.3388139605522156,0.01427936926484108,-0.055760886520147324,0.16176119446754456,Walking,,,,,,,
3608,Magnetometer,,,,175.93077087402344,17.112831115722656,0.039642333984375,98.18575286865234,,,,-0.040130615234375,-0.93988037109375,-0.358917236328125,-0.1837991327047348,0.006225937977433205,-0.017779529094696045,-28.264862060546875,-109.89321899414062,-314.5244140625,0.007417567074298859,-0.0341111421585083,0.009590297937393188,1.2196300396630089,-0.17374062040177066,0.18454279860979741,-0.05946529284119606,-0.9389721751213074,-0.3388139605522156,0.01427936926484108,-0.055760886520147324,0.16176119446754456,Walking,,,,,,,
3645,Gyrometer,,,,175.93077087402344,17.112831115722656,0.039642333984375,98.18575286865234,,,,-0.040130615234375,-0.93988037109375,-0.358917236328125,0.1744847148656845,-0.09665223956108093,-0.11320938169956207,-28.264862060546875,-109.89321899414062,-314.5244140625,0.007417567074298859,-0.0341111421585083,0.009590297937393188,1.2196300396630089,-0.17374062040177066,0.18454279860979741,-0.05946529284119606,-0.9389721751213074,-0.3388139605522156,0.01427936926484108,-0.055760886520147324,0.16176119446754456,Walking,,,,,,,
3677,Accelerometer,,,,175.93077087402344,17.112831115722656,0.039642333984375,98.18575286865234,,,,-0.0704193115234375,-0.9872589111328125,-0.29119873046875,0.1744847148656845,-0.09665223956108093,-0.11320938169956207,-28.264862060546875,-109.89321899414062,-314.5244140625,0.007417567074298859,-0.0341111421585083,0.009590297937393188,1.2196300396630089,-0.17374062040177066,0.18454279860979741,-0.05946529284119606,-0.9389721751213074,-0.3388139605522156,0.01427936926484108,-0.055760886520147324,0.16176119446754456,Walking,,,,,,,
3834,Device Motion,,,,175.93077087402344,17.112831115722656,0.039642333984375,98.18575286865234,,,,-0.0704193115234375,-0.9872589111328125,-0.29119873046875,0.1744847148656845,-0.09665223956108093,-0.11320938169956207,-28.264862060546875,-109.89321899414062,-314.5244140625,0.016123980283737183,0.018465280532836914,0.004447579383850098,1.2503136072978986,-0.17038616334993234,0.1555998662255975,-0.053416457027196884,-0.9490834474563599,-0.31046262383461,0.1295744627714157,-0.026327887549996376,-0.074866883456707,Walking,,,,,,,
3872,COMPASS,,,,176.97817993164062,17.110633850097656,0.039642333984375,98.18575286865234,,,,-0.0704193115234375,-0.9872589111328125,-0.29119873046875,0.1744847148656845,-0.09665223956108093,-0.11320938169956207,-28.264862060546875,-109.89321899414062,-314.5244140625,0.016123980283737183,0.018465280532836914,0.004447579383850098,1.2503136072978986,-0.17038616334993234,0.1555998662255975,-0.053416457027196884,-0.9490834474563599,-0.31046262383461,0.1295744627714157,-0.026327887549996376,-0.074866883456707,Walking,,,,,,,
3907,Magnetometer,,,,176.97817993164062,17.110633850097656,0.039642333984375,98.18575286865234,,,,-0.0704193115234375,-0.9872589111328125,-0.29119873046875,0.1744847148656845,-0.09665223956108093,-0.11320938169956207,-27.35479736328125,-109.76509094238281,-314.3160095214844,0.016123980283737183,0.018465280532836914,0.004447579383850098,1.2503136072978986,-0.17038616334993234,0.1555998662255975,-0.053416457027196884,-0.9490834474563599,-0.31046262383461,0.1295744627714157,-0.026327887549996376,-0.074866883456707,Walking,,,,,,,
3937,Gyrometer,,,,176.97817993164062,17.110633850097656,0.039642333984375,98.18575286865234,,,,-0.0704193115234375,-0.9872589111328125,-0.29119873046875,0.05112896487116814,-0.23308119177818298,-0.03722619637846947,-27.35479736328125,-109.76509094238281,-314.3160095214844,0.016123980283737183,0.018465280532836914,0.004447579383850098,1.2503136072978986,-0.17038616334993234,0.1555998662255975,-0.053416457027196884,-0.9490834474563599,-0.31046262383461,0.1295744627714157,-0.026327887549996376,-0.074866883456707,Walking,,,,,,,
3967,COMPASS,,,,178.1089630126953,17.110397338867188,0.039642333984375,98.18575286865234,,,,-0.0704193115234375,-0.9872589111328125,-0.29119873046875,0.05112896487116814,-0.23308119177818298,-0.03722619637846947,-27.35479736328125,-109.76509094238281,-314.3160095214844,0.016123980283737183,0.018465280532836914,0.004447579383850098,1.2503136072978986,-0.17038616334993234,0.1555998662255975,-0.053416457027196884,-0.9490834474563599,-0.31046262383461,0.1295744627714157,-0.026327887549996376,-0.074866883456707,Walking,,,,,,,
3999,Accelerometer,,,,178.1089630126953,17.110397338867188,0.039642333984375,98.18575286865234,,,,-0.09967041015625,-0.9134368896484375,-0.3251495361328125,0.05112896487116814,-0.23308119177818298,-0.03722619637846947,-27.35479736328125,-109.76509094238281,-314.3160095214844,0.016123980283737183,0.018465280532836914,0.004447579383850098,1.2503136072978986,-0.17038616334993234,0.1555998662255975,-0.053416457027196884,-0.9490834474563599,-0.31046262383461,0.1295744627714157,-0.026327887549996376,-0.074866883456707,Walking,,,,,,,
4030,Altimeter,,,,178.1089630126953,17.110397338867188,0.060791015625,98.18549346923828,,,,-0.09967041015625,-0.9134368896484375,-0.3251495361328125,0.05112896487116814,-0.23308119177818298,-0.03722619637846947,-27.35479736328125,-109.76509094238281,-314.3160095214844,0.016123980283737183,0.018465280532836914,0.004447579383850098,1.2503136072978986,-0.17038616334993234,0.1555998662255975,-0.053416457027196884,-0.9490834474563599,-0.31046262383461,0.1295744627714157,-0.026327887549996376,-0.074866883456707,Walking,,,,,,,
4106,Activity Manager,,,,178.1089630126953,17.110397338867188,0.060791015625,98.18549346923828,,,,-0.09967041015625,-0.9134368896484375,-0.3251495361328125,0.05112896487116814,-0.23308119177818298,-0.03722619637846947,-27.35479736328125,-109.76509094238281,-314.3160095214844,0.016123980283737183,0.018465280532836914,0.004447579383850098,1.2503136072978986,-0.17038616334993234,0.1555998662255975,-0.053416457027196884,-0.9490834474563599,-0.31046262383461,0.1295744627714157,-0.026327887549996376,-0.074866883456707,Walking,,,,,,,
4140,Device Motion,,,,178.1089630126953,17.110397338867188,0.060791015625,98.18549346923828,,,,-0.09967041015625,-0.9134368896484375,-0.3251495361328125,0.05112896487116814,-0.23308119177818298,-0.03722619637846947,-27.35479736328125,-109.76509094238281,-314.3160095214844,-0.02202608808875084,0.03944617509841919,-0.009369760751724243,1.2576113570825465,-0.15722661889092995,0.12054186891662176,-0.04824063926935196,-0.9513571262359619,-0.30428993701934814,-0.06605483591556549,0.05524824187159538,0.03295668214559555,Walking,,,,,,,
4206,Magnetometer,,,,178.1089630126953,17.110397338867188,0.060791015625,98.18549346923828,,,,-0.09967041015625,-0.9134368896484375,-0.3251495361328125,0.05112896487116814,-0.23308119177818298,-0.03722619637846947,-26.90814208984375,-109.57965087890625,-314.6366271972656,-0.02202608808875084,0.03944617509841919,-0.009369760751724243,1.2576113570825465,-0.15722661889092995,0.12054186891662176,-0.04824063926935196,-0.9513571262359619,-0.30428993701934814,-0.06605483591556549,0.05524824187159538,0.03295668214559555,Walking,,,,,,,
4244,Gyrometer,,,,178.1089630126953,17.110397338867188,0.060791015625,98.18549346923828,,,,-0.09967041015625,-0.9134368896484375,-0.3251495361328125,-0.08728190511465073,0.05830671638250351,-0.06175151467323303,-26.90814208984375,-109.57965087890625,-314.6366271972656,-0.02202608808875084,0.03944617509841919,-0.009369760751724243,1.2576113570825465,-0.15722661889092995,0.12054186891662176,-0.04824063926935196,-0.9513571262359619,-0.30428993701934814,-0.06605483591556549,0.05524824187159538,0.03295668214559555,Walking,,,,,,,
4275,Accelerometer,,,,178.1089630126953,17.110397338867188,0.060791015625,98.18549346923828,,,,-0.072845458984375,-0.93536376953125,-0.2786865234375,-0.08728190511465073,0.05830671638250351,-0.06175151467323303,-26.90814208984375,-109.57965087890625,-314.6366271972656,-0.02202608808875084,0.03944617509841919,-0.009369760751724243,1.2576113570825465,-0.15722661889092995,0.12054186891662176,-0.04824063926935196,-0.9513571262359619,-0.30428993701934814,-0.06605483591556549,0.05524824187159538,0.03295668214559555,Walking,,,,,,,
4432,Device Motion,,,,178.1089630126953,17.110397338867188,0.060791015625,98.18549346923828,,,,-0.072845458984375,-0.93536376953125,-0.2786865234375,-0.08728190511465073,0.05830671638250351,-0.06175151467323303,-26.90814208984375,-109.57965087890625,-314.6366271972656,-0.03541525825858116,-0.020074427127838135,0.018644005060195923,1.2317137963577214,-0.11965125440381977,0.0982092763048742,-0.03970373049378395,-0.9430602192878723,-0.3302437365055084,-0.08825023472309113,0.09654401987791061,-0.04759683459997177,Walking,,,,,,,
4506,Magnetometer,,,,178.1089630126953,17.110397338867188,0.060791015625,98.18549346923828,,,,-0.072845458984375,-0.93536376953125,-0.2786865234375,-0.08728190511465073,0.05830671638250351,-0.06175151467323303,-26.540008544921875,-110.06980895996094,-315.17559814453125,-0.03541525825858116,-0.020074427127838135,0.018644005060195923,1.2317137963577214,-0.11965125440381977,0.0982092763048742,-0.03970373049378395,-0.9430602192878723,-0.3302437365055084,-0.08825023472309113,0.09654401987791061,-0.04759683459997177,Walking,,,,,,,
4542,Gyrometer,,,,178.1089630126953,17.110397338867188,0.060791015625,98.18549346923828,,,,-0.072845458984375,-0.93536376953125,-0.2786865234375,0.026033198460936546,0.1737068146467209,0.0008932242053560913,-26.540008544921875,-110.06980895996094,-315.17559814453125,-0.03541525825858116,-0.020074427127838135,0.018644005060195923,1.2317137963577214,-0.11965125440381977,0.0982092763048742,-0.03970373049378395,-0.9430602192878723,-0.3302437365055084,-0.08825023472309113,0.09654401987791061,-0.04759683459997177,Walking,,,,,,,
4578,COMPASS,,,,177.01756286621094,17.109092712402344,0.060791015625,98.18549346923828,,,,-0.072845458984375,-0.93536376953125,-0.2786865234375,0.026033198460936546,0.1737068146467209,0.0008932242053560913,-26.540008544921875,-110.06980895996094,-315.17559814453125,-0.03541525825858116,-0.020074427127838135,0.018644005060195923,1.2317137963577214,-0.11965125440381977,0.0982092763048742,-0.03970373049378395,-0.9430602192878723,-0.3302437365055084,-0.08825023472309113,0.09654401987791061,-0.04759683459997177,Walking,,,,,,,
4609,Accelerometer,,,,177.01756286621094,17.109092712402344,0.060791015625,98.18549346923828,,,,-0.0233917236328125,-0.9626312255859375,-0.27508544921875,0.026033198460936546,0.1737068146467209,0.0008932242053560913,-26.540008544921875,-110.06980895996094,-315.17559814453125,-0.03541525825858116,-0.020074427127838135,0.018644005060195923,1.2317137963577214,-0.11965125440381977,0.0982092763048742,-0.03970373049378395,-0.9430602192878723,-0.3302437365055084,-0.08825023472309113,0.09654401987791061,-0.04759683459997177,Walking,,,,,,,
4698,COMPASS,,,,175.9750213623047,17.10875701904297,0.060791015625,98.18549346923828,,,,-0.0233917236328125,-0.9626312255859375,-0.27508544921875,0.026033198460936546,0.1737068146467209,0.0008932242053560913,-26.540008544921875,-110.06980895996094,-315.17559814453125,-0.03541525825858116,-0.020074427127838135,0.018644005060195923,1.2317137963577214,-0.11965125440381977,0.0982092763048742,-0.03970373049378395,-0.9430602192878723,-0.3302437365055084,-0.08825023472309113,0.09654401987791061,-0.04759683459997177,Walking,,,,,,,
4737,Device Motion,,,,175.9750213623047,17.10875701904297,0.060791015625,98.18549346923828,,,,-0.0233917236328125,-0.9626312255859375,-0.27508544921875,0.026033198460936546,0.1737068146467209,0.0008932242053560913,-26.540008544921875,-110.06980895996094,-315.17559814453125,0.008631648495793343,-0.057301223278045654,-0.04586479067802429,1.2369505597499344,-0.08717470650939771,0.11257750518329619,-0.028529126197099686,-0.9447891712188721,-0.3264343738555908,-0.05980496481060982,0.12972331047058105,-0.042938895523548126,Walking,,,,,,,
4806,Magnetometer,,,,175.9750213623047,17.10875701904297,0.060791015625,98.18549346923828,,,,-0.0233917236328125,-0.9626312255859375,-0.27508544921875,0.026033198460936546,0.1737068146467209,0.0008932242053560913,-27.40203857421875,-110.85093688964844,-314.8062744140625,0.008631648495793343,-0.057301223278045654,-0.04586479067802429,1.2369505597499344,-0.08717470650939771,0.11257750518329619,-0.028529126197099686,-0.9447891712188721,-0.3264343738555908,-0.05980496481060982,0.12972331047058105,-0.042938895523548126,Walking,,,,,,,
4844,Gyrometer,,,,175.9750213623047,17.10875701904297,0.060791015625,98.18549346923828,,,,-0.0233917236328125,-0.9626312255859375,-0.27508544921875,0.21394024789333344,0.17121382057666779,0.04169578105211258,-27.40203857421875,-110.85093688964844,-314.8062744140625,0.008631648495793343,-0.057301223278045654,-0.04586479067802429,1.2369505597499344,-0.08717470650939771,0.11257750518329619,-0.028529126197099686,-0.9447891712188721,-0.3264343738555908,-0.05980496481060982,0.12972331047058105,-0.042938895523548126,Walking,,,,,,,
4874,Accelerometer,,,,175.9750213623047,17.10875701904297,0.060791015625,98.18549346923828,,,,-0.0359039306640625,-0.940948486328125,-0.313812255859375,0.21394024789333344,0.17121382057666779,0.04169578105211258,-27.40203857421875,-110.85093688964844,-314.8062744140625,0.008631648495793343,-0.057301223278045654,-0.04586479067802429,1.2369505597499344,-0.08717470650939771,0.11257750518329619,-0.028529126197099686,-0.9447891712188721,-0.3264343738555908,-0.05980496481060982,0.12972331047058105,-0.042938895523548126,Walking,,,,,,,
4903,COMPASS,,,,174.676513671875,17.108692169189453,0.060791015625,98.18549346923828,,,,-0.0359039306640625,-0.940948486328125,-0.313812255859375,0.21394024789333344,0.17121382057666779,0.04169578105211258,-27.40203857421875,-110.85093688964844,-314.8062744140625,0.008631648495793343,-0.057301223278045654,-0.04586479067802429,1.2369505597499344,-0.08717470650939771,0.11257750518329619,-0.028529126197099686,-0.9447891712188721,-0.3264343738555908,-0.05980496481060982,0.12972331047058105,-0.042938895523548126,Walking,,,,,,,
5020,Altimeter,,,,174.676513671875,17.108692169189453,0.060791015625,98.18549346923828,,,,-0.0359039306640625,-0.940948486328125,-0.313812255859375,0.21394024789333344,0.17121382057666779,0.04169578105211258,-27.40203857421875,-110.85093688964844,-314.8062744140625,0.008631648495793343,-0.057301223278045654,-0.04586479067802429,1.2369505597499344,-0.08717470650939771,0.11257750518329619,-0.028529126197099686,-0.9447891712188721,-0.3264343738555908,-0.05980496481060982,0.12972331047058105,-0.042938895523548126,Walking,,,,,,,
5055,Device Motion,,,,174.676513671875,17.108692169189453,0.060791015625,98.18549346923828,,,,-0.0359039306640625,-0.940948486328125,-0.313812255859375,0.21394024789333344,0.17121382057666779,0.04169578105211258,-27.40203857421875,-110.85093688964844,-314.8062744140625,0.0218467116355896,0.05336785316467285,-0.022610068321228027,1.259916299139337,-0.13261330860772774,0.18093565354554159,-0.0404471792280674,-0.9520647525787354,-0.3032108545303345,-0.022257855162024498,-0.04849277436733246,0.015980876982212067,Walking,,,,,,,
5105,Magnetometer,,,,174.676513671875,17.108692169189453,0.060791015625,98.18549346923828,,,,-0.0359039306640625,-0.940948486328125,-0.313812255859375,0.21394024789333344,0.17121382057666779,0.04169578105211258,-29.572219848632812,-111.56129455566406,-313.6096496582031,0.0218467116355896,0.05336785316467285,-0.022610068321228027,1.259916299139337,-0.13261330860772774,0.18093565354554159,-0.0404471792280674,-0.9520647525787354,-0.3032108545303345,-0.022257855162024498,-0.04849277436733246,0.015980876982212067,Walking,,,,,,,
5139,Gyrometer,,,,174.676513671875,17.108692169189453,0.060791015625,98.18549346923828,,,,-0.0359039306640625,-0.940948486328125,-0.313812255859375,-0.22244665026664734,0.007220895029604435,-0.028052140027284622,-29.572219848632812,-111.56129455566406,-313.6096496582031,0.0218467116355896,0.05336785316467285,-0.022610068321228027,1.259916299139337,-0.13261330860772774,0.18093565354554159,-0.0404471792280674,-0.9520647525787354,-0.3032108545303345,-0.022257855162024498,-0.04849277436733246,0.015980876982212067,Walking,,,,,,,
5170,Accelerometer,,,,174.676513671875,17.108692169189453,0.060791015625,98.18549346923828,,,,-0.0346832275390625,-0.9273681640625,-0.3372955322265625,-0.22244665026664734,0.007220895029604435,-0.028052140027284622,-29.572219848632812,-111.56129455566406,-313.6096496582031,0.0218467116355896,0.05336785316467285,-0.022610068321228027,1.259916299139337,-0.13261330860772774,0.18093565354554159,-0.0404471792280674,-0.9520647525787354,-0.3032108545303345,-0.022257855162024498,-0.04849277436733246,0.015980876982212067,Walking,,,,,,,
5330,Device Motion,,,,174.676513671875,17.108692169189453,0.060791015625,98.18549346923828,,,,-0.0346832275390625,-0.9273681640625,-0.3372955322265625,-0.22244665026664734,0.007220895029604435,-0.028052140027284622,-29.572219848632812,-111.56129455566406,-313.6096496582031,0.0110398530960083,-0.006912827491760254,0.0090789794921875,1.226909654440907,-0.11751231574582265,0.15577259148504286,-0.0395280160009861,-0.941451370716095,-0.3348236382007599,-0.011486493982374668,-0.033484797924757004,-0.022265641018748283,Walking,,,,,,,
5404,Magnetometer,,,,174.676513671875,17.108692169189453,0.060791015625,98.18549346923828,,,,-0.0346832275390625,-0.9273681640625,-0.3372955322265625,-0.22244665026664734,0.007220895029604435,-0.028052140027284622,-30.995849609375,-111.87301635742188,-314.632080078125,0.0110398530960083,-0.006912827491760254,0.0090789794921875,1.226909654440907,-0.11751231574582265,0.15577259148504286,-0.0395280160009861,-0.941451370716095,-0.3348236382007599,-0.011486493982374668,-0.033484797924757004,-0.022265641018748283,Walking,,,,,,,
5440,Gyrometer,,,,174.676513671875,17.108692169189453,0.060791015625,98.18549346923828,,,,-0.0346832275390625,-0.9273681640625,-0.3372955322265625,0.0361819714307785,-0.05928356200456619,0.011642275378108025,-30.995849609375,-111.87301635742188,-314.632080078125,0.0110398530960083,-0.006912827491760254,0.0090789794921875,1.226909654440907,-0.11751231574582265,0.15577259148504286,-0.0395280160009861,-0.941451370716095,-0.3348236382007599,-0.011486493982374668,-0.033484797924757004,-0.022265641018748283,Walking,,,,,,,
5472,Accelerometer,,,,174.676513671875,17.108692169189453,0.060791015625,98.18549346923828,,,,-0.04339599609375,-0.957794189453125,-0.3035125732421875,0.0361819714307785,-0.05928356200456619,0.011642275378108025,-30.995849609375,-111.87301635742188,-314.632080078125,0.0110398530960083,-0.006912827491760254,0.0090789794921875,1.226909654440907,-0.11751231574582265,0.15577259148504286,-0.0395280160009861,-0.941451370716095,-0.3348236382007599,-0.011486493982374668,-0.033484797924757004,-0.022265641018748283,Walking,,,,,,,
5575,COMPASS,,,,175.78224182128906,17.107383728027344,0.060791015625,98.18549346923828,,,,-0.04339599609375,-0.957794189453125,-0.3035125732421875,0.0361819714307785,-0.05928356200456619,0.011642275378108025,-30.995849609375,-111.87301635742188,-314.632080078125,0.0110398530960083,-0.006912827491760254,0.0090789794921875,1.226909654440907,-0.11751231574582265,0.15577259148504286,-0.0395280160009861,-0.941451370716095,-0.3348236382007599,-0.011486493982374668,-0.033484797924757004,-0.022265641018748283,Walking,,,,,,,
5629,Device Motion,,,,175.78224182128906,17.107383728027344,0.060791015625,98.18549346923828,,,,-0.04339599609375,-0.957794189453125,-0.3035125732421875,0.0361819714307785,-0.05928356200456619,0.011642275378108025,-30.995849609375,-111.87301635742188,-314.632080078125,-0.0002937614917755127,-0.0791327953338623,-0.014014959335327148,1.2404725575756188,-0.1208566153805707,0.12609215845246713,-0.03910442814230919,-0.9459373950958252,-0.32198360562324524,0.021415257826447487,-0.17620252072811127,-0.059561338275671005,Walking,,,,,,,
5704,Magnetometer,,,,175.78224182128906,17.107383728027344,0.060791015625,98.18549346923828,,,,-0.04339599609375,-0.957794189453125,-0.3035125732421875,0.0361819714307785,-0.05928356200456619,0.011642275378108025,-32.67494201660156,-111.71011352539062,-315.39129638671875,-0.0002937614917755127,-0.0791327953338623,-0.014014959335327148,1.2404725575756188,-0.1208566153805707,0.12609215845246713,-0.03910442814230919,-0.9459373950958252,-0.32198360562324524,0.021415257826447487,-0.17620252072811127,-0.059561338275671005,Walking,,,,,,,
5739,Gyrometer,,,,175.78224182128906,17.107383728027344,0.060791015625,98.18549346923828,,,,-0.04339599609375,-0.957794189453125,-0.3035125732421875,0.11720385402441025,-0.06885603070259094,0.0649971067905426,-32.67494201660156,-111.71011352539062,-315.39129638671875,-0.0002937614917755127,-0.0791327953338623,-0.014014959335327148,1.2404725575756188,-0.1208566153805707,0.12609215845246713,-0.03910442814230919,-0.9459373950958252,-0.32198360562324524,0.021415257826447487,-0.17620252072811127,-0.059561338275671005,Walking,,,,,,,
5772,Accelerometer,,,,175.78224182128906,17.107383728027344,0.060791015625,98.18549346923828,,,,-0.0356597900390625,-0.91009521484375,-0.307830810546875,0.11720385402441025,-0.06885603070259094,0.0649971067905426,-32.67494201660156,-111.71011352539062,-315.39129638671875,-0.0002937614917755127,-0.0791327953338623,-0.014014959335327148,1.2404725575756188,-0.1208566153805707,0.12609215845246713,-0.03910442814230919,-0.9459373950958252,-0.32198360562324524,0.021415257826447487,-0.17620252072811127,-0.059561338275671005,Walking,,,,,,,
5803,COMPASS,,,,176.83790588378906,17.107349395751953,0.060791015625,98.18549346923828,,,,-0.0356597900390625,-0.91009521484375,-0.307830810546875,0.11720385402441025,-0.06885603070259094,0.0649971067905426,-32.67494201660156,-111.71011352539062,-315.39129638671875,-0.0002937614917755127,-0.0791327953338623,-0.014014959335327148,1.2404725575756188,-0.1208566153805707,0.12609215845246713,-0.03910442814230919,-0.9459373950958252,-0.32198360562324524,0.021415257826447487,-0.17620252072811127,-0.059561338275671005,Walking,,,,,,,
5928,Device Motion,,,,176.83790588378906,17.107349395751953,0.060791015625,98.18549346923828,,,,-0.0356597900390625,-0.91009521484375,-0.307830810546875,0.11720385402441025,-0.06885603070259094,0.0649971067905426,-32.67494201660156,-111.71011352539062,-315.39129638671875,-0.01334446296095848,0.05362516641616821,-0.032649487257003784,1.2615592708595915,-0.14503046791798532,0.12064810006452872,-0.04398278146982193,-0.9525660276412964,-0.3011365234851837,-0.07629907131195068,-0.0974120944738388,-0.018503667786717415,Walking,,,,,,,
5962,COMPASS,,,,177.89039611816406,17.107254028320312,0.060791015625,98.18549346923828,,,,-0.0356597900390625,-0.91009521484375,-0.307830810546875,0.11720385402441025,-0.06885603070259094,0.0649971067905426,-32.67494201660156,-111.71011352539062,-315.39129638671875,-0.01334446296095848,0.05362516641616821,-0.032649487257003784,1.2615592708595915,-0.14503046791798532,0.12064810006452872,-0.04398278146982193,-0.9525660276412964,-0.3011365234851837,-0.07629907131195068,-0.0974120944738388,-0.018503667786717415,Walking,,,,,,,
6004,Magnetometer,,,,177.89039611816406,17.107254028320312,0.060791015625,98.18549346923828,,,,-0.0356597900390625,-0.91009521484375,-0.307830810546875,0.11720385402441025,-0.06885603070259094,0.0649971067905426,-33.061676025390625,-111.60545349121094,-316.9280700683594,-0.01334446296095848,0.05362516641616821,-0.032649487257003784,1.2615592708595915,-0.14503046791798532,0.12064810006452872,-0.04398278146982193,-0.9525660276412964,-0.3011365234851837,-0.07629907131195068,-0.0974120944738388,-0.018503667786717415,Walking,,,,,,,
6037,Gyrometer,,,,177.89039611816406,17.107254028320312,0.060791015625,98.18549346923828,,,,-0.0356597900390625,-0.91009521484375,-0.307830810546875,-0.11831625550985336,-0.08340407907962799,0.008508000522851944,-33.061676025390625,-111.60545349121094,-316.9280700683594,-0.01334446296095848,0.05362516641616821,-0.032649487257003784,1.2615592708595915,-0.14503046791798532,0.12064810006452872,-0.04398278146982193,-0.9525660276412964,-0.3011365234851837,-0.07629907131195068,-0.0974120944738388,-0.018503667786717415,Walking,,,,,,,
6067,Altimeter,,,,177.89039611816406,17.107254028320312,0.04229736328125,98.18568420410156,,,,-0.0356597900390625,-0.91009521484375,-0.307830810546875,-0.11831625550985336,-0.08340407907962799,0.008508000522851944,-33.061676025390625,-111.60545349121094,-316.9280700683594,-0.01334446296095848,0.05362516641616821,-0.032649487257003784,1.2615592708595915,-0.14503046791798532,0.12064810006452872,-0.04398278146982193,-0.9525660276412964,-0.3011365234851837,-0.07629907131195068,-0.0974120944738388,-0.018503667786717415,Walking,,,,,,,
6096,Accelerometer,,,,177.89039611816406,17.107254028320312,0.04229736328125,98.18568420410156,,,,-0.0572967529296875,-0.9444122314453125,-0.3224029541015625,-0.11831625550985336,-0.08340407907962799,0.008508000522851944,-33.061676025390625,-111.60545349121094,-316.9280700683594,-0.01334446296095848,0.05362516641616821,-0.032649487257003784,1.2615592708595915,-0.14503046791798532,0.12064810006452872,-0.04398278146982193,-0.9525660276412964,-0.3011365234851837,-0.07629907131195068,-0.0974120944738388,-0.018503667786717415,Walking,,,,,,,
6153,COMPASS,,,,178.92050170898438,17.1070556640625,0.04229736328125,98.18568420410156,,,,-0.0572967529296875,-0.9444122314453125,-0.3224029541015625,-0.11831625550985336,-0.08340407907962799,0.008508000522851944,-33.061676025390625,-111.60545349121094,-316.9280700683594,-0.01334446296095848,0.05362516641616821,-0.032649487257003784,1.2615592708595915,-0.14503046791798532,0.12064810006452872,-0.04398278146982193,-0.9525660276412964,-0.3011365234851837,-0.07629907131195068,-0.0974120944738388,-0.018503667786717415,Walking,,,,,,,
6227,Device Motion,,,,178.92050170898438,17.1070556640625,0.04229736328125,98.18568420410156,,,,-0.0572967529296875,-0.9444122314453125,-0.3224029541015625,-0.11831625550985336,-0.08340407907962799,0.008508000522851944,-33.061676025390625,-111.60545349121094,-316.9280700683594,0.0017240010201931,0.007464349269866943,0.031094759702682495,1.233497867150838,-0.13508984039526273,0.0897435834859532,-0.044570669531822205,-0.9436521530151367,-0.32792407274246216,-0.07781226187944412,0.0008723903447389603,-0.0339457243680954,Walking,,,,,,,
6303,Magnetometer,,,,178.92050170898438,17.1070556640625,0.04229736328125,98.18568420410156,,,,-0.0572967529296875,-0.9444122314453125,-0.3224029541015625,-0.11831625550985336,-0.08340407907962799,0.008508000522851944,-31.60693359375,-111.62179565429688,-318.8717041015625,0.0017240010201931,0.007464349269866943,0.031094759702682495,1.233497867150838,-0.13508984039526273,0.0897435834859532,-0.044570669531822205,-0.9436521530151367,-0.32792407274246216,-0.07781226187944412,0.0008723903447389603,-0.0339457243680954,Walking,,,,,,,
6340,Gyrometer,,,,178.92050170898438,17.1070556640625,0.04229736328125,98.18568420410156,,,,-0.0572967529296875,-0.9444122314453125,-0.3224029541015625,0.0131496237590909,0.0895748883485794,-0.01870577782392502,-31.60693359375,-111.62179565429688,-318.8717041015625,0.0017240010201931,0.007464349269866943,0.031094759702682495,1.233497867150838,-0.13508984039526273,0.0897435834859532,-0.044570669531822205,-0.9436521530151367,-0.32792407274246216,-0.07781226187944412,0.0008723903447389603,-0.0339457243680954,Walking,,,,,,,
6375,Accelerometer,,,,178.92050170898438,17.1070556640625,0.04229736328125,98.18568420410156,,,,-0.056060791015625,-0.97503662109375,-0.3109588623046875,0.0131496237590909,0.0895748883485794,-0.01870577782392502,-31.60693359375,-111.62179565429688,-318.8717041015625,0.0017240010201931,0.007464349269866943,0.031094759702682495,1.233497867150838,-0.13508984039526273,0.0897435834859532,-0.044570669531822205,-0.9436521530151367,-0.32792407274246216,-0.07781226187944412,0.0008723903447389603,-0.0339457243680954,Walking,,,,,,,
6526,Device Motion,,,,178.92050170898438,17.1070556640625,0.04229736328125,98.18568420410156,,,,-0.056060791015625,-0.97503662109375,-0.3109588623046875,0.0131496237590909,0.0895748883485794,-0.01870577782392502,-31.60693359375,-111.62179565429688,-318.8717041015625,-0.0075014494359493256,-0.06474214792251587,0.015709906816482544,1.2526917681566945,-0.10073802649044697,0.08279287285427551,-0.03145424276590347,-0.9498299360275269,-0.31118109822273254,0.1647961139678955,0.12099907547235489,0.0845220610499382,Walking,,,,,,,
6572,COMPASS,,,,177.8931427001953,17.106266021728516,0.04229736328125,98.18568420410156,,,,-0.056060791015625,-0.97503662109375,-0.3109588623046875,0.0131496237590909,0.0895748883485794,-0.01870577782392502,-31.60693359375,-111.62179565429688,-318.8717041015625,-0.0075014494359493256,-0.06474214792251587,0.015709906816482544,1.2526917681566945,-0.10073802649044697,0.08279287285427551,-0.03145424276590347,-0.9498299360275269,-0.31118109822273254,0.1647961139678955,0.12099907547235489,0.0845220610499382,Walking,,,,,,,
