Timestamp (ms),Triggering Sensor,Latitude,Longitude,Altitude,Heading (degrees),Heading accuracy (degrees),Relative Altitude (m),Pressure (kPa),Speed (m/s),Speed Accuracy (m/s),Floor,Acceleration - X axis,Acceleration - Y axis,Acceleration - Z axis,Gyrometer - X axis,Gyrometer - Y axis,Gyrometer - Z axis,Magnetometer - X axis,Magnetometer - Y axis,Magnetometer - Z axis,User acceleration - X axis,User acceleration - Y axis,User acceleration - Z axis,Attitude Pitch,Attitude Roll,Attitude Yaw,Gravity - X axis,Gravity - Y axis,Gravity - Z axis,Rotation Rate - X axis,Rotation Rate - Y axis,Rotation Rate - Z axis,Activity Type,Number of Steps,Distance,Floors Ascended,Floors Descended,Current Pace,Current Cadence,Average Active Pace
12,Gyrometer,,,,,,,,,,,,,,0.031080421060323715,0.033001624047756195,-0.08954639732837677,,,,,,,,,,,,,,,,,,,,,,,
41,GPS,40.44376982349131,-79.94433703740883,289.8249168395996,,,,,-1.0,-1.0,N/A,,,,0.031080421060323715,0.033001624047756195,-0.08954639732837677,,,,,,,,,,,,,,,,,,,,,,,
67,GPS,40.44376982349131,-79.94433703740883,289.8249168395996,,,,,-1.0,-1.0,N/A,,,,0.031080421060323715,0.033001624047756195,-0.08954639732837677,,,,,,,,,,,,,,,,,,,,,,,
95,COMPASS,40.44376982349131,-79.94433703740883,289.8249168395996,64.3060531616211,15.785093307495117,,,-1.0,-1.0,N/A,,,,0.031080421060323715,0.033001624047756195,-0.08954639732837677,,,,,,,,,,,,,,,,,,,,,,,
123,Magnetometer,40.44376982349131,-79.94433703740883,289.8249168395996,64.3060531616211,15.785093307495117,,,-1.0,-1.0,N/A,,,,0.031080421060323715,0.033001624047756195,-0.08954639732837677,-55.32975769042969,-113.25094604492188,-317.3667297363281,,,,,,,,,,,,,,,,,,,,
133,Activity Manager,40.44376982349131,-79.94433703740883,289.8249168395996,64.3060531616211,15.785093307495117,,,-1.0,-1.0,N/A,,,,0.031080421060323715,0.033001624047756195,-0.08954639732837677,-55.32975769042969,-113.25094604492188,-317.3667297363281,,,,,,,,,,,,,Walking,,,,,,,
159,Accelerometer,40.44376982349131,-79.94433703740883,289.8249168395996,64.3060531616211,15.785093307495117,,,-1.0,-1.0,N/A,0.011474609375,-0.974700927734375,-0.213592529296875,0.031080421060323715,0.033001624047756195,-0.08954639732837677,-55.32975769042969,-113.25094604492188,-317.3667297363281,,,,,,,,,,,,,Walking,,,,,,,
186,Device Motion,40.44376982349131,-79.94433703740883,289.8249168395996,64.3060531616211,15.785093307495117,,,-1.0,-1.0,N/A,0.011474609375,-0.974700927734375,-0.213592529296875,0.031080421060323715,0.033001624047756195,-0.08954639732837677,-55.32975769042969,-113.25094604492188,-317.3667297363281,0.01531686820089817,-0.0012375712394714355,0.019381433725357056,1.3304950445492727,0.07438871230119216,-0.058371778192357816,0.017687898129224777,-0.9712663292884827,-0.2373378723859787,0.005983277224004269,-0.035212207585573196,-0.020504508167505264,Walking,,,,,,,
234,GPS,40.443658532261026,-79.94422591856724,289.8245849609375,64.3060531616211,15.785093307495117,,,-1.0,-1.0,N/A,0.011474609375,-0.974700927734375,-0.213592529296875,0.031080421060323715,0.033001624047756195,-0.08954639732837677,-55.32975769042969,-113.25094604492188,-317.3667297363281,0.01531686820089817,-0.0012375712394714355,0.019381433725357056,1.3304950445492727,0.07438871230119216,-0.058371778192357816,0.017687898129224777,-0.9712663292884827,-0.2373378723859787,0.005983277224004269,-0.035212207585573196,-0.020504508167505264,Walking,,,,,,,
306,Gyrometer,40.443658532261026,-79.94422591856724,289.8245849609375,64.3060531616211,15.785093307495117,,,-1.0,-1.0,N/A,0.011474609375,-0.974700927734375,-0.213592529296875,0.014358432963490486,-0.007084541022777557,-0.029171200469136238,-55.32975769042969,-113.25094604492188,-317.3667297363281,0.01531686820089817,-0.0012375712394714355,0.019381433725357056,1.3304950445492727,0.07438871230119216,-0.058371778192357816,0.017687898129224777,-0.9712663292884827,-0.2373378723859787,0.005983277224004269,-0.035212207585573196,-0.020504508167505264,Walking,,,,,,,
334,Magnetometer,40.443658532261026,-79.94422591856724,289.8245849609375,64.3060531616211,15.785093307495117,,,-1.0,-1.0,N/A,0.011474609375,-0.974700927734375,-0.213592529296875,0.014358432963490486,-0.007084541022777557,-0.029171200469136238,-55.10017395019531,-113.35580444335938,-317.872314453125,0.01531686820089817,-0.0012375712394714355,0.019381433725357056,1.3304950445492727,0.07438871230119216,-0.058371778192357816,0.017687898129224777,-0.9712663292884827,-0.2373378723859787,0.005983277224004269,-0.035212207585573196,-0.020504508167505264,Walking,,,,,,,
361,Accelerometer,40.443658532261026,-79.94422591856724,289.8245849609375,64.3060531616211,15.785093307495117,,,-1.0,-1.0,N/A,0.0356597900390625,-0.9886627197265625,-0.1982879638671875,0.014358432963490486,-0.007084541022777557,-0.029171200469136238,-55.10017395019531,-113.35580444335938,-317.872314453125,0.01531686820089817,-0.0012375712394714355,0.019381433725357056,1.3304950445492727,0.07438871230119216,-0.058371778192357816,0.017687898129224777,-0.9712663292884827,-0.2373378723859787,0.005983277224004269,-0.035212207585573196,-0.020504508167505264,Walking,,,,,,,
393,COMPASS,40.443658532261026,-79.94422591856724,289.8245849609375,65.35208129882812,15.783613204956055,,,-1.0,-1.0,N/A,0.0356597900390625,-0.9886627197265625,-0.1982879638671875,0.014358432963490486,-0.007084541022777557,-0.029171200469136238,-55.10017395019531,-113.35580444335938,-317.872314453125,0.01531686820089817,-0.0012375712394714355,0.019381433725357056,1.3304950445492727,0.07438871230119216,-0.058371778192357816,0.017687898129224777,-0.9712663292884827,-0.2373378723859787,0.005983277224004269,-0.035212207585573196,-0.020504508167505264,Walking,,,,,,,
475,Device Motion,40.443658532261026,-79.94422591856724,289.8245849609375,65.35208129882812,15.783613204956055,,,-1.0,-1.0,N/A,0.0356597900390625,-0.9886627197265625,-0.1982879638671875,0.014358432963490486,-0.007084541022777557,-0.029171200469136238,-55.10017395019531,-113.35580444335938,-317.872314453125,-0.010725978761911392,-0.003497302532196045,0.032591402530670166,1.3281277326544474,0.11774366714397164,-0.11295996104851108,0.02822781354188919,-0.970700204372406,-0.23863065242767334,0.060919128358364105,0.04969247430562973,-0.09904882311820984,Walking,,,,,,,
606,Gyrometer,40.443658532261026,-79.94422591856724,289.8245849609375,65.35208129882812,15.783613204956055,,,-1.0,-1.0,N/A,0.0356597900390625,-0.9886627197265625,-0.1982879638671875,0.0616053082048893,0.010164487175643444,-0.03592098131775856,-55.10017395019531,-113.35580444335938,-317.872314453125,-0.010725978761911392,-0.003497302532196045,0.032591402530670166,1.3281277326544474,0.11774366714397164,-0.11295996104851108,0.02822781354188919,-0.970700204372406,-0.23863065242767334,0.060919128358364105,0.04969247430562973,-0.09904882311820984,Walking,,,,,,,
619,COMPASS,40.443658532261026,-79.94422591856724,289.8245849609375,66.36298370361328,15.7831449508667,,,-1.0,-1.0,N/A,0.0356597900390625,-0.9886627197265625,-0.1982879638671875,0.0616053082048893,0.010164487175643444,-0.03592098131775856,-55.10017395019531,-113.35580444335938,-317.872314453125,-0.010725978761911392,-0.003497302532196045,0.032591402530670166,1.3281277326544474,0.11774366714397164,-0.11295996104851108,0.02822781354188919,-0.970700204372406,-0.23863065242767334,0.060919128358364105,0.04969247430562973,-0.09904882311820984,Walking,,,,,,,
662,Magnetometer,40.443658532261026,-79.94422591856724,289.8245849609375,66.36298370361328,15.7831449508667,,,-1.0,-1.0,N/A,0.0356597900390625,-0.9886627197265625,-0.1982879638671875,0.0616053082048893,0.010164487175643444,-0.03592098131775856,-54.862701416015625,-113.52006530761719,-317.54803466796875,-0.010725978761911392,-0.003497302532196045,0.032591402530670166,1.3281277326544474,0.11774366714397164,-0.11295996104851108,0.02822781354188919,-0.970700204372406,-0.23863065242767334,0.060919128358364105,0.04969247430562973,-0.09904882311820984,Walking,,,,,,,
690,GPS,40.443738869237706,-79.94430490701362,289.85426330566406,66.36298370361328,15.7831449508667,,,-1.0,-1.0,N/A,0.0356597900390625,-0.9886627197265625,-0.1982879638671875,0.0616053082048893,0.010164487175643444,-0.03592098131775856,-54.862701416015625,-113.52006530761719,-317.54803466796875,-0.010725978761911392,-0.003497302532196045,0.032591402530670166,1.3281277326544474,0.11774366714397164,-0.11295996104851108,0.02822781354188919,-0.970700204372406,-0.23863065242767334,0.060919128358364105,0.04969247430562973,-0.09904882311820984,Walking,,,,,,,
721,Accelerometer,40.443738869237706,-79.94430490701362,289.85426330566406,66.36298370361328,15.7831449508667,,,-1.0,-1.0,N/A,0.0194244384765625,-0.965362548828125,-0.17327880859375,0.0616053082048893,0.010164487175643444,-0.03592098131775856,-54.862701416015625,-113.52006530761719,-317.54803466796875,-0.010725978761911392,-0.003497302532196045,0.032591402530670166,1.3281277326544474,0.11774366714397164,-0.11295996104851108,0.02822781354188919,-0.970700204372406,-0.23863065242767334,0.060919128358364105,0.04969247430562973,-0.09904882311820984,Walking,,,,,,,
774,Device Motion,40.443738869237706,-79.94430490701362,289.85426330566406,66.36298370361328,15.7831449508667,,,-1.0,-1.0,N/A,0.0194244384765625,-0.965362548828125,-0.17327880859375,0.0616053082048893,0.010164487175643444,-0.03592098131775856,-54.862701416015625,-113.52006530761719,-317.54803466796875,-0.04414502531290054,0.005217850208282471,0.07688470184803009,1.3169591309797426,0.13224603897062004,-0.13127432489204943,0.03311292454600334,-0.9679559469223022,-0.24892738461494446,-0.18031108379364014,0.03885827958583832,-0.023529881611466408,Walking,,,,,,,
907,Magnetometer,40.443738869237706,-79.94430490701362,289.85426330566406,66.36298370361328,15.7831449508667,,,-1.0,-1.0,N/A,0.0194244384765625,-0.965362548828125,-0.17327880859375,0.0616053082048893,0.010164487175643444,-0.03592098131775856,-54.42347717285156,-113.42453002929688,-319.7359619140625,-0.04414502531290054,0.005217850208282471,0.07688470184803009,1.3169591309797426,0.13224603897062004,-0.13127432489204943,0.03311292454600334,-0.9679559469223022,-0.24892738461494446,-0.18031108379364014,0.03885827958583832,-0.023529881611466408,Walking,,,,,,,
944,Gyrometer,40.443738869237706,-79.94430490701362,289.85426330566406,66.36298370361328,15.7831449508667,,,-1.0,-1.0,N/A,0.0194244384765625,-0.965362548828125,-0.17327880859375,-0.14854340255260468,0.09866399317979813,-0.02436179853975773,-54.42347717285156,-113.42453002929688,-319.7359619140625,-0.04414502531290054,0.005217850208282471,0.07688470184803009,1.3169591309797426,0.13224603897062004,-0.13127432489204943,0.03311292454600334,-0.9679559469223022,-0.24892738461494446,-0.18031108379364014,0.03885827958583832,-0.023529881611466408,Walking,,,,,,,
976,Accelerometer,40.443738869237706,-79.94430490701362,289.85426330566406,66.36298370361328,15.7831449508667,,,-1.0,-1.0,N/A,0.0181427001953125,-0.9873809814453125,-0.196502685546875,-0.14854340255260468,0.09866399317979813,-0.02436179853975773,-54.42347717285156,-113.42453002929688,-319.7359619140625,-0.04414502531290054,0.005217850208282471,0.07688470184803009,1.3169591309797426,0.13224603897062004,-0.13127432489204943,0.03311292454600334,-0.9679559469223022,-0.24892738461494446,-0.18031108379364014,0.03885827958583832,-0.023529881611466408,Walking,,,,,,,
1028,Altimeter,40.443738869237706,-79.94430490701362,289.85426330566406,66.36298370361328,15.7831449508667,0,98.08087921142578,-1.0,-1.0,N/A,0.0181427001953125,-0.9873809814453125,-0.196502685546875,-0.14854340255260468,0.09866399317979813,-0.02436179853975773,-54.42347717285156,-113.42453002929688,-319.7359619140625,-0.04414502531290054,0.005217850208282471,0.07688470184803009,1.3169591309797426,0.13224603897062004,-0.13127432489204943,0.03311292454600334,-0.9679559469223022,-0.24892738461494446,-0.18031108379364014,0.03885827958583832,-0.023529881611466408,Walking,,,,,,,
1074,Device Motion,40.443738869237706,-79.94430490701362,289.85426330566406,66.36298370361328,15.7831449508667,0,98.08087921142578,-1.0,-1.0,N/A,0.0181427001953125,-0.9873809814453125,-0.196502685546875,-0.14854340255260468,0.09866399317979813,-0.02436179853975773,-54.42347717285156,-113.42453002929688,-319.7359619140625,-0.03026052564382553,-0.08165454864501953,0.039841532707214355,1.3078663179958072,0.14286044461245181,-0.12453675068158447,0.03700491413474083,-0.9656325578689575,-0.25726380944252014,0.10855109989643097,0.06544080376625061,0.039031825959682465,Walking,,,,,,,
1109,COMPASS,40.443738869237706,-79.94430490701362,289.85426330566406,65.285400390625,15.784747123718262,0,98.08087921142578,-1.0,-1.0,N/A,0.0181427001953125,-0.9873809814453125,-0.196502685546875,-0.14854340255260468,0.09866399317979813,-0.02436179853975773,-54.42347717285156,-113.42453002929688,-319.7359619140625,-0.03026052564382553,-0.08165454864501953,0.039841532707214355,1.3078663179958072,0.14286044461245181,-0.12453675068158447,0.03700491413474083,-0.9656325578689575,-0.25726380944252014,0.10855109989643097,0.06544080376625061,0.039031825959682465,Walking,,,,,,,
1207,Magnetometer,40.443738869237706,-79.94430490701362,289.85426330566406,65.285400390625,15.784747123718262,0,98.08087921142578,-1.0,-1.0,N/A,0.0181427001953125,-0.9873809814453125,-0.196502685546875,-0.14854340255260468,0.09866399317979813,-0.02436179853975773,-54.9940185546875,-112.96678161621094,-320.74517822265625,-0.03026052564382553,-0.08165454864501953,0.039841532707214355,1.3078663179958072,0.14286044461245181,-0.12453675068158447,0.03700491413474083,-0.9656325578689575,-0.25726380944252014,0.10855109989643097,0.06544080376625061,0.039031825959682465,Walking,,,,,,,
1242,Gyrometer,40.443738869237706,-79.94430490701362,289.85426330566406,65.285400390625,15.784747123718262,0,98.08087921142578,-1.0,-1.0,N/A,0.0181427001953125,-0.9873809814453125,-0.196502685546875,0.23575367033481598,0.11548584699630737,0.04530516266822815,-54.9940185546875,-112.96678161621094,-320.74517822265625,-0.03026052564382553,-0.08165454864501953,0.039841532707214355,1.3078663179958072,0.14286044461245181,-0.12453675068158447,0.03700491413474083,-0.9656325578689575,-0.25726380944252014,0.10855109989643097,0.06544080376625061,0.039031825959682465,Walking,,,,,,,
1273,COMPASS,40.443738869237706,-79.94430490701362,289.85426330566406,64.28305053710938,15.78633975982666,0,98.08087921142578,-1.0,-1.0,N/A,0.0181427001953125,-0.9873809814453125,-0.196502685546875,0.23575367033481598,0.11548584699630737,0.04530516266822815,-54.9940185546875,-112.96678161621094,-320.74517822265625,-0.03026052564382553,-0.08165454864501953,0.039841532707214355,1.3078663179958072,0.14286044461245181,-0.12453675068158447,0.03700491413474083,-0.9656325578689575,-0.25726380944252014,0.10855109989643097,0.06544080376625061,0.039031825959682465,Walking,,,,,,,
1301,Accelerometer,40.443738869237706,-79.94430490701362,289.85426330566406,64.28305053710938,15.78633975982666,0,98.08087921142578,-1.0,-1.0,N/A,0.0492401123046875,-1.0504608154296875,-0.1934661865234375,0.23575367033481598,0.11548584699630737,0.04530516266822815,-54.9940185546875,-112.96678161621094,-320.74517822265625,-0.03026052564382553,-0.08165454864501953,0.039841532707214355,1.3078663179958072,0.14286044461245181,-0.12453675068158447,0.03700491413474083,-0.9656325578689575,-0.25726380944252014,0.10855109989643097,0.06544080376625061,0.039031825959682465,Walking,,,,,,,
1330,COMPASS,40.443738869237706,-79.94430490701362,289.85426330566406,62.96452331542969,15.787225723266602,0,98.08087921142578,-1.0,-1.0,N/A,0.0492401123046875,-1.0504608154296875,-0.1934661865234375,0.23575367033481598,0.11548584699630737,0.04530516266822815,-54.9940185546875,-112.96678161621094,-320.74517822265625,-0.03026052564382553,-0.08165454864501953,0.039841532707214355,1.3078663179958072,0.14286044461245181,-0.12453675068158447,0.03700491413474083,-0.9656325578689575,-0.25726380944252014,0.10855109989643097,0.06544080376625061,0.039031825959682465,Walking,,,,,,,
1373,Device Motion,40.443738869237706,-79.94430490701362,289.85426330566406,62.96452331542969,15.787225723266602,0,98.08087921142578,-1.0,-1.0,N/A,0.0492401123046875,-1.0504608154296875,-0.1934661865234375,0.23575367033481598,0.11548584699630737,0.04530516266822815,-54.9940185546875,-112.96678161621094,-320.74517822265625,0.009150028228759766,0.07759302854537964,-0.015901505947113037,1.3431470516509154,0.07615795077962946,-0.02214278505373189,0.017171382904052734,-0.9741995930671692,-0.22503457963466644,-0.006605852860957384,0.1767214834690094,0.09547097235918045,Walking,,,,,,,
1428,COMPASS,40.443738869237706,-79.94430490701362,289.85426330566406,61.743194580078125,15.788223266601562,0,98.08087921142578,-1.0,-1.0,N/A,0.0492401123046875,-1.0504608154296875,-0.1934661865234375,0.23575367033481598,0.11548584699630737,0.04530516266822815,-54.9940185546875,-112.96678161621094,-320.74517822265625,0.009150028228759766,0.07759302854537964,-0.015901505947113037,1.3431470516509154,0.07615795077962946,-0.02214278505373189,0.017171382904052734,-0.9741995930671692,-0.22503457963466644,-0.006605852860957384,0.1767214834690094,0.09547097235918045,Walking,,,,,,,
1505,Magnetometer,40.443738869237706,-79.94430490701362,289.85426330566406,61.743194580078125,15.788223266601562,0,98.08087921142578,-1.0,-1.0,N/A,0.0492401123046875,-1.0504608154296875,-0.1934661865234375,0.23575367033481598,0.11548584699630737,0.04530516266822815,-56.007049560546875,-112.41510009765625,-322.611083984375,0.009150028228759766,0.07759302854537964,-0.015901505947113037,1.3431470516509154,0.07615795077962946,-0.02214278505373189,0.017171382904052734,-0.9741995930671692,-0.22503457963466644,-0.006605852860957384,0.1767214834690094,0.09547097235918045,Walking,,,,,,,
1540,Gyrometer,40.443738869237706,-79.94430490701362,289.85426330566406,61.743194580078125,15.788223266601562,0,98.08087921142578,-1.0,-1.0,N/A,0.0492401123046875,-1.0504608154296875,-0.1934661865234375,-0.07648971676826477,0.10572350025177002,0.08838339149951935,-56.007049560546875,-112.41510009765625,-322.611083984375,0.009150028228759766,0.07759302854537964,-0.015901505947113037,1.3431470516509154,0.07615795077962946,-0.02214278505373189,0.017171382904052734,-0.9741995930671692,-0.22503457963466644,-0.006605852860957384,0.1767214834690094,0.09547097235918045,Walking,,,,,,,
1571,COMPASS,40.443738869237706,-79.94430490701362,289.85426330566406,60.603187561035156,15.789510726928711,0,98.08087921142578,-1.0,-1.0,N/A,0.0492401123046875,-1.0504608154296875,-0.1934661865234375,-0.07648971676826477,0.10572350025177002,0.08838339149951935,-56.007049560546875,-112.41510009765625,-322.611083984375,0.009150028228759766,0.07759302854537964,-0.015901505947113037,1.3431470516509154,0.07615795077962946,-0.02214278505373189,0.017171382904052734,-0.9741995930671692,-0.22503457963466644,-0.006605852860957384,0.1767214834690094,0.09547097235918045,Walking,,,,,,,
1586,Accelerometer,40.443738869237706,-79.94430490701362,289.85426330566406,60.603187561035156,15.789510726928711,0,98.08087921142578,-1.0,-1.0,N/A,0.041656494140625,-0.8963775634765625,-0.20404052734375,-0.07648971676826477,0.10572350025177002,0.08838339149951935,-56.007049560546875,-112.41510009765625,-322.611083984375,0.009150028228759766,0.07759302854537964,-0.015901505947113037,1.3431470516509154,0.07615795077962946,-0.02214278505373189,0.017171382904052734,-0.9741995930671692,-0.22503457963466644,-0.006605852860957384,0.1767214834690094,0.09547097235918045,Walking,,,,,,,
1672,Device Motion,40.443738869237706,-79.94430490701362,289.85426330566406,60.603187561035156,15.789510726928711,0,98.08087921142578,-1.0,-1.0,N/A,0.041656494140625,-0.8963775634765625,-0.20404052734375,-0.07648971676826477,0.10572350025177002,0.08838339149951935,-56.007049560546875,-112.41510009765625,-322.611083984375,0.05028107762336731,0.032985568046569824,0.04206529259681702,1.3203096947073882,0.02479692236930213,0.05909911978404505,0.006145921070128679,-0.9687919020652771,-0.247799351811409,-0.17367349565029144,0.015269417315721512,-0.000710743828676641,Walking,,,,,,,
1805,Magnetometer,40.443738869237706,-79.94430490701362,289.85426330566406,60.603187561035156,15.789510726928711,0,98.08087921142578,-1.0,-1.0,N/A,0.041656494140625,-0.8963775634765625,-0.20404052734375,-0.07648971676826477,0.10572350025177002,0.08838339149951935,-56.846923828125,-111.51319885253906,-324.55120849609375,0.05028107762336731,0.032985568046569824,0.04206529259681702,1.3203096947073882,0.02479692236930213,0.05909911978404505,0.006145921070128679,-0.9687919020652771,-0.247799351811409,-0.17367349565029144,0.015269417315721512,-0.000710743828676641,Walking,,,,,,,
1840,Gyrometer,40.443738869237706,-79.94430490701362,289.85426330566406,60.603187561035156,15.789510726928711,0,98.08087921142578,-1.0,-1.0,N/A,0.041656494140625,-0.8963775634765625,-0.20404052734375,0.18088988959789276,0.0016740630380809307,0.019361980259418488,-56.846923828125,-111.51319885253906,-324.55120849609375,0.05028107762336731,0.032985568046569824,0.04206529259681702,1.3203096947073882,0.02479692236930213,0.05909911978404505,0.006145921070128679,-0.9687919020652771,-0.247799351811409,-0.17367349565029144,0.015269417315721512,-0.000710743828676641,Walking,,,,,,,
1872,Accelerometer,40.443738869237706,-79.94430490701362,289.85426330566406,60.603187561035156,15.789510726928711,0,98.08087921142578,-1.0,-1.0,N/A,0.04754638671875,-1.0360260009765625,-0.1981353759765625,0.18088988959789276,0.0016740630380809307,0.019361980259418488,-56.846923828125,-111.51319885253906,-324.55120849609375,0.05028107762336731,0.032985568046569824,0.04206529259681702,1.3203096947073882,0.02479692236930213,0.05909911978404505,0.006145921070128679,-0.9687919020652771,-0.247799351811409,-0.17367349565029144,0.015269417315721512,-0.000710743828676641,Walking,,,,,,,
1971,Device Motion,40.443738869237706,-79.94430490701362,289.85426330566406,60.603187561035156,15.789510726928711,0,98.08087921142578,-1.0,-1.0,N/A,0.04754638671875,-1.0360260009765625,-0.1981353759765625,0.18088988959789276,0.0016740630380809307,0.019361980259418488,-56.846923828125,-111.51319885253906,-324.55120849609375,0.008743499405682087,-0.12385129928588867,-0.002184838056564331,1.3566686061663638,0.03246163735462598,0.038133895135914565,0.006896758917719126,-0.9771621227264404,-0.21238411962985992,0.11882813274860382,-0.0935521349310875,-0.18634212017059326,Walking,,,,,,,
2036,Altimeter,40.443738869237706,-79.94430490701362,289.85426330566406,60.603187561035156,15.789510726928711,0.023773193359375,98.08058929443359,-1.0,-1.0,N/A,0.04754638671875,-1.0360260009765625,-0.1981353759765625,0.18088988959789276,0.0016740630380809307,0.019361980259418488,-56.846923828125,-111.51319885253906,-324.55120849609375,0.008743499405682087,-0.12385129928588867,-0.002184838056564331,1.3566686061663638,0.03246163735462598,0.038133895135914565,0.006896758917719126,-0.9771621227264404,-0.21238411962985992,0.11882813274860382,-0.0935521349310875,-0.18634212017059326,Walking,,,,,,,
2068,COMPASS,40.443738869237706,-79.94430490701362,289.85426330566406,61.62062072753906,15.793547630310059,0.023773193359375,98.08058929443359,-1.0,-1.0,N/A,0.04754638671875,-1.0360260009765625,-0.1981353759765625,0.18088988959789276,0.0016740630380809307,0.019361980259418488,-56.846923828125,-111.51319885253906,-324.55120849609375,0.008743499405682087,-0.12385129928588867,-0.002184838056564331,1.3566686061663638,0.03246163735462598,0.038133895135914565,0.006896758917719126,-0.9771621227264404,-0.21238411962985992,0.11882813274860382,-0.0935521349310875,-0.18634212017059326,Walking,,,,,,,
2104,Magnetometer,40.443738869237706,-79.94430490701362,289.85426330566406,61.62062072753906,15.793547630310059,0.023773193359375,98.08058929443359,-1.0,-1.0,N/A,0.04754638671875,-1.0360260009765625,-0.1981353759765625,0.18088988959789276,0.0016740630380809307,0.019361980259418488,-57.58638000488281,-112.30601501464844,-325.3203125,0.008743499405682087,-0.12385129928588867,-0.002184838056564331,1.3566686061663638,0.03246163735462598,0.038133895135914565,0.006896758917719126,-0.9771621227264404,-0.21238411962985992,0.11882813274860382,-0.0935521349310875,-0.18634212017059326,Walking,,,,,,,
2133,COMPASS,40.443738869237706,-79.94430490701362,289.85426330566406,63.08409118652344,15.79445743560791,0.023773193359375,98.08058929443359,-1.0,-1.0,N/A,0.04754638671875,-1.0360260009765625,-0.1981353759765625,0.18088988959789276,0.0016740630380809307,0.019361980259418488,-57.58638000488281,-112.30601501464844,-325.3203125,0.008743499405682087,-0.12385129928588867,-0.002184838056564331,1.3566686061663638,0.03246163735462598,0.038133895135914565,0.006896758917719126,-0.9771621227264404,-0.21238411962985992,0.11882813274860382,-0.0935521349310875,-0.18634212017059326,Walking,,,,,,,
2161,Gyrometer,40.443738869237706,-79.94430490701362,289.85426330566406,63.08409118652344,15.79445743560791,0.023773193359375,98.08058929443359,-1.0,-1.0,N/A,0.04754638671875,-1.0360260009765625,-0.1981353759765625,-0.026882747188210487,-0.4790787100791931,-0.1288788914680481,-57.58638000488281,-112.30601501464844,-325.3203125,0.008743499405682087,-0.12385129928588867,-0.002184838056564331,1.3566686061663638,0.03246163735462598,0.038133895135914565,0.006896758917719126,-0.9771621227264404,-0.21238411962985992,0.11882813274860382,-0.0935521349310875,-0.18634212017059326,Walking,,,,,,,
2187,COMPASS,40.443738869237706,-79.94430490701362,289.85426330566406,64.31602478027344,15.794918060302734,0.023773193359375,98.08058929443359,-1.0,-1.0,N/A,0.04754638671875,-1.0360260009765625,-0.1981353759765625,-0.026882747188210487,-0.4790787100791931,-0.1288788914680481,-57.58638000488281,-112.30601501464844,-325.3203125,0.008743499405682087,-0.12385129928588867,-0.002184838056564331,1.3566686061663638,0.03246163735462598,0.038133895135914565,0.006896758917719126,-0.9771621227264404,-0.21238411962985992,0.11882813274860382,-0.0935521349310875,-0.18634212017059326,Walking,,,,,,,
2215,Accelerometer,40.443738869237706,-79.94430490701362,289.85426330566406,64.31602478027344,15.794918060302734,0.023773193359375,98.08058929443359,-1.0,-1.0,N/A,-0.0510101318359375,-0.9026336669921875,-0.2542877197265625,-0.026882747188210487,-0.4790787100791931,-0.1288788914680481,-57.58638000488281,-112.30601501464844,-325.3203125,0.008743499405682087,-0.12385129928588867,-0.002184838056564331,1.3566686061663638,0.03246163735462598,0.038133895135914565,0.006896758917719126,-0.9771621227264404,-0.21238411962985992,0.11882813274860382,-0.0935521349310875,-0.18634212017059326,Walking,,,,,,,
2243,COMPASS,40.443738869237706,-79.94430490701362,289.85426330566406,65.50852966308594,15.795610427856445,0.023773193359375,98.08058929443359,-1.0,-1.0,N/A,-0.0510101318359375,-0.9026336669921875,-0.2542877197265625,-0.026882747188210487,-0.4790787100791931,-0.1288788914680481,-57.58638000488281,-112.30601501464844,-325.3203125,0.008743499405682087,-0.12385129928588867,-0.002184838056564331,1.3566686061663638,0.03246163735462598,0.038133895135914565,0.006896758917719126,-0.9771621227264404,-0.21238411962985992,0.11882813274860382,-0.0935521349310875,-0.18634212017059326,Walking,,,,,,,
2272,Device Motion,40.443738869237706,-79.94430490701362,289.85426330566406,65.50852966308594,15.795610427856445,0.023773193359375,98.08058929443359,-1.0,-1.0,N/A,-0.0510101318359375,-0.9026336669921875,-0.2542877197265625,-0.026882747188210487,-0.4790787100791931,-0.1288788914680481,-57.58638000488281,-112.30601501464844,-325.3203125,-0.03304344788193703,0.1021493673324585,-0.06199197471141815,1.3278521929303795,0.14920317774273598,-0.13670620453044666,0.035759516060352325,-0.9706339240074158,-0.23788879811763763,-0.4464430809020996,-0.1295195370912552,-0.04818015918135643,Walking,,,,,,,
2346,COMPASS,40.443738869237706,-79.94430490701362,289.85426330566406,66.70515441894531,15.797003746032715,0.023773193359375,98.08058929443359,-1.0,-1.0,N/A,-0.0510101318359375,-0.9026336669921875,-0.2542877197265625,-0.026882747188210487,-0.4790787100791931,-0.1288788914680481,-57.58638000488281,-112.30601501464844,-325.3203125,-0.03304344788193703,0.1021493673324585,-0.06199197471141815,1.3278521929303795,0.14920317774273598,-0.13670620453044666,0.035759516060352325,-0.9706339240074158,-0.23788879811763763,-0.4464430809020996,-0.1295195370912552,-0.04818015918135643,Walking,,,,,,,
2405,Magnetometer,40.443738869237706,-79.94430490701362,289.85426330566406,66.70515441894531,15.797003746032715,0.023773193359375,98.08058929443359,-1.0,-1.0,N/A,-0.0510101318359375,-0.9026336669921875,-0.2542877197265625,-0.026882747188210487,-0.4790787100791931,-0.1288788914680481,-58.161468505859375,-112.49752807617188,-325.4268493652344,-0.03304344788193703,0.1021493673324585,-0.06199197471141815,1.3278521929303795,0.14920317774273598,-0.13670620453044666,0.035759516060352325,-0.9706339240074158,-0.23788879811763763,-0.4464430809020996,-0.1295195370912552,-0.04818015918135643,Walking,,,,,,,
2440,COMPASS,40.443738869237706,-79.94430490701362,289.85426330566406,67.7210693359375,15.797937393188477,0.023773193359375,98.08058929443359,-1.0,-1.0,N/A,-0.0510101318359375,-0.9026336669921875,-0.2542877197265625,-0.026882747188210487,-0.4790787100791931,-0.1288788914680481,-58.161468505859375,-112.49752807617188,-325.4268493652344,-0.03304344788193703,0.1021493673324585,-0.06199197471141815,1.3278521929303795,0.14920317774273598,-0.13670620453044666,0.035759516060352325,-0.9706339240074158,-0.23788879811763763,-0.4464430809020996,-0.1295195370912552,-0.04818015918135643,Walking,,,,,,,
2471,Gyrometer,40.443738869237706,-79.94430490701362,289.85426330566406,67.7210693359375,15.797937393188477,0.023773193359375,98.08058929443359,-1.0,-1.0,N/A,-0.0510101318359375,-0.9026336669921875,-0.2542877197265625,-0.06312677264213562,-0.11656016856431961,-0.056224923580884933,-58.161468505859375,-112.49752807617188,-325.4268493652344,-0.03304344788193703,0.1021493673324585,-0.06199197471141815,1.3278521929303795,0.14920317774273598,-0.13670620453044666,0.035759516060352325,-0.9706339240074158,-0.23788879811763763,-0.4464430809020996,-0.1295195370912552,-0.04818015918135643,Walking,,,,,,,
2497,Accelerometer,40.443738869237706,-79.94430490701362,289.85426330566406,67.7210693359375,15.797937393188477,0.023773193359375,98.08058929443359,-1.0,-1.0,N/A,-0.007110595703125,-0.9314727783203125,-0.2594451904296875,-0.06312677264213562,-0.11656016856431961,-0.056224923580884933,-58.161468505859375,-112.49752807617188,-325.4268493652344,-0.03304344788193703,0.1021493673324585,-0.06199197471141815,1.3278521929303795,0.14920317774273598,-0.13670620453044666,0.035759516060352325,-0.9706339240074158,-0.23788879811763763,-0.4464430809020996,-0.1295195370912552,-0.04818015918135643,Walking,,,,,,,
2569,Device Motion,40.443738869237706,-79.94430490701362,289.85426330566406,67.7210693359375,15.797937393188477,0.023773193359375,98.08058929443359,-1.0,-1.0,N/A,-0.007110595703125,-0.9314727783203125,-0.2594451904296875,-0.06312677264213562,-0.11656016856431961,-0.056224923580884933,-58.161468505859375,-112.49752807617188,-325.4268493652344,-0.03833683207631111,-0.09926396608352661,0.025596022605895996,1.3154254791821045,0.14771167982313949,-0.1818358596370161,0.03717717528343201,-0.9675697088241577,-0.24985426664352417,0.09369917958974838,-0.10248412191867828,0.006069563794881105,Walking,,,,,,,
2625,COMPASS,40.443738869237706,-79.94430490701362,289.85426330566406,68.92378997802734,15.799803733825684,0.023773193359375,98.08058929443359,-1.0,-1.0,N/A,-0.007110595703125,-0.9314727783203125,-0.2594451904296875,-0.06312677264213562,-0.11656016856431961,-0.056224923580884933,-58.161468505859375,-112.49752807617188,-325.4268493652344,-0.03833683207631111,-0.09926396608352661,0.025596022605895996,1.3154254791821045,0.14771167982313949,-0.1818358596370161,0.03717717528343201,-0.9675697088241577,-0.24985426664352417,0.09369917958974838,-0.10248412191867828,0.006069563794881105,Walking,,,,,,,
2685,COMPASS,40.443738869237706,-79.94430490701362,289.85426330566406,69.98081970214844,15.800483703613281,0.023773193359375,98.08058929443359,-1.0,-1.0,N/A,-0.007110595703125,-0.9314727783203125,-0.2594451904296875,-0.06312677264213562,-0.11656016856431961,-0.056224923580884933,-58.161468505859375,-112.49752807617188,-325.4268493652344,-0.03833683207631111,-0.09926396608352661,0.025596022605895996,1.3154254791821045,0.14771167982313949,-0.1818358596370161,0.03717717528343201,-0.9675697088241577,-0.24985426664352417,0.09369917958974838,-0.10248412191867828,0.006069563794881105,Walking,,,,,,,
2718,Magnetometer,40.443738869237706,-79.94430490701362,289.85426330566406,69.98081970214844,15.800483703613281,0.023773193359375,98.08058929443359,-1.0,-1.0,N/A,-0.007110595703125,-0.9314727783203125,-0.2594451904296875,-0.06312677264213562,-0.11656016856431961,-0.056224923580884933,-59.012908935546875,-112.26710510253906,-324.4130554199219,-0.03833683207631111,-0.09926396608352661,0.025596022605895996,1.3154254791821045,0.14771167982313949,-0.1818358596370161,0.03717717528343201,-0.9675697088241577,-0.24985426664352417,0.09369917958974838,-0.10248412191867828,0.006069563794881105,Walking,,,,,,,
2748,COMPASS,40.443738869237706,-79.94430490701362,289.85426330566406,71.23917388916016,15.801162719726562,0.023773193359375,98.08058929443359,-1.0,-1.0,N/A,-0.007110595703125,-0.9314727783203125,-0.2594451904296875,-0.06312677264213562,-0.11656016856431961,-0.056224923580884933,-59.012908935546875,-112.26710510253906,-324.4130554199219,-0.03833683207631111,-0.09926396608352661,0.025596022605895996,1.3154254791821045,0.14771167982313949,-0.1818358596370161,0.03717717528343201,-0.9675697088241577,-0.24985426664352417,0.09369917958974838,-0.10248412191867828,0.006069563794881105,Walking,,,,,,,
2762,Gyrometer,40.443738869237706,-79.94430490701362,289.85426330566406,71.23917388916016,15.801162719726562,0.023773193359375,98.08058929443359,-1.0,-1.0,N/A,-0.007110595703125,-0.9314727783203125,-0.2594451904296875,0.5806785821914673,-0.16147518157958984,-0.19968008995056152,-59.012908935546875,-112.26710510253906,-324.4130554199219,-0.03833683207631111,-0.09926396608352661,0.025596022605895996,1.3154254791821045,0.14771167982313949,-0.1818358596370161,0.03717717528343201,-0.9675697088241577,-0.24985426664352417,0.09369917958974838,-0.10248412191867828,0.006069563794881105,Walking,,,,,,,
2789,Accelerometer,40.443738869237706,-79.94430490701362,289.85426330566406,71.23917388916016,15.801162719726562,0.023773193359375,98.08058929443359,-1.0,-1.0,N/A,0.0380859375,-1.0303192138671875,-0.19091796875,0.5806785821914673,-0.16147518157958984,-0.19968008995056152,-59.012908935546875,-112.26710510253906,-324.4130554199219,-0.03833683207631111,-0.09926396608352661,0.025596022605895996,1.3154254791821045,0.14771167982313949,-0.1818358596370161,0.03717717528343201,-0.9675697088241577,-0.24985426664352417,0.09369917958974838,-0.10248412191867828,0.006069563794881105,Walking,,,,,,,
2824,COMPASS,40.443738869237706,-79.94430490701362,289.85426330566406,72.29998016357422,15.80203914642334,0.023773193359375,98.08058929443359,-1.0,-1.0,N/A,0.0380859375,-1.0303192138671875,-0.19091796875,0.5806785821914673,-0.16147518157958984,-0.19968008995056152,-59.012908935546875,-112.26710510253906,-324.4130554199219,-0.03833683207631111,-0.09926396608352661,0.025596022605895996,1.3154254791821045,0.14771167982313949,-0.1818358596370161,0.03717717528343201,-0.9675697088241577,-0.24985426664352417,0.09369917958974838,-0.10248412191867828,0.006069563794881105,Walking,,,,,,,
2868,Device Motion,40.443738869237706,-79.94430490701362,289.85426330566406,72.29998016357422,15.80203914642334,0.023773193359375,98.08058929443359,-1.0,-1.0,N/A,0.0380859375,-1.0303192138671875,-0.19091796875,0.5806785821914673,-0.16147518157958984,-0.19968008995056152,-59.012908935546875,-112.26710510253906,-324.4130554199219,-0.0039079561829566956,0.1363539695739746,-0.032701075077056885,1.3527405228855969,0.2505481050995038,-0.3462059931090924,0.05363636836409569,-0.9763199090957642,-0.2095777690410614,0.015340711921453476,-0.20204035937786102,-0.06042104586958885,Walking,,,,,,,
2904,COMPASS,40.443738869237706,-79.94430490701362,289.85426330566406,73.30467987060547,15.802911758422852,0.023773193359375,98.08058929443359,-1.0,-1.0,N/A,0.0380859375,-1.0303192138671875,-0.19091796875,0.5806785821914673,-0.16147518157958984,-0.19968008995056152,-59.012908935546875,-112.26710510253906,-324.4130554199219,-0.0039079561829566956,0.1363539695739746,-0.032701075077056885,1.3527405228855969,0.2505481050995038,-0.3462059931090924,0.05363636836409569,-0.9763199090957642,-0.2095777690410614,0.015340711921453476,-0.20204035937786102,-0.06042104586958885,Walking,,,,,,,
3003,Magnetometer,40.443738869237706,-79.94430490701362,289.85426330566406,73.30467987060547,15.802911758422852,0.023773193359375,98.08058929443359,-1.0,-1.0,N/A,0.0380859375,-1.0303192138671875,-0.19091796875,0.5806785821914673,-0.16147518157958984,-0.19968008995056152,-58.95921325683594,-111.50028991699219,-322.2135314941406,-0.0039079561829566956,0.1363539695739746,-0.032701075077056885,1.3527405228855969,0.2505481050995038,-0.3462059931090924,0.05363636836409569,-0.9763199090957642,-0.2095777690410614,0.015340711921453476,-0.20204035937786102,-0.06042104586958885,Walking,,,,,,,
3033,COMPASS,40.443738869237706,-79.94430490701362,289.85426330566406,74.67121124267578,15.804248809814453,0.023773193359375,98.08058929443359,-1.0,-1.0,N/A,0.0380859375,-1.0303192138671875,-0.19091796875,0.5806785821914673,-0.16147518157958984,-0.19968008995056152,-58.95921325683594,-111.50028991699219,-322.2135314941406,-0.0039079561829566956,0.1363539695739746,-0.032701075077056885,1.3527405228855969,0.2505481050995038,-0.3462059931090924,0.05363636836409569,-0.9763199090957642,-0.2095777690410614,0.015340711921453476,-0.20204035937786102,-0.06042104586958885,Walking,,,,,,,
3063,Gyrometer,40.443738869237706,-79.94430490701362,289.85426330566406,74.67121124267578,15.804248809814453,0.023773193359375,98.08058929443359,-1.0,-1.0,N/A,0.0380859375,-1.0303192138671875,-0.19091796875,-0.3139163851737976,-0.49467310309410095,0.0005193164106458426,-58.95921325683594,-111.50028991699219,-322.2135314941406,-0.0039079561829566956,0.1363539695739746,-0.032701075077056885,1.3527405228855969,0.2505481050995038,-0.3462059931090924,0.05363636836409569,-0.9763199090957642,-0.2095777690410614,0.015340711921453476,-0.20204035937786102,-0.06042104586958885,Walking,,,,,,,
3093,COMPASS,40.443738869237706,-79.94430490701362,289.85426330566406,75.70853424072266,15.804702758789062,0.023773193359375,98.08058929443359,-1.0,-1.0,N/A,0.0380859375,-1.0303192138671875,-0.19091796875,-0.3139163851737976,-0.49467310309410095,0.0005193164106458426,-58.95921325683594,-111.50028991699219,-322.2135314941406,-0.0039079561829566956,0.1363539695739746,-0.032701075077056885,1.3527405228855969,0.2505481050995038,-0.3462059931090924,0.05363636836409569,-0.9763199090957642,-0.2095777690410614,0.015340711921453476,-0.20204035937786102,-0.06042104586958885,Walking,,,,,,,
3121,COMPASS,40.443738869237706,-79.94430490701362,289.85426330566406,76.8927230834961,15.805160522460938,0.023773193359375,98.08058929443359,-1.0,-1.0,N/A,0.0380859375,-1.0303192138671875,-0.19091796875,-0.3139163851737976,-0.49467310309410095,0.0005193164106458426,-58.95921325683594,-111.50028991699219,-322.2135314941406,-0.0039079561829566956,0.1363539695739746,-0.032701075077056885,1.3527405228855969,0.2505481050995038,-0.3462059931090924,0.05363636836409569,-0.9763199090957642,-0.2095777690410614,0.015340711921453476,-0.20204035937786102,-0.06042104586958885,Walking,,,,,,,
3147,COMPASS,40.443738869237706,-79.94430490701362,289.85426330566406,78.37825775146484,15.805618286132812,0.023773193359375,98.08058929443359,-1.0,-1.0,N/A,0.0380859375,-1.0303192138671875,-0.19091796875,-0.3139163851737976,-0.49467310309410095,0.0005193164106458426,-58.95921325683594,-111.50028991699219,-322.2135314941406,-0.0039079561829566956,0.1363539695739746,-0.032701075077056885,1.3527405228855969,0.2505481050995038,-0.3462059931090924,0.05363636836409569,-0.9763199090957642,-0.2095777690410614,0.015340711921453476,-0.20204035937786102,-0.06042104586958885,Walking,,,,,,,
3171,Altimeter,40.443738869237706,-79.94430490701362,289.85426330566406,78.37825775146484,15.805618286132812,0.050201416015625,98.08029937744141,-1.0,-1.0,N/A,0.0380859375,-1.0303192138671875,-0.19091796875,-0.3139163851737976,-0.49467310309410095,0.0005193164106458426,-58.95921325683594,-111.50028991699219,-322.2135314941406,-0.0039079561829566956,0.1363539695739746,-0.032701075077056885,1.3527405228855969,0.2505481050995038,-0.3462059931090924,0.05363636836409569,-0.9763199090957642,-0.2095777690410614,0.015340711921453476,-0.20204035937786102,-0.06042104586958885,Walking,,,,,,,
3197,COMPASS,40.443738869237706,-79.94430490701362,289.85426330566406,80.1025161743164,15.806077003479004,0.050201416015625,98.08029937744141,-1.0,-1.0,N/A,0.0380859375,-1.0303192138671875,-0.19091796875,-0.3139163851737976,-0.49467310309410095,0.0005193164106458426,-58.95921325683594,-111.50028991699219,-322.2135314941406,-0.0039079561829566956,0.1363539695739746,-0.032701075077056885,1.3527405228855969,0.2505481050995038,-0.3462059931090924,0.05363636836409569,-0.9763199090957642,-0.2095777690410614,0.015340711921453476,-0.20204035937786102,-0.06042104586958885,Walking,,,,,,,
3224,COMPASS,40.443738869237706,-79.94430490701362,289.85426330566406,81.91441345214844,15.806536674499512,0.050201416015625,98.08029937744141,-1.0,-1.0,N/A,0.0380859375,-1.0303192138671875,-0.19091796875,-0.3139163851737976,-0.49467310309410095,0.0005193164106458426,-58.95921325683594,-111.50028991699219,-322.2135314941406,-0.0039079561829566956,0.1363539695739746,-0.032701075077056885,1.3527405228855969,0.2505481050995038,-0.3462059931090924,0.05363636836409569,-0.9763199090957642,-0.2095777690410614,0.015340711921453476,-0.20204035937786102,-0.06042104586958885,Walking,,,,,,,
3252,Accelerometer,40.443738869237706,-79.94430490701362,289.85426330566406,81.91441345214844,15.806536674499512,0.050201416015625,98.08029937744141,-1.0,-1.0,N/A,0.024688720703125,-0.88214111328125,-0.2269744873046875,-0.3139163851737976,-0.49467310309410095,0.0005193164106458426,-58.95921325683594,-111.50028991699219,-322.2135314941406,-0.0039079561829566956,0.1363539695739746,-0.032701075077056885,1.3527405228855969,0.2505481050995038,-0.3462059931090924,0.05363636836409569,-0.9763199090957642,-0.2095777690410614,0.015340711921453476,-0.20204035937786102,-0.06042104586958885,Walking,,,,,,,
3280,COMPASS,40.443738869237706,-79.94430490701362,289.85426330566406,83.89183044433594,15.806994438171387,0.050201416015625,98.08029937744141,-1.0,-1.0,N/A,0.024688720703125,-0.88214111328125,-0.2269744873046875,-0.3139163851737976,-0.49467310309410095,0.0005193164106458426,-58.95921325683594,-111.50028991699219,-322.2135314941406,-0.0039079561829566956,0.1363539695739746,-0.032701075077056885,1.3527405228855969,0.2505481050995038,-0.3462059931090924,0.05363636836409569,-0.9763199090957642,-0.2095777690410614,0.015340711921453476,-0.20204035937786102,-0.06042104586958885,Walking,,,,,,,
3305,COMPASS,40.443738869237706,-79.94430490701362,289.85426330566406,84.89246368408203,15.807221412658691,0.050201416015625,98.08029937744141,-1.0,-1.0,N/A,0.024688720703125,-0.88214111328125,-0.2269744873046875,-0.3139163851737976,-0.49467310309410095,0.0005193164106458426,-58.95921325683594,-111.50028991699219,-322.2135314941406,-0.0039079561829566956,0.1363539695739746,-0.032701075077056885,1.3527405228855969,0.2505481050995038,-0.3462059931090924,0.05363636836409569,-0.9763199090957642,-0.2095777690410614,0.015340711921453476,-0.20204035937786102,-0.06042104586958885,Walking,,,,,,,
3329,COMPASS,40.443738869237706,-79.94430490701362,289.85426330566406,86.71903228759766,15.807670593261719,0.050201416015625,98.08029937744141,-1.0,-1.0,N/A,0.024688720703125,-0.88214111328125,-0.2269744873046875,-0.3139163851737976,-0.49467310309410095,0.0005193164106458426,-58.95921325683594,-111.50028991699219,-322.2135314941406,-0.0039079561829566956,0.1363539695739746,-0.032701075077056885,1.3527405228855969,0.2505481050995038,-0.3462059931090924,0.05363636836409569,-0.9763199090957642,-0.2095777690410614,0.015340711921453476,-0.20204035937786102,-0.06042104586958885,Walking,,,,,,,
3357,COMPASS,40.443738869237706,-79.94430490701362,289.85426330566406,87.73491668701172,15.807893753051758,0.050201416015625,98.08029937744141,-1.0,-1.0,N/A,0.024688720703125,-0.88214111328125,-0.2269744873046875,-0.3139163851737976,-0.49467310309410095,0.0005193164106458426,-58.95921325683594,-111.50028991699219,-322.2135314941406,-0.0039079561829566956,0.1363539695739746,-0.032701075077056885,1.3527405228855969,0.2505481050995038,-0.3462059931090924,0.05363636836409569,-0.9763199090957642,-0.2095777690410614,0.015340711921453476,-0.20204035937786102,-0.06042104586958885,Walking,,,,,,,
3383,COMPASS,40.443738869237706,-79.94430490701362,289.85426330566406,90.55918884277344,15.808341979980469,0.050201416015625,98.08029937744141,-1.0,-1.0,N/A,0.024688720703125,-0.88214111328125,-0.2269744873046875,-0.3139163851737976,-0.49467310309410095,0.0005193164106458426,-58.95921325683594,-111.50028991699219,-322.2135314941406,-0.0039079561829566956,0.1363539695739746,-0.032701075077056885,1.3527405228855969,0.2505481050995038,-0.3462059931090924,0.05363636836409569,-0.9763199090957642,-0.2095777690410614,0.015340711921453476,-0.20204035937786102,-0.06042104586958885,Walking,,,,,,,
3411,COMPASS,40.443738869237706,-79.94430490701362,289.85426330566406,92.13495635986328,15.808560371398926,0.050201416015625,98.08029937744141,-1.0,-1.0,N/A,0.024688720703125,-0.88214111328125,-0.2269744873046875,-0.3139163851737976,-0.49467310309410095,0.0005193164106458426,-58.95921325683594,-111.50028991699219,-322.2135314941406,-0.0039079561829566956,0.1363539695739746,-0.032701075077056885,1.3527405228855969,0.2505481050995038,-0.3462059931090924,0.05363636836409569,-0.9763199090957642,-0.2095777690410614,0.015340711921453476,-0.20204035937786102,-0.06042104586958885,Walking,,,,,,,
3436,COMPASS,40.443738869237706,-79.94430490701362,289.85426330566406,93.58501434326172,15.80877685546875,0.050201416015625,98.08029937744141,-1.0,-1.0,N/A,0.024688720703125,-0.88214111328125,-0.2269744873046875,-0.3139163851737976,-0.49467310309410095,0.0005193164106458426,-58.95921325683594,-111.50028991699219,-322.2135314941406,-0.0039079561829566956,0.1363539695739746,-0.032701075077056885,1.3527405228855969,0.2505481050995038,-0.3462059931090924,0.05363636836409569,-0.9763199090957642,-0.2095777690410614,0.015340711921453476,-0.20204035937786102,-0.06042104586958885,Walking,,,,,,,
3460,COMPASS,40.443738869237706,-79.94430490701362,289.85426330566406,94.9228744506836,15.808990478515625,0.050201416015625,98.08029937744141,-1.0,-1.0,N/A,0.024688720703125,-0.88214111328125,-0.2269744873046875,-0.3139163851737976,-0.49467310309410095,0.0005193164106458426,-58.95921325683594,-111.50028991699219,-322.2135314941406,-0.0039079561829566956,0.1363539695739746,-0.032701075077056885,1.3527405228855969,0.2505481050995038,-0.3462059931090924,0.05363636836409569,-0.9763199090957642,-0.2095777690410614,0.015340711921453476,-0.20204035937786102,-0.06042104586958885,Walking,,,,,,,
3487,Device Motion,40.443738869237706,-79.94430490701362,289.85426330566406,94.9228744506836,15.808990478515625,0.050201416015625,98.08029937744141,-1.0,-1.0,N/A,0.024688720703125,-0.88214111328125,-0.2269744873046875,-0.3139163851737976,-0.49467310309410095,0.0005193164106458426,-58.95921325683594,-111.50028991699219,-322.2135314941406,-0.008737724274396896,0.024247407913208008,0.002241462469100952,1.3089486629518277,0.12396178810524211,-0.35399167001945037,0.03200741484761238,-0.9659133553504944,-0.2568799555301666,-0.038716308772563934,-0.7294356822967529,-0.2087172567844391,Walking,,,,,,,
3514,COMPASS,40.443738869237706,-79.94430490701362,289.85426330566406,99.63825988769531,15.809636116027832,0.050201416015625,98.08029937744141,-1.0,-1.0,N/A,0.024688720703125,-0.88214111328125,-0.2269744873046875,-0.3139163851737976,-0.49467310309410095,0.0005193164106458426,-58.95921325683594,-111.50028991699219,-322.2135314941406,-0.008737724274396896,0.024247407913208008,0.002241462469100952,1.3089486629518277,0.12396178810524211,-0.35399167001945037,0.03200741484761238,-0.9659133553504944,-0.2568799555301666,-0.038716308772563934,-0.7294356822967529,-0.2087172567844391,Walking,,,,,,,
3542,COMPASS,40.443738869237706,-79.94430490701362,289.85426330566406,102.65029907226562,15.810068130493164,0.050201416015625,98.08029937744141,-1.0,-1.0,N/A,0.024688720703125,-0.88214111328125,-0.2269744873046875,-0.3139163851737976,-0.49467310309410095,0.0005193164106458426,-58.95921325683594,-111.50028991699219,-322.2135314941406,-0.008737724274396896,0.024247407913208008,0.002241462469100952,1.3089486629518277,0.12396178810524211,-0.35399167001945037,0.03200741484761238,-0.9659133553504944,-0.2568799555301666,-0.038716308772563934,-0.7294356822967529,-0.2087172567844391,Walking,,,,,,,
3569,COMPASS,40.443738869237706,-79.94430490701362,289.85426330566406,104.03406524658203,15.810286521911621,0.050201416015625,98.08029937744141,-1.0,-1.0,N/A,0.024688720703125,-0.88214111328125,-0.2269744873046875,-0.3139163851737976,-0.49467310309410095,0.0005193164106458426,-58.95921325683594,-111.50028991699219,-322.2135314941406,-0.008737724274396896,0.024247407913208008,0.002241462469100952,1.3089486629518277,0.12396178810524211,-0.35399167001945037,0.03200741484761238,-0.9659133553504944,-0.2568799555301666,-0.038716308772563934,-0.7294356822967529,-0.2087172567844391,Walking,,,,,,,
3598,COMPASS,40.443738869237706,-79.94430490701362,289.85426330566406,105.39556121826172,15.810504913330078,0.050201416015625,98.08029937744141,-1.0,-1.0,N/A,0.024688720703125,-0.88214111328125,-0.2269744873046875,-0.3139163851737976,-0.49467310309410095,0.0005193164106458426,-58.95921325683594,-111.50028991699219,-322.2135314941406,-0.008737724274396896,0.024247407913208008,0.002241462469100952,1.3089486629518277,0.12396178810524211,-0.35399167001945037,0.03200741484761238,-0.9659133553504944,-0.2568799555301666,-0.038716308772563934,-0.7294356822967529,-0.2087172567844391,Walking,,,,,,,
3625,COMPASS,40.443738869237706,-79.94430490701362,289.85426330566406,108.16654205322266,15.810943603515625,0.050201416015625,98.08029937744141,-1.0,-1.0,N/A,0.024688720703125,-0.88214111328125,-0.2269744873046875,-0.3139163851737976,-0.49467310309410095,0.0005193164106458426,-58.95921325683594,-111.50028991699219,-322.2135314941406,-0.008737724274396896,0.024247407913208008,0.002241462469100952,1.3089486629518277,0.12396178810524211,-0.35399167001945037,0.03200741484761238,-0.9659133553504944,-0.2568799555301666,-0.038716308772563934,-0.7294356822967529,-0.2087172567844391,Walking,,,,,,,
3653,COMPASS,40.443738869237706,-79.94430490701362,289.85426330566406,109.52640533447266,15.811165809631348,0.050201416015625,98.08029937744141,-1.0,-1.0,N/A,0.024688720703125,-0.88214111328125,-0.2269744873046875,-0.3139163851737976,-0.49467310309410095,0.0005193164106458426,-58.95921325683594,-111.50028991699219,-322.2135314941406,-0.008737724274396896,0.024247407913208008,0.002241462469100952,1.3089486629518277,0.12396178810524211,-0.35399167001945037,0.03200741484761238,-0.9659133553504944,-0.2568799555301666,-0.038716308772563934,-0.7294356822967529,-0.2087172567844391,Walking,,,,,,,
3681,COMPASS,40.443738869237706,-79.94430490701362,289.85426330566406,110.82933044433594,15.81138801574707,0.050201416015625,98.08029937744141,-1.0,-1.0,N/A,0.024688720703125,-0.88214111328125,-0.2269744873046875,-0.3139163851737976,-0.49467310309410095,0.0005193164106458426,-58.95921325683594,-111.50028991699219,-322.2135314941406,-0.008737724274396896,0.024247407913208008,0.002241462469100952,1.3089486629518277,0.12396178810524211,-0.35399167001945037,0.03200741484761238,-0.9659133553504944,-0.2568799555301666,-0.038716308772563934,-0.7294356822967529,-0.2087172567844391,Walking,,,,,,,
3707,COMPASS,40.443738869237706,-79.94430490701362,289.85426330566406,113.42261505126953,15.8118314743042,0.050201416015625,98.08029937744141,-1.0,-1.0,N/A,0.024688720703125,-0.88214111328125,-0.2269744873046875,-0.3139163851737976,-0.49467310309410095,0.0005193164106458426,-58.95921325683594,-111.50028991699219,-322.2135314941406,-0.008737724274396896,0.024247407913208008,0.002241462469100952,1.3089486629518277,0.12396178810524211,-0.35399167001945037,0.03200741484761238,-0.9659133553504944,-0.2568799555301666,-0.038716308772563934,-0.7294356822967529,-0.2087172567844391,Walking,,,,,,,
3735,COMPASS,40.443738869237706,-79.94430490701362,289.85426330566406,114.74537658691406,15.812055587768555,0.050201416015625,98.08029937744141,-1.0,-1.0,N/A,0.024688720703125,-0.88214111328125,-0.2269744873046875,-0.3139163851737976,-0.49467310309410095,0.0005193164106458426,-58.95921325683594,-111.50028991699219,-322.2135314941406,-0.008737724274396896,0.024247407913208008,0.002241462469100952,1.3089486629518277,0.12396178810524211,-0.35399167001945037,0.03200741484761238,-0.9659133553504944,-0.2568799555301666,-0.038716308772563934,-0.7294356822967529,-0.2087172567844391,Walking,,,,,,,
3762,COMPASS,40.443738869237706,-79.94430490701362,289.85426330566406,117.32305145263672,15.81250286102295,0.050201416015625,98.08029937744141,-1.0,-1.0,N/A,0.024688720703125,-0.88214111328125,-0.2269744873046875,-0.3139163851737976,-0.49467310309410095,0.0005193164106458426,-58.95921325683594,-111.50028991699219,-322.2135314941406,-0.008737724274396896,0.024247407913208008,0.002241462469100952,1.3089486629518277,0.12396178810524211,-0.35399167001945037,0.03200741484761238,-0.9659133553504944,-0.2568799555301666,-0.038716308772563934,-0.7294356822967529,-0.2087172567844391,Walking,,,,,,,
3790,COMPASS,40.443738869237706,-79.94430490701362,289.85426330566406,118.60990142822266,15.812727928161621,0.050201416015625,98.08029937744141,-1.0,-1.0,N/A,0.024688720703125,-0.88214111328125,-0.2269744873046875,-0.3139163851737976,-0.49467310309410095,0.0005193164106458426,-58.95921325683594,-111.50028991699219,-322.2135314941406,-0.008737724274396896,0.024247407913208008,0.002241462469100952,1.3089486629518277,0.12396178810524211,-0.35399167001945037,0.03200741484761238,-0.9659133553504944,-0.2568799555301666,-0.038716308772563934,-0.7294356822967529,-0.2087172567844391,Walking,,,,,,,
3818,COMPASS,40.443738869237706,-79.94430490701362,289.85426330566406,119.88096618652344,15.81295394897461,0.050201416015625,98.08029937744141,-1.0,-1.0,N/A,0.024688720703125,-0.88214111328125,-0.2269744873046875,-0.3139163851737976,-0.49467310309410095,0.0005193164106458426,-58.95921325683594,-111.50028991699219,-322.2135314941406,-0.008737724274396896,0.024247407913208008,0.002241462469100952,1.3089486629518277,0.12396178810524211,-0.35399167001945037,0.03200741484761238,-0.9659133553504944,-0.2568799555301666,-0.038716308772563934,-0.7294356822967529,-0.2087172567844391,Walking,,,,,,,
3845,COMPASS,40.443738869237706,-79.94430490701362,289.85426330566406,122.14778137207031,15.813403129577637,0.050201416015625,98.08029937744141,-1.0,-1.0,N/A,0.024688720703125,-0.88214111328125,-0.2269744873046875,-0.3139163851737976,-0.49467310309410095,0.0005193164106458426,-58.95921325683594,-111.50028991699219,-322.2135314941406,-0.008737724274396896,0.024247407913208008,0.002241462469100952,1.3089486629518277,0.12396178810524211,-0.35399167001945037,0.03200741484761238,-0.9659133553504944,-0.2568799555301666,-0.038716308772563934,-0.7294356822967529,-0.2087172567844391,Walking,,,,,,,
3871,COMPASS,40.443738869237706,-79.94430490701362,289.85426330566406,123.23590087890625,15.813628196716309,0.050201416015625,98.08029937744141,-1.0,-1.0,N/A,0.024688720703125,-0.88214111328125,-0.2269744873046875,-0.3139163851737976,-0.49467310309410095,0.0005193164106458426,-58.95921325683594,-111.50028991699219,-322.2135314941406,-0.008737724274396896,0.024247407913208008,0.002241462469100952,1.3089486629518277,0.12396178810524211,-0.35399167001945037,0.03200741484761238,-0.9659133553504944,-0.2568799555301666,-0.038716308772563934,-0.7294356822967529,-0.2087172567844391,Walking,,,,,,,
3899,COMPASS,40.443738869237706,-79.94430490701362,289.85426330566406,124.35310363769531,15.813851356506348,0.050201416015625,98.08029937744141,-1.0,-1.0,N/A,0.024688720703125,-0.88214111328125,-0.2269744873046875,-0.3139163851737976,-0.49467310309410095,0.0005193164106458426,-58.95921325683594,-111.50028991699219,-322.2135314941406,-0.008737724274396896,0.024247407913208008,0.002241462469100952,1.3089486629518277,0.12396178810524211,-0.35399167001945037,0.03200741484761238,-0.9659133553504944,-0.2568799555301666,-0.038716308772563934,-0.7294356822967529,-0.2087172567844391,Walking,,,,,,,
3927,COMPASS,40.443738869237706,-79.94430490701362,289.85426330566406,126.44287109375,15.814295768737793,0.050201416015625,98.08029937744141,-1.0,-1.0,N/A,0.024688720703125,-0.88214111328125,-0.2269744873046875,-0.3139163851737976,-0.49467310309410095,0.0005193164106458426,-58.95921325683594,-111.50028991699219,-322.2135314941406,-0.008737724274396896,0.024247407913208008,0.002241462469100952,1.3089486629518277,0.12396178810524211,-0.35399167001945037,0.03200741484761238,-0.9659133553504944,-0.2568799555301666,-0.038716308772563934,-0.7294356822967529,-0.2087172567844391,Walking,,,,,,,
3955,COMPASS,40.443738869237706,-79.94430490701362,289.85426330566406,127.49264526367188,15.814516067504883,0.050201416015625,98.08029937744141,-1.0,-1.0,N/A,0.024688720703125,-0.88214111328125,-0.2269744873046875,-0.3139163851737976,-0.49467310309410095,0.0005193164106458426,-58.95921325683594,-111.50028991699219,-322.2135314941406,-0.008737724274396896,0.024247407913208008,0.002241462469100952,1.3089486629518277,0.12396178810524211,-0.35399167001945037,0.03200741484761238,-0.9659133553504944,-0.2568799555301666,-0.038716308772563934,-0.7294356822967529,-0.2087172567844391,Walking,,,,,,,
3981,COMPASS,40.443738869237706,-79.94430490701362,289.85426330566406,129.65428161621094,15.81495475769043,0.050201416015625,98.08029937744141,-1.0,-1.0,N/A,0.024688720703125,-0.88214111328125,-0.2269744873046875,-0.3139163851737976,-0.49467310309410095,0.0005193164106458426,-58.95921325683594,-111.50028991699219,-322.2135314941406,-0.008737724274396896,0.024247407913208008,0.002241462469100952,1.3089486629518277,0.12396178810524211,-0.35399167001945037,0.03200741484761238,-0.9659133553504944,-0.2568799555301666,-0.038716308772563934,-0.7294356822967529,-0.2087172567844391,Walking,,,,,,,
4008,COMPASS,40.443738869237706,-79.94430490701362,289.85426330566406,130.80091857910156,15.81517219543457,0.050201416015625,98.08029937744141,-1.0,-1.0,N/A,0.024688720703125,-0.88214111328125,-0.2269744873046875,-0.3139163851737976,-0.49467310309410095,0.0005193164106458426,-58.95921325683594,-111.50028991699219,-322.2135314941406,-0.008737724274396896,0.024247407913208008,0.002241462469100952,1.3089486629518277,0.12396178810524211,-0.35399167001945037,0.03200741484761238,-0.9659133553504944,-0.2568799555301666,-0.038716308772563934,-0.7294356822967529,-0.2087172567844391,Walking,,,,,,,
4035,COMPASS,40.443738869237706,-79.94430490701362,289.85426330566406,132.00086975097656,15.815386772155762,0.050201416015625,98.08029937744141,-1.0,-1.0,N/A,0.024688720703125,-0.88214111328125,-0.2269744873046875,-0.3139163851737976,-0.49467310309410095,0.0005193164106458426,-58.95921325683594,-111.50028991699219,-322.2135314941406,-0.008737724274396896,0.024247407913208008,0.002241462469100952,1.3089486629518277,0.12396178810524211,-0.35399167001945037,0.03200741484761238,-0.9659133553504944,-0.2568799555301666,-0.038716308772563934,-0.7294356822967529,-0.2087172567844391,Walking,,,,,,,
