Timestamp (ms),Triggering Sensor,Latitude,Longitude,Altitude,Heading (degrees),Heading accuracy (degrees),Relative Altitude (m),Pressure (kPa),Speed (m/s),Speed Accuracy (m/s),Floor,Acceleration - X axis,Acceleration - Y axis,Acceleration - Z axis,Gyrometer - X axis,Gyrometer - Y axis,Gyrometer - Z axis,Magnetometer - X axis,Magnetometer - Y axis,Magnetometer - Z axis,User acceleration - X axis,User acceleration - Y axis,User acceleration - Z axis,Attitude Pitch,Attitude Roll,Attitude Yaw,Gravity - X axis,Gravity - Y axis,Gravity - Z axis,Rotation Rate - X axis,Rotation Rate - Y axis,Rotation Rate - Z axis,Activity Type,Number of Steps,Distance,Floors Ascended,Floors Descended,Current Pace,Current Cadence,Average Active Pace
8,Activity Manager,,,,,,,,,,,,,,,,,,,,,,,,,,,,,,,,Walking,,,,,,,
45,GPS,40.44392326395587,-79.94449157614969,286.0022315979004,,,,,-1.0,-1.0,N/A,,,,,,,,,,,,,,,,,,,,,,Walking,,,,,,,
71,Gyrometer,40.44392326395587,-79.94449157614969,286.0022315979004,,,,,-1.0,-1.0,N/A,,,,-0.01781974360346794,-0.052564140409231186,-0.03531591221690178,,,,,,,,,,,,,,,,Walking,,,,,,,
95,GPS,40.44392326395587,-79.94449157614969,286.0022315979004,,,,,-1.0,-1.0,N/A,,,,-0.01781974360346794,-0.052564140409231186,-0.03531591221690178,,,,,,,,,,,,,,,,Walking,,,,,,,
122,COMPASS,40.44392326395587,-79.94449157614969,286.0022315979004,235.5674285888672,15.218372344970703,,,-1.0,-1.0,N/A,,,,-0.01781974360346794,-0.052564140409231186,-0.03531591221690178,,,,,,,,,,,,,,,,Walking,,,,,,,
131,Accelerometer,40.44392326395587,-79.94449157614969,286.0022315979004,235.5674285888672,15.218372344970703,,,-1.0,-1.0,N/A,-0.0035247802734375,-0.8191375732421875,-0.5660400390625,-0.01781974360346794,-0.052564140409231186,-0.03531591221690178,,,,,,,,,,,,,,,,Walking,,,,,,,
155,Magnetometer,40.44392326395587,-79.94449157614969,286.0022315979004,235.5674285888672,15.218372344970703,,,-1.0,-1.0,N/A,-0.0035247802734375,-0.8191375732421875,-0.5660400390625,-0.01781974360346794,-0.052564140409231186,-0.03531591221690178,-13.689010620117188,-122.114013671875,-333.9031982421875,,,,,,,,,,,,,Walking,,,,,,,
177,Device Motion,40.44392326395587,-79.94449157614969,286.0022315979004,235.5674285888672,15.218372344970703,,,-1.0,-1.0,N/A,-0.0035247802734375,-0.8191375732421875,-0.5660400390625,-0.01781974360346794,-0.052564140409231186,-0.03531591221690178,-13.689010620117188,-122.114013671875,-333.9031982421875,-0.00917130522429943,0.002644658088684082,0.02258819341659546,0.9861878167877575,0.0034022439099543706,-0.0018282610889571215,0.0018776028882712126,-0.8339282274246216,-0.551869809627533,0.030131423845887184,0.012257375754415989,-0.004420875106006861,Walking,,,,,,,
306,Gyrometer,40.44392326395587,-79.94449157614969,286.0022315979004,235.5674285888672,15.218372344970703,,,-1.0,-1.0,N/A,-0.0035247802734375,-0.8191375732421875,-0.5660400390625,-0.007696801796555519,0.024336231872439384,-0.0014202637830749154,-13.689010620117188,-122.114013671875,-333.9031982421875,-0.00917130522429943,0.002644658088684082,0.02258819341659546,0.9861878167877575,0.0034022439099543706,-0.0018282610889571215,0.0018776028882712126,-0.8339282274246216,-0.551869809627533,0.030131423845887184,0.012257375754415989,-0.004420875106006861,Walking,,,,,,,
329,Accelerometer,40.44392326395587,-79.94449157614969,286.0022315979004,235.5674285888672,15.218372344970703,,,-1.0,-1.0,N/A,-0.0009002685546875,-0.8377227783203125,-0.5292205810546875,-0.007696801796555519,0.024336231872439384,-0.0014202637830749154,-13.689010620117188,-122.114013671875,-333.9031982421875,-0.00917130522429943,0.002644658088684082,0.02258819341659546,0.9861878167877575,0.0034022439099543706,-0.0018282610889571215,0.0018776028882712126,-0.8339282274246216,-0.551869809627533,0.030131423845887184,0.012257375754415989,-0.004420875106006861,Walking,,,,,,,
356,GPS,40.44373080799325,-79.94424679494462,286.00584411621094,235.5674285888672,15.218372344970703,,,-1.0,-1.0,N/A,-0.0009002685546875,-0.8377227783203125,-0.5292205810546875,-0.007696801796555519,0.024336231872439384,-0.0014202637830749154,-13.689010620117188,-122.114013671875,-333.9031982421875,-0.00917130522429943,0.002644658088684082,0.02258819341659546,0.9861878167877575,0.0034022439099543706,-0.0018282610889571215,0.0018776028882712126,-0.8339282274246216,-0.551869809627533,0.030131423845887184,0.012257375754415989,-0.004420875106006861,Walking,,,,,,,
378,GPS,40.443730103996614,-79.9442455874723,286.00584411621094,235.5674285888672,15.218372344970703,,,-1.0,-1.0,N/A,-0.0009002685546875,-0.8377227783203125,-0.5292205810546875,-0.007696801796555519,0.024336231872439384,-0.0014202637830749154,-13.689010620117188,-122.114013671875,-333.9031982421875,-0.00917130522429943,0.002644658088684082,0.02258819341659546,0.9861878167877575,0.0034022439099543706,-0.0018282610889571215,0.0018776028882712126,-0.8339282274246216,-0.551869809627533,0.030131423845887184,0.012257375754415989,-0.004420875106006861,Walking,,,,,,,
411,GPS,40.443729578518,-79.94424474997864,286.00584411621094,235.5674285888672,15.218372344970703,,,-1.0,-1.0,N/A,-0.0009002685546875,-0.8377227783203125,-0.5292205810546875,-0.007696801796555519,0.024336231872439384,-0.0014202637830749154,-13.689010620117188,-122.114013671875,-333.9031982421875,-0.00917130522429943,0.002644658088684082,0.02258819341659546,0.9861878167877575,0.0034022439099543706,-0.0018282610889571215,0.0018776028882712126,-0.8339282274246216,-0.551869809627533,0.030131423845887184,0.012257375754415989,-0.004420875106006861,Walking,,,,,,,
432,Magnetometer,40.443729578518,-79.94424474997864,286.00584411621094,235.5674285888672,15.218372344970703,,,-1.0,-1.0,N/A,-0.0009002685546875,-0.8377227783203125,-0.5292205810546875,-0.007696801796555519,0.024336231872439384,-0.0014202637830749154,-13.172225952148438,-122.24388122558594,-334.08026123046875,-0.00917130522429943,0.002644658088684082,0.02258819341659546,0.9861878167877575,0.0034022439099543706,-0.0018282610889571215,0.0018776028882712126,-0.8339282274246216,-0.551869809627533,0.030131423845887184,0.012257375754415989,-0.004420875106006861,Walking,,,,,,,
460,Device Motion,40.443729578518,-79.94424474997864,286.00584411621094,235.5674285888672,15.218372344970703,,,-1.0,-1.0,N/A,-0.0009002685546875,-0.8377227783203125,-0.5292205810546875,-0.007696801796555519,0.024336231872439384,-0.0014202637830749154,-13.172225952148438,-122.24388122558594,-334.08026123046875,0.00250831781886518,-0.011664986610412598,0.031204402446746826,0.9898810463534038,0.004994114116006218,0.005578554141692437,0.0027407051529735327,-0.8359606862068176,-0.548782467842102,0.026843152940273285,0.045731399208307266,0.01778479479253292,Walking,,,,,,,
555,COMPASS,40.443729578518,-79.94424474997864,286.00584411621094,234.50692749023438,15.217679977416992,,,-1.0,-1.0,N/A,-0.0009002685546875,-0.8377227783203125,-0.5292205810546875,-0.007696801796555519,0.024336231872439384,-0.0014202637830749154,-13.172225952148438,-122.24388122558594,-334.08026123046875,0.00250831781886518,-0.011664986610412598,0.031204402446746826,0.9898810463534038,0.004994114116006218,0.005578554141692437,0.0027407051529735327,-0.8359606862068176,-0.548782467842102,0.026843152940273285,0.045731399208307266,0.01778479479253292,Walking,,,,,,,
606,Gyrometer,40.443729578518,-79.94424474997864,286.00584411621094,234.50692749023438,15.217679977416992,,,-1.0,-1.0,N/A,-0.0009002685546875,-0.8377227783203125,-0.5292205810546875,-0.03910159692168236,0.0592593289911747,0.08074970543384552,-13.172225952148438,-122.24388122558594,-334.08026123046875,0.00250831781886518,-0.011664986610412598,0.031204402446746826,0.9898810463534038,0.004994114116006218,0.005578554141692437,0.0027407051529735327,-0.8359606862068176,-0.548782467842102,0.026843152940273285,0.045731399208307266,0.01778479479253292,Walking,,,,,,,
633,Accelerometer,40.443729578518,-79.94424474997864,286.00584411621094,234.50692749023438,15.217679977416992,,,-1.0,-1.0,N/A,0.029998779296875,-0.8614044189453125,-0.4731292724609375,-0.03910159692168236,0.0592593289911747,0.08074970543384552,-13.172225952148438,-122.24388122558594,-334.08026123046875,0.00250831781886518,-0.011664986610412598,0.031204402446746826,0.9898810463534038,0.004994114116006218,0.005578554141692437,0.0027407051529735327,-0.8359606862068176,-0.548782467842102,0.026843152940273285,0.045731399208307266,0.01778479479253292,Walking,,,,,,,
657,Magnetometer,40.443729578518,-79.94424474997864,286.00584411621094,234.50692749023438,15.217679977416992,,,-1.0,-1.0,N/A,0.029998779296875,-0.8614044189453125,-0.4731292724609375,-0.03910159692168236,0.0592593289911747,0.08074970543384552,-13.277938842773438,-121.91000366210938,-333.9417724609375,0.00250831781886518,-0.011664986610412598,0.031204402446746826,0.9898810463534038,0.004994114116006218,0.005578554141692437,0.0027407051529735327,-0.8359606862068176,-0.548782467842102,0.026843152940273285,0.045731399208307266,0.01778479479253292,Walking,,,,,,,
688,GPS,40.44373355113108,-79.94426729608043,288.95457458496094,234.50692749023438,15.217679977416992,,,-1.0,-1.0,N/A,0.029998779296875,-0.8614044189453125,-0.4731292724609375,-0.03910159692168236,0.0592593289911747,0.08074970543384552,-13.277938842773438,-121.91000366210938,-333.9417724609375,0.00250831781886518,-0.011664986610412598,0.031204402446746826,0.9898810463534038,0.004994114116006218,0.005578554141692437,0.0027407051529735327,-0.8359606862068176,-0.548782467842102,0.026843152940273285,0.045731399208307266,0.01778479479253292,Walking,,,,,,,
710,Device Motion,40.44373355113108,-79.94426729608043,288.95457458496094,234.50692749023438,15.217679977416992,,,-1.0,-1.0,N/A,0.029998779296875,-0.8614044189453125,-0.4731292724609375,-0.03910159692168236,0.0592593289911747,0.08074970543384552,-13.277938842773438,-121.91000366210938,-333.9417724609375,0.012312503531575203,-0.03349447250366211,0.07086092233657837,0.9805873145193662,0.002552236611050934,0.031355149104964,0.0014204067410901189,-0.8308243751525879,-0.5565329194068909,-0.037997301667928696,0.035771917551755905,-0.01810622215270996,Walking,,,,,,,
907,Gyrometer,40.44373355113108,-79.94426729608043,288.95457458496094,234.50692749023438,15.217679977416992,,,-1.0,-1.0,N/A,0.029998779296875,-0.8614044189453125,-0.4731292724609375,-0.009494435973465443,-0.11989843845367432,0.011383947916328907,-13.277938842773438,-121.91000366210938,-333.9417724609375,0.012312503531575203,-0.03349447250366211,0.07086092233657837,0.9805873145193662,0.002552236611050934,0.031355149104964,0.0014204067410901189,-0.8308243751525879,-0.5565329194068909,-0.037997301667928696,0.035771917551755905,-0.01810622215270996,Walking,,,,,,,
934,Magnetometer,40.44373355113108,-79.94426729608043,288.95457458496094,234.50692749023438,15.217679977416992,,,-1.0,-1.0,N/A,0.029998779296875,-0.8614044189453125,-0.4731292724609375,-0.009494435973465443,-0.11989843845367432,0.011383947916328907,-13.32843017578125,-121.11869812011719,-333.9487609863281,0.012312503531575203,-0.03349447250366211,0.07086092233657837,0.9805873145193662,0.002552236611050934,0.031355149104964,0.0014204067410901189,-0.8308243751525879,-0.5565329194068909,-0.037997301667928696,0.035771917551755905,-0.01810622215270996,Walking,,,,,,,
961,Accelerometer,40.44373355113108,-79.94426729608043,288.95457458496094,234.50692749023438,15.217679977416992,,,-1.0,-1.0,N/A,0.0207672119140625,-0.8955535888671875,-0.48101806640625,-0.009494435973465443,-0.11989843845367432,0.011383947916328907,-13.32843017578125,-121.11869812011719,-333.9487609863281,0.012312503531575203,-0.03349447250366211,0.07086092233657837,0.9805873145193662,0.002552236611050934,0.031355149104964,0.0014204067410901189,-0.8308243751525879,-0.5565329194068909,-0.037997301667928696,0.035771917551755905,-0.01810622215270996,Walking,,,,,,,
992,Device Motion,40.44373355113108,-79.94426729608043,288.95457458496094,234.50692749023438,15.217679977416992,,,-1.0,-1.0,N/A,0.0207672119140625,-0.8955535888671875,-0.48101806640625,-0.009494435973465443,-0.11989843845367432,0.011383947916328907,-13.32843017578125,-121.11869812011719,-333.9487609863281,0.03634005784988403,-0.09507983922958374,0.0748441219329834,0.9795720373751189,-0.018632701281213988,0.028954018971597044,-0.010384856723248959,-0.8302589058876038,-0.5572812557220459,0.07400587946176529,-0.09421355277299881,-0.07473451644182205,Walking,,,,,,,
1030,Altimeter,40.44373355113108,-79.94426729608043,288.95457458496094,234.50692749023438,15.217679977416992,0,98.08543395996094,-1.0,-1.0,N/A,0.0207672119140625,-0.8955535888671875,-0.48101806640625,-0.009494435973465443,-0.11989843845367432,0.011383947916328907,-13.32843017578125,-121.11869812011719,-333.9487609863281,0.03634005784988403,-0.09507983922958374,0.0748441219329834,0.9795720373751189,-0.018632701281213988,0.028954018971597044,-0.010384856723248959,-0.8302589058876038,-0.5572812557220459,0.07400587946176529,-0.09421355277299881,-0.07473451644182205,Walking,,,,,,,
1192,COMPASS,40.44373355113108,-79.94426729608043,288.95457458496094,235.52313232421875,15.22381591796875,0,98.08543395996094,-1.0,-1.0,N/A,0.0207672119140625,-0.8955535888671875,-0.48101806640625,-0.009494435973465443,-0.11989843845367432,0.011383947916328907,-13.32843017578125,-121.11869812011719,-333.9487609863281,0.03634005784988403,-0.09507983922958374,0.0748441219329834,0.9795720373751189,-0.018632701281213988,0.028954018971597044,-0.010384856723248959,-0.8302589058876038,-0.5572812557220459,0.07400587946176529,-0.09421355277299881,-0.07473451644182205,Walking,,,,,,,
1220,Gyrometer,40.44373355113108,-79.94426729608043,288.95457458496094,235.52313232421875,15.22381591796875,0,98.08543395996094,-1.0,-1.0,N/A,0.0207672119140625,-0.8955535888671875,-0.48101806640625,0.24015134572982788,-0.22657960653305054,-0.06865176558494568,-13.32843017578125,-121.11869812011719,-333.9487609863281,0.03634005784988403,-0.09507983922958374,0.0748441219329834,0.9795720373751189,-0.018632701281213988,0.028954018971597044,-0.010384856723248959,-0.8302589058876038,-0.5572812557220459,0.07400587946176529,-0.09421355277299881,-0.07473451644182205,Walking,,,,,,,
1247,Magnetometer,40.44373355113108,-79.94426729608043,288.95457458496094,235.52313232421875,15.22381591796875,0,98.08543395996094,-1.0,-1.0,N/A,0.0207672119140625,-0.8955535888671875,-0.48101806640625,0.24015134572982788,-0.22657960653305054,-0.06865176558494568,-12.020248413085938,-121.172119140625,-333.60296630859375,0.03634005784988403,-0.09507983922958374,0.0748441219329834,0.9795720373751189,-0.018632701281213988,0.028954018971597044,-0.010384856723248959,-0.8302589058876038,-0.5572812557220459,0.07400587946176529,-0.09421355277299881,-0.07473451644182205,Walking,,,,,,,
1274,COMPASS,40.44373355113108,-79.94426729608043,288.95457458496094,236.71397399902344,15.225250244140625,0,98.08543395996094,-1.0,-1.0,N/A,0.0207672119140625,-0.8955535888671875,-0.48101806640625,0.24015134572982788,-0.22657960653305054,-0.06865176558494568,-12.020248413085938,-121.172119140625,-333.60296630859375,0.03634005784988403,-0.09507983922958374,0.0748441219329834,0.9795720373751189,-0.018632701281213988,0.028954018971597044,-0.010384856723248959,-0.8302589058876038,-0.5572812557220459,0.07400587946176529,-0.09421355277299881,-0.07473451644182205,Walking,,,,,,,
1300,Accelerometer,40.44373355113108,-79.94426729608043,288.95457458496094,236.71397399902344,15.225250244140625,0,98.08543395996094,-1.0,-1.0,N/A,-0.051666259765625,-0.9580078125,-0.5355377197265625,0.24015134572982788,-0.22657960653305054,-0.06865176558494568,-12.020248413085938,-121.172119140625,-333.60296630859375,0.03634005784988403,-0.09507983922958374,0.0748441219329834,0.9795720373751189,-0.018632701281213988,0.028954018971597044,-0.010384856723248959,-0.8302589058876038,-0.5572812557220459,0.07400587946176529,-0.09421355277299881,-0.07473451644182205,Walking,,,,,,,
1327,Device Motion,40.44373355113108,-79.94426729608043,288.95457458496094,236.71397399902344,15.225250244140625,0,98.08543395996094,-1.0,-1.0,N/A,-0.051666259765625,-0.9580078125,-0.5355377197265625,0.24015134572982788,-0.22657960653305054,-0.06865176558494568,-12.020248413085938,-121.172119140625,-333.60296630859375,0.01443246379494667,-0.02296680212020874,-0.06237238645553589,1.0291384203416707,-0.008460192098803934,-0.020045089694003818,-0.0043616630136966705,-0.8568550944328308,-0.5155389904975891,0.12384885549545288,-0.07039824873209,-0.2527749836444855,Walking,,,,,,,
1353,COMPASS,40.44373355113108,-79.94426729608043,288.95457458496094,237.79359436035156,15.226337432861328,0,98.08543395996094,-1.0,-1.0,N/A,-0.051666259765625,-0.9580078125,-0.5355377197265625,0.24015134572982788,-0.22657960653305054,-0.06865176558494568,-12.020248413085938,-121.172119140625,-333.60296630859375,0.01443246379494667,-0.02296680212020874,-0.06237238645553589,1.0291384203416707,-0.008460192098803934,-0.020045089694003818,-0.0043616630136966705,-0.8568550944328308,-0.5155389904975891,0.12384885549545288,-0.07039824873209,-0.2527749836444855,Walking,,,,,,,
1392,COMPASS,40.44373355113108,-79.94426729608043,288.95457458496094,239.04833984375,15.227423667907715,0,98.08543395996094,-1.0,-1.0,N/A,-0.051666259765625,-0.9580078125,-0.5355377197265625,0.24015134572982788,-0.22657960653305054,-0.06865176558494568,-12.020248413085938,-121.172119140625,-333.60296630859375,0.01443246379494667,-0.02296680212020874,-0.06237238645553589,1.0291384203416707,-0.008460192098803934,-0.020045089694003818,-0.0043616630136966705,-0.8568550944328308,-0.5155389904975891,0.12384885549545288,-0.07039824873209,-0.2527749836444855,Walking,,,,,,,
1508,Gyrometer,40.44373355113108,-79.94426729608043,288.95457458496094,239.04833984375,15.227423667907715,0,98.08543395996094,-1.0,-1.0,N/A,-0.051666259765625,-0.9580078125,-0.5355377197265625,-0.10855470597743988,0.017592042684555054,-0.012763465754687786,-12.020248413085938,-121.172119140625,-333.60296630859375,0.01443246379494667,-0.02296680212020874,-0.06237238645553589,1.0291384203416707,-0.008460192098803934,-0.020045089694003818,-0.0043616630136966705,-0.8568550944328308,-0.5155389904975891,0.12384885549545288,-0.07039824873209,-0.2527749836444855,Walking,,,,,,,
1535,Magnetometer,40.44373355113108,-79.94426729608043,288.95457458496094,239.04833984375,15.227423667907715,0,98.08543395996094,-1.0,-1.0,N/A,-0.051666259765625,-0.9580078125,-0.5355377197265625,-0.10855470597743988,0.017592042684555054,-0.012763465754687786,-9.7720947265625,-119.26802062988281,-332.4549255371094,0.01443246379494667,-0.02296680212020874,-0.06237238645553589,1.0291384203416707,-0.008460192098803934,-0.020045089694003818,-0.0043616630136966705,-0.8568550944328308,-0.5155389904975891,0.12384885549545288,-0.07039824873209,-0.2527749836444855,Walking,,,,,,,
1562,Accelerometer,40.44373355113108,-79.94426729608043,288.95457458496094,239.04833984375,15.227423667907715,0,98.08543395996094,-1.0,-1.0,N/A,0.00885009765625,-0.8032073974609375,-0.4825592041015625,-0.10855470597743988,0.017592042684555054,-0.012763465754687786,-9.7720947265625,-119.26802062988281,-332.4549255371094,0.01443246379494667,-0.02296680212020874,-0.06237238645553589,1.0291384203416707,-0.008460192098803934,-0.020045089694003818,-0.0043616630136966705,-0.8568550944328308,-0.5155389904975891,0.12384885549545288,-0.07039824873209,-0.2527749836444855,Walking,,,,,,,
1590,Device Motion,40.44373355113108,-79.94426729608043,288.95457458496094,239.04833984375,15.227423667907715,0,98.08543395996094,-1.0,-1.0,N/A,0.00885009765625,-0.8032073974609375,-0.4825592041015625,-0.10855470597743988,0.017592042684555054,-0.012763465754687786,-9.7720947265625,-119.26802062988281,-332.4549255371094,-0.008556727319955826,0.061960577964782715,0.09719514846801758,1.065204201249969,0.011177454191781186,-0.08440251880382238,0.005413414444774389,-0.8748878240585327,-0.4842953383922577,0.1117221936583519,-0.18174512684345245,-0.04777264967560768,Walking,,,,,,,
1617,COMPASS,40.44373355113108,-79.94426729608043,288.95457458496094,240.1018829345703,15.230932235717773,0,98.08543395996094,-1.0,-1.0,N/A,0.00885009765625,-0.8032073974609375,-0.4825592041015625,-0.10855470597743988,0.017592042684555054,-0.012763465754687786,-9.7720947265625,-119.26802062988281,-332.4549255371094,-0.008556727319955826,0.061960577964782715,0.09719514846801758,1.065204201249969,0.011177454191781186,-0.08440251880382238,0.005413414444774389,-0.8748878240585327,-0.4842953383922577,0.1117221936583519,-0.18174512684345245,-0.04777264967560768,Walking,,,,,,,
1808,Gyrometer,40.44373355113108,-79.94426729608043,288.95457458496094,240.1018829345703,15.230932235717773,0,98.08543395996094,-1.0,-1.0,N/A,0.00885009765625,-0.8032073974609375,-0.4825592041015625,0.3829609751701355,0.03996872156858444,0.0978032574057579,-9.7720947265625,-119.26802062988281,-332.4549255371094,-0.008556727319955826,0.061960577964782715,0.09719514846801758,1.065204201249969,0.011177454191781186,-0.08440251880382238,0.005413414444774389,-0.8748878240585327,-0.4842953383922577,0.1117221936583519,-0.18174512684345245,-0.04777264967560768,Walking,,,,,,,
1837,Magnetometer,40.44373355113108,-79.94426729608043,288.95457458496094,240.1018829345703,15.230932235717773,0,98.08543395996094,-1.0,-1.0,N/A,0.00885009765625,-0.8032073974609375,-0.4825592041015625,0.3829609751701355,0.03996872156858444,0.0978032574057579,-10.647598266601562,-116.40435791015625,-331.9227294921875,-0.008556727319955826,0.061960577964782715,0.09719514846801758,1.065204201249969,0.011177454191781186,-0.08440251880382238,0.005413414444774389,-0.8748878240585327,-0.4842953383922577,0.1117221936583519,-0.18174512684345245,-0.04777264967560768,Walking,,,,,,,
1864,Accelerometer,40.44373355113108,-79.94426729608043,288.95457458496094,240.1018829345703,15.230932235717773,0,98.08543395996094,-1.0,-1.0,N/A,-0.0067138671875,-0.969696044921875,-0.45379638671875,0.3829609751701355,0.03996872156858444,0.0978032574057579,-10.647598266601562,-116.40435791015625,-331.9227294921875,-0.008556727319955826,0.061960577964782715,0.09719514846801758,1.065204201249969,0.011177454191781186,-0.08440251880382238,0.005413414444774389,-0.8748878240585327,-0.4842953383922577,0.1117221936583519,-0.18174512684345245,-0.04777264967560768,Walking,,,,,,,
1891,Device Motion,40.44373355113108,-79.94426729608043,288.95457458496094,240.1018829345703,15.230932235717773,0,98.08543395996094,-1.0,-1.0,N/A,-0.0067138671875,-0.969696044921875,-0.45379638671875,0.3829609751701355,0.03996872156858444,0.0978032574057579,-10.647598266601562,-116.40435791015625,-331.9227294921875,-0.014691237360239029,-0.06561833620071411,-0.04218950867652893,1.1138972524720057,-0.0043647631220392795,-0.06400568132711983,-0.001925584627315402,-0.8974248170852661,-0.4411630928516388,0.36731958389282227,0.1231992319226265,0.1496586799621582,Walking,,,,,,,
1930,COMPASS,40.44373355113108,-79.94426729608043,288.95457458496094,238.9385986328125,15.236284255981445,0,98.08543395996094,-1.0,-1.0,N/A,-0.0067138671875,-0.969696044921875,-0.45379638671875,0.3829609751701355,0.03996872156858444,0.0978032574057579,-10.647598266601562,-116.40435791015625,-331.9227294921875,-0.014691237360239029,-0.06561833620071411,-0.04218950867652893,1.1138972524720057,-0.0043647631220392795,-0.06400568132711983,-0.001925584627315402,-0.8974248170852661,-0.4411630928516388,0.36731958389282227,0.1231992319226265,0.1496586799621582,Walking,,,,,,,
2010,COMPASS,40.44373355113108,-79.94426729608043,288.95457458496094,237.73672485351562,15.237701416015625,0,98.08543395996094,-1.0,-1.0,N/A,-0.0067138671875,-0.969696044921875,-0.45379638671875,0.3829609751701355,0.03996872156858444,0.0978032574057579,-10.647598266601562,-116.40435791015625,-331.9227294921875,-0.014691237360239029,-0.06561833620071411,-0.04218950867652893,1.1138972524720057,-0.0043647631220392795,-0.06400568132711983,-0.001925584627315402,-0.8974248170852661,-0.4411630928516388,0.36731958389282227,0.1231992319226265,0.1496586799621582,Walking,,,,,,,
2027,Altimeter,40.44373355113108,-79.94426729608043,288.95457458496094,237.73672485351562,15.237701416015625,-0.007904052734375,98.08551025390625,-1.0,-1.0,N/A,-0.0067138671875,-0.969696044921875,-0.45379638671875,0.3829609751701355,0.03996872156858444,0.0978032574057579,-10.647598266601562,-116.40435791015625,-331.9227294921875,-0.014691237360239029,-0.06561833620071411,-0.04218950867652893,1.1138972524720057,-0.0043647631220392795,-0.06400568132711983,-0.001925584627315402,-0.8974248170852661,-0.4411630928516388,0.36731958389282227,0.1231992319226265,0.1496586799621582,Walking,,,,,,,
2109,Gyrometer,40.44373355113108,-79.94426729608043,288.95457458496094,237.73672485351562,15.237701416015625,-0.007904052734375,98.08551025390625,-1.0,-1.0,N/A,-0.0067138671875,-0.969696044921875,-0.45379638671875,0.1190614104270935,0.28085723519325256,-0.05783933028578758,-10.647598266601562,-116.40435791015625,-331.9227294921875,-0.014691237360239029,-0.06561833620071411,-0.04218950867652893,1.1138972524720057,-0.0043647631220392795,-0.06400568132711983,-0.001925584627315402,-0.8974248170852661,-0.4411630928516388,0.36731958389282227,0.1231992319226265,0.1496586799621582,Walking,,,,,,,
2136,COMPASS,40.44373355113108,-79.94426729608043,288.95457458496094,236.66709899902344,15.239465713500977,-0.007904052734375,98.08551025390625,-1.0,-1.0,N/A,-0.0067138671875,-0.969696044921875,-0.45379638671875,0.1190614104270935,0.28085723519325256,-0.05783933028578758,-10.647598266601562,-116.40435791015625,-331.9227294921875,-0.014691237360239029,-0.06561833620071411,-0.04218950867652893,1.1138972524720057,-0.0043647631220392795,-0.06400568132711983,-0.001925584627315402,-0.8974248170852661,-0.4411630928516388,0.36731958389282227,0.1231992319226265,0.1496586799621582,Walking,,,,,,,
2159,Magnetometer,40.44373355113108,-79.94426729608043,288.95457458496094,236.66709899902344,15.239465713500977,-0.007904052734375,98.08551025390625,-1.0,-1.0,N/A,-0.0067138671875,-0.969696044921875,-0.45379638671875,0.1190614104270935,0.28085723519325256,-0.05783933028578758,-11.834732055664062,-113.67924499511719,-330.1416015625,-0.014691237360239029,-0.06561833620071411,-0.04218950867652893,1.1138972524720057,-0.0043647631220392795,-0.06400568132711983,-0.001925584627315402,-0.8974248170852661,-0.4411630928516388,0.36731958389282227,0.1231992319226265,0.1496586799621582,Walking,,,,,,,
2185,Accelerometer,40.44373355113108,-79.94426729608043,288.95457458496094,236.66709899902344,15.239465713500977,-0.007904052734375,98.08551025390625,-1.0,-1.0,N/A,-0.0005645751953125,-0.8740081787109375,-0.4323883056640625,0.1190614104270935,0.28085723519325256,-0.05783933028578758,-11.834732055664062,-113.67924499511719,-330.1416015625,-0.014691237360239029,-0.06561833620071411,-0.04218950867652893,1.1138972524720057,-0.0043647631220392795,-0.06400568132711983,-0.001925584627315402,-0.8974248170852661,-0.4411630928516388,0.36731958389282227,0.1231992319226265,0.1496586799621582,Walking,,,,,,,
2211,COMPASS,40.44373355113108,-79.94426729608043,288.95457458496094,235.64930725097656,15.240418434143066,-0.007904052734375,98.08551025390625,-1.0,-1.0,N/A,-0.0005645751953125,-0.8740081787109375,-0.4323883056640625,0.1190614104270935,0.28085723519325256,-0.05783933028578758,-11.834732055664062,-113.67924499511719,-330.1416015625,-0.014691237360239029,-0.06561833620071411,-0.04218950867652893,1.1138972524720057,-0.0043647631220392795,-0.06400568132711983,-0.001925584627315402,-0.8974248170852661,-0.4411630928516388,0.36731958389282227,0.1231992319226265,0.1496586799621582,Walking,,,,,,,
2238,Device Motion,40.44373355113108,-79.94426729608043,288.95457458496094,235.64930725097656,15.240418434143066,-0.007904052734375,98.08551025390625,-1.0,-1.0,N/A,-0.0005645751953125,-0.8740081787109375,-0.4323883056640625,0.1190614104270935,0.28085723519325256,-0.05783933028578758,-11.834732055664062,-113.67924499511719,-330.1416015625,0.05525435507297516,0.04758906364440918,-0.009277522563934326,1.1501831082648715,-0.05238439415592677,0.033875680085906676,-0.02137984335422516,-0.9128386974334717,-0.4077604413032532,0.1416080892086029,0.18795453011989594,0.12532103061676025,Walking,,,,,,,
2329,COMPASS,40.44373355113108,-79.94426729608043,288.95457458496094,234.6448516845703,15.242561340332031,-0.007904052734375,98.08551025390625,-1.0,-1.0,N/A,-0.0005645751953125,-0.8740081787109375,-0.4323883056640625,0.1190614104270935,0.28085723519325256,-0.05783933028578758,-11.834732055664062,-113.67924499511719,-330.1416015625,0.05525435507297516,0.04758906364440918,-0.009277522563934326,1.1501831082648715,-0.05238439415592677,0.033875680085906676,-0.02137984335422516,-0.9128386974334717,-0.4077604413032532,0.1416080892086029,0.18795453011989594,0.12532103061676025,Walking,,,,,,,
2409,Gyrometer,40.44373355113108,-79.94426729608043,288.95457458496094,234.6448516845703,15.242561340332031,-0.007904052734375,98.08551025390625,-1.0,-1.0,N/A,-0.0005645751953125,-0.8740081787109375,-0.4323883056640625,0.09156693518161774,-0.1955481916666031,-0.01834358647465706,-11.834732055664062,-113.67924499511719,-330.1416015625,0.05525435507297516,0.04758906364440918,-0.009277522563934326,1.1501831082648715,-0.05238439415592677,0.033875680085906676,-0.02137984335422516,-0.9128386974334717,-0.4077604413032532,0.1416080892086029,0.18795453011989594,0.12532103061676025,Walking,,,,,,,
2437,Magnetometer,40.44373355113108,-79.94426729608043,288.95457458496094,234.6448516845703,15.242561340332031,-0.007904052734375,98.08551025390625,-1.0,-1.0,N/A,-0.0005645751953125,-0.8740081787109375,-0.4323883056640625,0.09156693518161774,-0.1955481916666031,-0.01834358647465706,-12.233230590820312,-110.53465270996094,-328.47247314453125,0.05525435507297516,0.04758906364440918,-0.009277522563934326,1.1501831082648715,-0.05238439415592677,0.033875680085906676,-0.02137984335422516,-0.9128386974334717,-0.4077604413032532,0.1416080892086029,0.18795453011989594,0.12532103061676025,Walking,,,,,,,
2464,Accelerometer,40.44373355113108,-79.94426729608043,288.95457458496094,234.6448516845703,15.242561340332031,-0.007904052734375,98.08551025390625,-1.0,-1.0,N/A,-0.0208587646484375,-0.9461822509765625,-0.3689422607421875,0.09156693518161774,-0.1955481916666031,-0.01834358647465706,-12.233230590820312,-110.53465270996094,-328.47247314453125,0.05525435507297516,0.04758906364440918,-0.009277522563934326,1.1501831082648715,-0.05238439415592677,0.033875680085906676,-0.02137984335422516,-0.9128386974334717,-0.4077604413032532,0.1416080892086029,0.18795453011989594,0.12532103061676025,Walking,,,,,,,
2491,COMPASS,40.44373355113108,-79.94426729608043,288.95457458496094,235.70013427734375,15.244564056396484,-0.007904052734375,98.08551025390625,-1.0,-1.0,N/A,-0.0208587646484375,-0.9461822509765625,-0.3689422607421875,0.09156693518161774,-0.1955481916666031,-0.01834358647465706,-12.233230590820312,-110.53465270996094,-328.47247314453125,0.05525435507297516,0.04758906364440918,-0.009277522563934326,1.1501831082648715,-0.05238439415592677,0.033875680085906676,-0.02137984335422516,-0.9128386974334717,-0.4077604413032532,0.1416080892086029,0.18795453011989594,0.12532103061676025,Walking,,,,,,,
2517,Device Motion,40.44373355113108,-79.94426729608043,288.95457458496094,235.70013427734375,15.244564056396484,-0.007904052734375,98.08551025390625,-1.0,-1.0,N/A,-0.0208587646484375,-0.9461822509765625,-0.3689422607421875,0.09156693518161774,-0.1955481916666031,-0.01834358647465706,-12.233230590820312,-110.53465270996094,-328.47247314453125,0.0173167884349823,-0.09838253259658813,0.0005225539207458496,1.1844069611521666,-0.08529071505934004,0.052973705945553166,-0.0321025587618351,-0.9262757301330566,-0.3754767179489136,0.4956524968147278,-0.20133784413337708,-0.010451620444655418,Walking,,,,,,,
2648,COMPASS,40.44373355113108,-79.94426729608043,288.95457458496094,236.7857208251953,15.24756908416748,-0.007904052734375,98.08551025390625,-1.0,-1.0,N/A,-0.0208587646484375,-0.9461822509765625,-0.3689422607421875,0.09156693518161774,-0.1955481916666031,-0.01834358647465706,-12.233230590820312,-110.53465270996094,-328.47247314453125,0.0173167884349823,-0.09838253259658813,0.0005225539207458496,1.1844069611521666,-0.08529071505934004,0.052973705945553166,-0.0321025587618351,-0.9262757301330566,-0.3754767179489136,0.4956524968147278,-0.20133784413337708,-0.010451620444655418,Walking,,,,,,,
2707,COMPASS,40.44373355113108,-79.94426729608043,288.95457458496094,237.91236877441406,15.248597145080566,-0.007904052734375,98.08551025390625,-1.0,-1.0,N/A,-0.0208587646484375,-0.9461822509765625,-0.3689422607421875,0.09156693518161774,-0.1955481916666031,-0.01834358647465706,-12.233230590820312,-110.53465270996094,-328.47247314453125,0.0173167884349823,-0.09838253259658813,0.0005225539207458496,1.1844069611521666,-0.08529071505934004,0.052973705945553166,-0.0321025587618351,-0.9262757301330566,-0.3754767179489136,0.4956524968147278,-0.20133784413337708,-0.010451620444655418,Walking,,,,,,,
2731,Gyrometer,40.44373355113108,-79.94426729608043,288.95457458496094,237.91236877441406,15.248597145080566,-0.007904052734375,98.08551025390625,-1.0,-1.0,N/A,-0.0208587646484375,-0.9461822509765625,-0.3689422607421875,-0.07210215926170349,-0.183451846241951,-0.25600355863571167,-12.233230590820312,-110.53465270996094,-328.47247314453125,0.0173167884349823,-0.09838253259658813,0.0005225539207458496,1.1844069611521666,-0.08529071505934004,0.052973705945553166,-0.0321025587618351,-0.9262757301330566,-0.3754767179489136,0.4956524968147278,-0.20133784413337708,-0.010451620444655418,Walking,,,,,,,
2757,Magnetometer,40.44373355113108,-79.94426729608043,288.95457458496094,237.91236877441406,15.248597145080566,-0.007904052734375,98.08551025390625,-1.0,-1.0,N/A,-0.0208587646484375,-0.9461822509765625,-0.3689422607421875,-0.07210215926170349,-0.183451846241951,-0.25600355863571167,-12.373428344726562,-107.60861206054688,-329.4544372558594,0.0173167884349823,-0.09838253259658813,0.0005225539207458496,1.1844069611521666,-0.08529071505934004,0.052973705945553166,-0.0321025587618351,-0.9262757301330566,-0.3754767179489136,0.4956524968147278,-0.20133784413337708,-0.010451620444655418,Walking,,,,,,,
2784,COMPASS,40.44373355113108,-79.94426729608043,288.95457458496094,238.98324584960938,15.24962329864502,-0.007904052734375,98.08551025390625,-1.0,-1.0,N/A,-0.0208587646484375,-0.9461822509765625,-0.3689422607421875,-0.07210215926170349,-0.183451846241951,-0.25600355863571167,-12.373428344726562,-107.60861206054688,-329.4544372558594,0.0173167884349823,-0.09838253259658813,0.0005225539207458496,1.1844069611521666,-0.08529071505934004,0.052973705945553166,-0.0321025587618351,-0.9262757301330566,-0.3754767179489136,0.4956524968147278,-0.20133784413337708,-0.010451620444655418,Walking,,,,,,,
2810,Accelerometer,40.44373355113108,-79.94426729608043,288.95457458496094,238.98324584960938,15.24962329864502,-0.007904052734375,98.08551025390625,-1.0,-1.0,N/A,-0.0667724609375,-0.8505859375,-0.3877716064453125,-0.07210215926170349,-0.183451846241951,-0.25600355863571167,-12.373428344726562,-107.60861206054688,-329.4544372558594,0.0173167884349823,-0.09838253259658813,0.0005225539207458496,1.1844069611521666,-0.08529071505934004,0.052973705945553166,-0.0321025587618351,-0.9262757301330566,-0.3754767179489136,0.4956524968147278,-0.20133784413337708,-0.010451620444655418,Walking,,,,,,,
2836,Device Motion,40.44373355113108,-79.94426729608043,288.95457458496094,238.98324584960938,15.24962329864502,-0.007904052734375,98.08551025390625,-1.0,-1.0,N/A,-0.0667724609375,-0.8505859375,-0.3877716064453125,-0.07210215926170349,-0.183451846241951,-0.25600355863571167,-12.373428344726562,-107.60861206054688,-329.4544372558594,-0.06398880481719971,0.07574832439422607,0.0002054274082183838,1.2242170256051934,-0.11219701973035849,0.016819062500303184,-0.038031455129384995,-0.9405401945114136,-0.3375467360019684,-0.1690673977136612,-0.12320772558450699,-0.08158007264137268,Walking,,,,,,,
3010,Gyrometer,40.44373355113108,-79.94426729608043,288.95457458496094,238.98324584960938,15.24962329864502,-0.007904052734375,98.08551025390625,-1.0,-1.0,N/A,-0.0667724609375,-0.8505859375,-0.3877716064453125,0.2877236604690552,-0.0038005972746759653,-0.013629525899887085,-12.373428344726562,-107.60861206054688,-329.4544372558594,-0.06398880481719971,0.07574832439422607,0.0002054274082183838,1.2242170256051934,-0.11219701973035849,0.016819062500303184,-0.038031455129384995,-0.9405401945114136,-0.3375467360019684,-0.1690673977136612,-0.12320772558450699,-0.08158007264137268,Walking,,,,,,,
3038,Magnetometer,40.44373355113108,-79.94426729608043,288.95457458496094,238.98324584960938,15.24962329864502,-0.007904052734375,98.08551025390625,-1.0,-1.0,N/A,-0.0667724609375,-0.8505859375,-0.3877716064453125,0.2877236604690552,-0.0038005972746759653,-0.013629525899887085,-11.46826171875,-103.94851684570312,-332.2169189453125,-0.06398880481719971,0.07574832439422607,0.0002054274082183838,1.2242170256051934,-0.11219701973035849,0.016819062500303184,-0.038031455129384995,-0.9405401945114136,-0.3375467360019684,-0.1690673977136612,-0.12320772558450699,-0.08158007264137268,Walking,,,,,,,
3064,Altimeter,40.44373355113108,-79.94426729608043,288.95457458496094,238.98324584960938,15.24962329864502,-0.015838623046875,98.08559417724609,-1.0,-1.0,N/A,-0.0667724609375,-0.8505859375,-0.3877716064453125,0.2877236604690552,-0.0038005972746759653,-0.013629525899887085,-11.46826171875,-103.94851684570312,-332.2169189453125,-0.06398880481719971,0.07574832439422607,0.0002054274082183838,1.2242170256051934,-0.11219701973035849,0.016819062500303184,-0.038031455129384995,-0.9405401945114136,-0.3375467360019684,-0.1690673977136612,-0.12320772558450699,-0.08158007264137268,Walking,,,,,,,
3091,Accelerometer,40.44373355113108,-79.94426729608043,288.95457458496094,238.98324584960938,15.24962329864502,-0.015838623046875,98.08559417724609,-1.0,-1.0,N/A,-0.057952880859375,-0.930419921875,-0.3165130615234375,0.2877236604690552,-0.0038005972746759653,-0.013629525899887085,-11.46826171875,-103.94851684570312,-332.2169189453125,-0.06398880481719971,0.07574832439422607,0.0002054274082183838,1.2242170256051934,-0.11219701973035849,0.016819062500303184,-0.038031455129384995,-0.9405401945114136,-0.3375467360019684,-0.1690673977136612,-0.12320772558450699,-0.08158007264137268,Walking,,,,,,,
3117,Device Motion,40.44373355113108,-79.94426729608043,288.95457458496094,238.98324584960938,15.24962329864502,-0.015838623046875,98.08559417724609,-1.0,-1.0,N/A,-0.057952880859375,-0.930419921875,-0.3165130615234375,0.2877236604690552,-0.0038005972746759653,-0.013629525899887085,-11.46826171875,-103.94851684570312,-332.2169189453125,-0.009022492915391922,-0.029803752899169922,0.013612210750579834,1.2216005294559655,-0.07471288115307148,-0.008102846093553709,-0.025538664311170578,-0.9396481513977051,-0.34118786454200745,0.4213424623012543,0.20701947808265686,0.08149353414773941,Walking,,,,,,,
3207,COMPASS,40.44373355113108,-79.94426729608043,288.95457458496094,237.78768920898438,15.257133483886719,-0.015838623046875,98.08559417724609,-1.0,-1.0,N/A,-0.057952880859375,-0.930419921875,-0.3165130615234375,0.2877236604690552,-0.0038005972746759653,-0.013629525899887085,-11.46826171875,-103.94851684570312,-332.2169189453125,-0.009022492915391922,-0.029803752899169922,0.013612210750579834,1.2216005294559655,-0.07471288115307148,-0.008102846093553709,-0.025538664311170578,-0.9396481513977051,-0.34118786454200745,0.4213424623012543,0.20701947808265686,0.08149353414773941,Walking,,,,,,,
3306,COMPASS,40.44373355113108,-79.94426729608043,288.95457458496094,236.65399169921875,15.258790016174316,-0.015838623046875,98.08559417724609,-1.0,-1.0,N/A,-0.057952880859375,-0.930419921875,-0.3165130615234375,0.2877236604690552,-0.0038005972746759653,-0.013629525899887085,-11.46826171875,-103.94851684570312,-332.2169189453125,-0.009022492915391922,-0.029803752899169922,0.013612210750579834,1.2216005294559655,-0.07471288115307148,-0.008102846093553709,-0.025538664311170578,-0.9396481513977051,-0.34118786454200745,0.4213424623012543,0.20701947808265686,0.08149353414773941,Walking,,,,,,,
3333,Magnetometer,40.44373355113108,-79.94426729608043,288.95457458496094,236.65399169921875,15.258790016174316,-0.015838623046875,98.08559417724609,-1.0,-1.0,N/A,-0.057952880859375,-0.930419921875,-0.3165130615234375,0.2877236604690552,-0.0038005972746759653,-0.013629525899887085,-11.2274169921875,-105.51840209960938,-334.2369079589844,-0.009022492915391922,-0.029803752899169922,0.013612210750579834,1.2216005294559655,-0.07471288115307148,-0.008102846093553709,-0.025538664311170578,-0.9396481513977051,-0.34118786454200745,0.4213424623012543,0.20701947808265686,0.08149353414773941,Walking,,,,,,,
3359,Gyrometer,40.44373355113108,-79.94426729608043,288.95457458496094,236.65399169921875,15.258790016174316,-0.015838623046875,98.08559417724609,-1.0,-1.0,N/A,-0.057952880859375,-0.930419921875,-0.3165130615234375,-0.09496965259313583,0.07171120494604111,0.12642239034175873,-11.2274169921875,-105.51840209960938,-334.2369079589844,-0.009022492915391922,-0.029803752899169922,0.013612210750579834,1.2216005294559655,-0.07471288115307148,-0.008102846093553709,-0.025538664311170578,-0.9396481513977051,-0.34118786454200745,0.4213424623012543,0.20701947808265686,0.08149353414773941,Walking,,,,,,,
3385,Accelerometer,40.44373355113108,-79.94426729608043,288.95457458496094,236.65399169921875,15.258790016174316,-0.015838623046875,98.08559417724609,-1.0,-1.0,N/A,0.002655029296875,-0.9179229736328125,-0.3478546142578125,-0.09496965259313583,0.07171120494604111,0.12642239034175873,-11.2274169921875,-105.51840209960938,-334.2369079589844,-0.009022492915391922,-0.029803752899169922,0.013612210750579834,1.2216005294559655,-0.07471288115307148,-0.008102846093553709,-0.025538664311170578,-0.9396481513977051,-0.34118786454200745,0.4213424623012543,0.20701947808265686,0.08149353414773941,Walking,,,,,,,
3412,Device Motion,40.44373355113108,-79.94426729608043,288.95457458496094,236.65399169921875,15.258790016174316,-0.015838623046875,98.08559417724609,-1.0,-1.0,N/A,0.002655029296875,-0.9179229736328125,-0.3478546142578125,-0.09496965259313583,0.07171120494604111,0.12642239034175873,-11.2274169921875,-105.51840209960938,-334.2369079589844,0.032283131033182144,0.04103994369506836,-0.05195298790931702,1.2540379131315056,-0.1312055318659239,0.08495069964281644,-0.04075176268815994,-0.9502501487731934,-0.3088105022907257,-0.08828150480985641,0.06615763157606125,0.023134585469961166,Walking,,,,,,,
3486,COMPASS,40.44373355113108,-79.94426729608043,288.95457458496094,235.5425262451172,15.260456085205078,-0.015838623046875,98.08559417724609,-1.0,-1.0,N/A,0.002655029296875,-0.9179229736328125,-0.3478546142578125,-0.09496965259313583,0.07171120494604111,0.12642239034175873,-11.2274169921875,-105.51840209960938,-334.2369079589844,0.032283131033182144,0.04103994369506836,-0.05195298790931702,1.2540379131315056,-0.1312055318659239,0.08495069964281644,-0.04075176268815994,-0.9502501487731934,-0.3088105022907257,-0.08828150480985641,0.06615763157606125,0.023134585469961166,Walking,,,,,,,
3610,Magnetometer,40.44373355113108,-79.94426729608043,288.95457458496094,235.5425262451172,15.260456085205078,-0.015838623046875,98.08559417724609,-1.0,-1.0,N/A,0.002655029296875,-0.9179229736328125,-0.3478546142578125,-0.09496965259313583,0.07171120494604111,0.12642239034175873,-10.9017333984375,-106.38211059570312,-337.8516845703125,0.032283131033182144,0.04103994369506836,-0.05195298790931702,1.2540379131315056,-0.1312055318659239,0.08495069964281644,-0.04075176268815994,-0.9502501487731934,-0.3088105022907257,-0.08828150480985641,0.06615763157606125,0.023134585469961166,Walking,,,,,,,
3638,Gyrometer,40.44373355113108,-79.94426729608043,288.95457458496094,235.5425262451172,15.260456085205078,-0.015838623046875,98.08559417724609,-1.0,-1.0,N/A,0.002655029296875,-0.9179229736328125,-0.3478546142578125,-0.07990841567516327,0.128065824508667,0.017019197344779968,-10.9017333984375,-106.38211059570312,-337.8516845703125,0.032283131033182144,0.04103994369506836,-0.05195298790931702,1.2540379131315056,-0.1312055318659239,0.08495069964281644,-0.04075176268815994,-0.9502501487731934,-0.3088105022907257,-0.08828150480985641,0.06615763157606125,0.023134585469961166,Walking,,,,,,,
3665,Accelerometer,40.44373355113108,-79.94426729608043,288.95457458496094,235.5425262451172,15.260456085205078,-0.015838623046875,98.08559417724609,-1.0,-1.0,N/A,-0.0034027099609375,-0.9354248046875,-0.3009796142578125,-0.07990841567516327,0.128065824508667,0.017019197344779968,-10.9017333984375,-106.38211059570312,-337.8516845703125,0.032283131033182144,0.04103994369506836,-0.05195298790931702,1.2540379131315056,-0.1312055318659239,0.08495069964281644,-0.04075176268815994,-0.9502501487731934,-0.3088105022907257,-0.08828150480985641,0.06615763157606125,0.023134585469961166,Walking,,,,,,,
3692,Device Motion,40.44373355113108,-79.94426729608043,288.95457458496094,235.5425262451172,15.260456085205078,-0.015838623046875,98.08559417724609,-1.0,-1.0,N/A,-0.0034027099609375,-0.9354248046875,-0.3009796142578125,-0.07990841567516327,0.128065824508667,0.017019197344779968,-10.9017333984375,-106.38211059570312,-337.8516845703125,0.035672876983881,-0.009961366653442383,-0.014338821172714233,1.2258797527583878,-0.17838365863736452,0.13638437232332445,-0.0599953830242157,-0.9411036372184753,-0.3327528238296509,0.07000105828046799,-0.2885415554046631,-0.07044042646884918,Walking,,,,,,,
3909,Magnetometer,40.44373355113108,-79.94426729608043,288.95457458496094,235.5425262451172,15.260456085205078,-0.015838623046875,98.08559417724609,-1.0,-1.0,N/A,-0.0034027099609375,-0.9354248046875,-0.3009796142578125,-0.07990841567516327,0.128065824508667,0.017019197344779968,-10.271148681640625,-108.93675231933594,-339.82952880859375,0.035672876983881,-0.009961366653442383,-0.014338821172714233,1.2258797527583878,-0.17838365863736452,0.13638437232332445,-0.0599953830242157,-0.9411036372184753,-0.3327528238296509,0.07000105828046799,-0.2885415554046631,-0.07044042646884918,Walking,,,,,,,
3937,COMPASS,40.44373355113108,-79.94426729608043,288.95457458496094,236.5431365966797,15.266983985900879,-0.015838623046875,98.08559417724609,-1.0,-1.0,N/A,-0.0034027099609375,-0.9354248046875,-0.3009796142578125,-0.07990841567516327,0.128065824508667,0.017019197344779968,-10.271148681640625,-108.93675231933594,-339.82952880859375,0.035672876983881,-0.009961366653442383,-0.014338821172714233,1.2258797527583878,-0.17838365863736452,0.13638437232332445,-0.0599953830242157,-0.9411036372184753,-0.3327528238296509,0.07000105828046799,-0.2885415554046631,-0.07044042646884918,Walking,,,,,,,
3963,Gyrometer,40.44373355113108,-79.94426729608043,288.95457458496094,236.5431365966797,15.266983985900879,-0.015838623046875,98.08559417724609,-1.0,-1.0,N/A,-0.0034027099609375,-0.9354248046875,-0.3009796142578125,-0.2737937271595001,0.11506533622741699,-0.18286782503128052,-10.271148681640625,-108.93675231933594,-339.82952880859375,0.035672876983881,-0.009961366653442383,-0.014338821172714233,1.2258797527583878,-0.17838365863736452,0.13638437232332445,-0.0599953830242157,-0.9411036372184753,-0.3327528238296509,0.07000105828046799,-0.2885415554046631,-0.07044042646884918,Walking,,,,,,,
3991,COMPASS,40.44373355113108,-79.94426729608043,288.95457458496094,237.64697265625,15.267908096313477,-0.015838623046875,98.08559417724609,-1.0,-1.0,N/A,-0.0034027099609375,-0.9354248046875,-0.3009796142578125,-0.2737937271595001,0.11506533622741699,-0.18286782503128052,-10.271148681640625,-108.93675231933594,-339.82952880859375,0.035672876983881,-0.009961366653442383,-0.014338821172714233,1.2258797527583878,-0.17838365863736452,0.13638437232332445,-0.0599953830242157,-0.9411036372184753,-0.3327528238296509,0.07000105828046799,-0.2885415554046631,-0.07044042646884918,Walking,,,,,,,
4019,Accelerometer,40.44373355113108,-79.94426729608043,288.95457458496094,237.64697265625,15.267908096313477,-0.015838623046875,98.08559417724609,-1.0,-1.0,N/A,-0.0230865478515625,-0.9339141845703125,-0.4005889892578125,-0.2737937271595001,0.11506533622741699,-0.18286782503128052,-10.271148681640625,-108.93675231933594,-339.82952880859375,0.035672876983881,-0.009961366653442383,-0.014338821172714233,1.2258797527583878,-0.17838365863736452,0.13638437232332445,-0.0599953830242157,-0.9411036372184753,-0.3327528238296509,0.07000105828046799,-0.2885415554046631,-0.07044042646884918,Walking,,,,,,,
4047,COMPASS,40.44373355113108,-79.94426729608043,288.95457458496094,238.6626739501953,15.268539428710938,-0.015838623046875,98.08559417724609,-1.0,-1.0,N/A,-0.0230865478515625,-0.9339141845703125,-0.4005889892578125,-0.2737937271595001,0.11506533622741699,-0.18286782503128052,-10.271148681640625,-108.93675231933594,-339.82952880859375,0.035672876983881,-0.009961366653442383,-0.014338821172714233,1.2258797527583878,-0.17838365863736452,0.13638437232332445,-0.0599953830242157,-0.9411036372184753,-0.3327528238296509,0.07000105828046799,-0.2885415554046631,-0.07044042646884918,Walking,,,,,,,
4073,Device Motion,40.44373355113108,-79.94426729608043,288.95457458496094,238.6626739501953,15.268539428710938,-0.015838623046875,98.08559417724609,-1.0,-1.0,N/A,-0.0230865478515625,-0.9339141845703125,-0.4005889892578125,-0.2737937271595001,0.11506533622741699,-0.18286782503128052,-10.271148681640625,-108.93675231933594,-339.82952880859375,-0.02654435858130455,0.10618788003921509,-0.1261042058467865,1.2539659803507126,-0.11398814505868098,0.04764457066132114,-0.03543684259057045,-0.9502277374267578,-0.3095341920852661,0.016715897247195244,-0.24123665690422058,-0.2944277226924896,Walking,,,,,,,
4100,COMPASS,40.44373355113108,-79.94426729608043,288.95457458496094,239.93626403808594,15.269491195678711,-0.015838623046875,98.08559417724609,-1.0,-1.0,N/A,-0.0230865478515625,-0.9339141845703125,-0.4005889892578125,-0.2737937271595001,0.11506533622741699,-0.18286782503128052,-10.271148681640625,-108.93675231933594,-339.82952880859375,-0.02654435858130455,0.10618788003921509,-0.1261042058467865,1.2539659803507126,-0.11398814505868098,0.04764457066132114,-0.03543684259057045,-0.9502277374267578,-0.3095341920852661,0.016715897247195244,-0.24123665690422058,-0.2944277226924896,Walking,,,,,,,
4126,Altimeter,40.44373355113108,-79.94426729608043,288.95457458496094,239.93626403808594,15.269491195678711,-0.0369873046875,98.08585357666016,-1.0,-1.0,N/A,-0.0230865478515625,-0.9339141845703125,-0.4005889892578125,-0.2737937271595001,0.11506533622741699,-0.18286782503128052,-10.271148681640625,-108.93675231933594,-339.82952880859375,-0.02654435858130455,0.10618788003921509,-0.1261042058467865,1.2539659803507126,-0.11398814505868098,0.04764457066132114,-0.03543684259057045,-0.9502277374267578,-0.3095341920852661,0.016715897247195244,-0.24123665690422058,-0.2944277226924896,Walking,,,,,,,
4209,Magnetometer,40.44373355113108,-79.94426729608043,288.95457458496094,239.93626403808594,15.269491195678711,-0.0369873046875,98.08585357666016,-1.0,-1.0,N/A,-0.0230865478515625,-0.9339141845703125,-0.4005889892578125,-0.2737937271595001,0.11506533622741699,-0.18286782503128052,-8.255386352539062,-111.4910888671875,-342.34600830078125,-0.02654435858130455,0.10618788003921509,-0.1261042058467865,1.2539659803507126,-0.11398814505868098,0.04764457066132114,-0.03543684259057045,-0.9502277374267578,-0.3095341920852661,0.016715897247195244,-0.24123665690422058,-0.2944277226924896,Walking,,,,,,,
4237,Gyrometer,40.44373355113108,-79.94426729608043,288.95457458496094,239.93626403808594,15.269491195678711,-0.0369873046875,98.08585357666016,-1.0,-1.0,N/A,-0.0230865478515625,-0.9339141845703125,-0.4005889892578125,-0.051718320697546005,0.009721336886286736,-0.028734708204865456,-8.255386352539062,-111.4910888671875,-342.34600830078125,-0.02654435858130455,0.10618788003921509,-0.1261042058467865,1.2539659803507126,-0.11398814505868098,0.04764457066132114,-0.03543684259057045,-0.9502277374267578,-0.3095341920852661,0.016715897247195244,-0.24123665690422058,-0.2944277226924896,Walking,,,,,,,
4264,Accelerometer,40.44373355113108,-79.94426729608043,288.95457458496094,239.93626403808594,15.269491195678711,-0.0369873046875,98.08585357666016,-1.0,-1.0,N/A,-0.040496826171875,-0.8918304443359375,-0.2902374267578125,-0.051718320697546005,0.009721336886286736,-0.028734708204865456,-8.255386352539062,-111.4910888671875,-342.34600830078125,-0.02654435858130455,0.10618788003921509,-0.1261042058467865,1.2539659803507126,-0.11398814505868098,0.04764457066132114,-0.03543684259057045,-0.9502277374267578,-0.3095341920852661,0.016715897247195244,-0.24123665690422058,-0.2944277226924896,Walking,,,,,,,
4290,Device Motion,40.44373355113108,-79.94426729608043,288.95457458496094,239.93626403808594,15.269491195678711,-0.0369873046875,98.08585357666016,-1.0,-1.0,N/A,-0.040496826171875,-0.8918304443359375,-0.2902374267578125,-0.051718320697546005,0.009721336886286736,-0.028734708204865456,-8.255386352539062,-111.4910888671875,-342.34600830078125,-0.0412769541144371,0.0313069224357605,0.016262322664260864,1.2328316335934426,-0.06774163147681235,-0.03465297181262965,-0.0224437452852726,-0.9434314370155334,-0.3308069705963135,0.0785922110080719,-0.13412387669086456,0.16956518590450287,Walking,,,,,,,
4423,COMPASS,40.44373355113108,-79.94426729608043,288.95457458496094,238.7925567626953,15.274246215820312,-0.0369873046875,98.08585357666016,-1.0,-1.0,N/A,-0.040496826171875,-0.8918304443359375,-0.2902374267578125,-0.051718320697546005,0.009721336886286736,-0.028734708204865456,-8.255386352539062,-111.4910888671875,-342.34600830078125,-0.0412769541144371,0.0313069224357605,0.016262322664260864,1.2328316335934426,-0.06774163147681235,-0.03465297181262965,-0.0224437452852726,-0.9434314370155334,-0.3308069705963135,0.0785922110080719,-0.13412387669086456,0.16956518590450287,Walking,,,,,,,
4508,Magnetometer,40.44373355113108,-79.94426729608043,288.95457458496094,238.7925567626953,15.274246215820312,-0.0369873046875,98.08585357666016,-1.0,-1.0,N/A,-0.040496826171875,-0.8918304443359375,-0.2902374267578125,-0.051718320697546005,0.009721336886286736,-0.028734708204865456,-7.9601287841796875,-116.04866027832031,-340.70745849609375,-0.0412769541144371,0.0313069224357605,0.016262322664260864,1.2328316335934426,-0.06774163147681235,-0.03465297181262965,-0.0224437452852726,-0.9434314370155334,-0.3308069705963135,0.0785922110080719,-0.13412387669086456,0.16956518590450287,Walking,,,,,,,
4536,Gyrometer,40.44373355113108,-79.94426729608043,288.95457458496094,238.7925567626953,15.274246215820312,-0.0369873046875,98.08585357666016,-1.0,-1.0,N/A,-0.040496826171875,-0.8918304443359375,-0.2902374267578125,-0.07069840282201767,0.2528831362724304,0.050036802887916565,-7.9601287841796875,-116.04866027832031,-340.70745849609375,-0.0412769541144371,0.0313069224357605,0.016262322664260864,1.2328316335934426,-0.06774163147681235,-0.03465297181262965,-0.0224437452852726,-0.9434314370155334,-0.3308069705963135,0.0785922110080719,-0.13412387669086456,0.16956518590450287,Walking,,,,,,,
4564,COMPASS,40.44373355113108,-79.94426729608043,288.95457458496094,237.71693420410156,15.27613353729248,-0.0369873046875,98.08585357666016,-1.0,-1.0,N/A,-0.040496826171875,-0.8918304443359375,-0.2902374267578125,-0.07069840282201767,0.2528831362724304,0.050036802887916565,-7.9601287841796875,-116.04866027832031,-340.70745849609375,-0.0412769541144371,0.0313069224357605,0.016262322664260864,1.2328316335934426,-0.06774163147681235,-0.03465297181262965,-0.0224437452852726,-0.9434314370155334,-0.3308069705963135,0.0785922110080719,-0.13412387669086456,0.16956518590450287,Walking,,,,,,,
4591,Accelerometer,40.44373355113108,-79.94426729608043,288.95457458496094,237.71693420410156,15.27613353729248,-0.0369873046875,98.08585357666016,-1.0,-1.0,N/A,-0.0401611328125,-0.978240966796875,-0.3721160888671875,-0.07069840282201767,0.2528831362724304,0.050036802887916565,-7.9601287841796875,-116.04866027832031,-340.70745849609375,-0.0412769541144371,0.0313069224357605,0.016262322664260864,1.2328316335934426,-0.06774163147681235,-0.03465297181262965,-0.0224437452852726,-0.9434314370155334,-0.3308069705963135,0.0785922110080719,-0.13412387669086456,0.16956518590450287,Walking,,,,,,,
4618,Device Motion,40.44373355113108,-79.94426729608043,288.95457458496094,237.71693420410156,15.27613353729248,-0.0369873046875,98.08585357666016,-1.0,-1.0,N/A,-0.0401611328125,-0.978240966796875,-0.3721160888671875,-0.07069840282201767,0.2528831362724304,0.050036802887916565,-7.9601287841796875,-116.04866027832031,-340.70745849609375,0.027909178286790848,0.018775999546051025,-0.055614858865737915,1.2574806229444957,-0.13282433555090353,0.06263490789587609,-0.04081811010837555,-0.9513168334960938,-0.3054996132850647,-0.1618300974369049,0.0579487644135952,0.016632867977023125,Walking,,,,,,,
4702,COMPASS,40.44373355113108,-79.94426729608043,288.95457458496094,236.6801300048828,15.278000831604004,-0.0369873046875,98.08585357666016,-1.0,-1.0,N/A,-0.0401611328125,-0.978240966796875,-0.3721160888671875,-0.07069840282201767,0.2528831362724304,0.050036802887916565,-7.9601287841796875,-116.04866027832031,-340.70745849609375,0.027909178286790848,0.018775999546051025,-0.055614858865737915,1.2574806229444957,-0.13282433555090353,0.06263490789587609,-0.04081811010837555,-0.9513168334960938,-0.3054996132850647,-0.1618300974369049,0.0579487644135952,0.016632867977023125,Walking,,,,,,,
4809,Magnetometer,40.44373355113108,-79.94426729608043,288.95457458496094,236.6801300048828,15.278000831604004,-0.0369873046875,98.08585357666016,-1.0,-1.0,N/A,-0.0401611328125,-0.978240966796875,-0.3721160888671875,-0.07069840282201767,0.2528831362724304,0.050036802887916565,-6.9745635986328125,-118.52993774414062,-340.58795166015625,0.027909178286790848,0.018775999546051025,-0.055614858865737915,1.2574806229444957,-0.13282433555090353,0.06263490789587609,-0.04081811010837555,-0.9513168334960938,-0.3054996132850647,-0.1618300974369049,0.0579487644135952,0.016632867977023125,Walking,,,,,,,
4835,Gyrometer,40.44373355113108,-79.94426729608043,288.95457458496094,236.6801300048828,15.278000831604004,-0.0369873046875,98.08585357666016,-1.0,-1.0,N/A,-0.0401611328125,-0.978240966796875,-0.3721160888671875,-0.10055910050868988,0.046662576496601105,0.021462947130203247,-6.9745635986328125,-118.52993774414062,-340.58795166015625,0.027909178286790848,0.018775999546051025,-0.055614858865737915,1.2574806229444957,-0.13282433555090353,0.06263490789587609,-0.04081811010837555,-0.9513168334960938,-0.3054996132850647,-0.1618300974369049,0.0579487644135952,0.016632867977023125,Walking,,,,,,,
4861,Accelerometer,40.44373355113108,-79.94426729608043,288.95457458496094,236.6801300048828,15.278000831604004,-0.0369873046875,98.08585357666016,-1.0,-1.0,N/A,-0.0203399658203125,-0.8912353515625,-0.272369384765625,-0.10055910050868988,0.046662576496601105,0.021462947130203247,-6.9745635986328125,-118.52993774414062,-340.58795166015625,0.027909178286790848,0.018775999546051025,-0.055614858865737915,1.2574806229444957,-0.13282433555090353,0.06263490789587609,-0.04081811010837555,-0.9513168334960938,-0.3054996132850647,-0.1618300974369049,0.0579487644135952,0.016632867977023125,Walking,,,,,,,
4881,Device Motion,40.44373355113108,-79.94426729608043,288.95457458496094,236.6801300048828,15.278000831604004,-0.0369873046875,98.08585357666016,-1.0,-1.0,N/A,-0.0203399658203125,-0.8912353515625,-0.272369384765625,-0.10055910050868988,0.046662576496601105,0.021462947130203247,-6.9745635986328125,-118.52993774414062,-340.58795166015625,0.028303764760494232,0.028499722480773926,0.07634514570236206,1.2189332892154134,-0.12753988002561276,0.08143623622410569,-0.04383721575140953,-0.9387322664260864,-0.34184810519218445,0.02095741033554077,-0.01937481015920639,-0.10902713984251022,Walking,,,,,,,
