Timestamp (ms),Triggering Sensor,Latitude,Longitude,Altitude,Heading (degrees),Heading accuracy (degrees),Relative Altitude (m),Pressure (kPa),Speed (m/s),Speed Accuracy (m/s),Floor,Acceleration - X axis,Acceleration - Y axis,Acceleration - Z axis,Gyrometer - X axis,Gyrometer - Y axis,Gyrometer - Z axis,Magnetometer - X axis,Magnetometer - Y axis,Magnetometer - Z axis,User acceleration - X axis,User acceleration - Y axis,User acceleration - Z axis,Attitude Pitch,Attitude Roll,Attitude Yaw,Gravity - X axis,Gravity - Y axis,Gravity - Z axis,Rotation Rate - X axis,Rotation Rate - Y axis,Rotation Rate - Z axis,Activity Type,Number of Steps,Distance,Floors Ascended,Floors Descended,Current Pace,Current Cadence,Average Active Pace
8,Activity Manager,,,,,,,,,,,,,,,,,,,,,,,,,,,,,,,,Walking,,,,,,,
40,GPS,40.44359494400198,-79.94449667405543,289.5242500305176,,,,,-1.0,-1.0,N/A,,,,,,,,,,,,,,,,,,,,,,Walking,,,,,,,
69,COMPASS,40.44359494400198,-79.94449667405543,289.5242500305176,315.4285888671875,15.861565589904785,,,-1.0,-1.0,N/A,,,,,,,,,,,,,,,,,,,,,,Walking,,,,,,,
98,GPS,40.44359494400198,-79.94449667405543,289.5242500305176,315.4285888671875,15.861565589904785,,,-1.0,-1.0,N/A,,,,,,,,,,,,,,,,,,,,,,Walking,,,,,,,
127,Gyrometer,40.44359494400198,-79.94449667405543,289.5242500305176,315.4285888671875,15.861565589904785,,,-1.0,-1.0,N/A,,,,-0.051004063338041306,-0.08681878447532654,0.030491329729557037,,,,,,,,,,,,,,,,Walking,,,,,,,
153,Magnetometer,40.44359494400198,-79.94449667405543,289.5242500305176,315.4285888671875,15.861565589904785,,,-1.0,-1.0,N/A,,,,-0.051004063338041306,-0.08681878447532654,0.030491329729557037,-16.724212646484375,-90.73690795898438,-334.83770751953125,,,,,,,,,,,,,Walking,,,,,,,
181,Accelerometer,40.44359494400198,-79.94449667405543,289.5242500305176,315.4285888671875,15.861565589904785,,,-1.0,-1.0,N/A,0.0485076904296875,-0.978118896484375,-0.244049072265625,-0.051004063338041306,-0.08681878447532654,0.030491329729557037,-16.724212646484375,-90.73690795898438,-334.83770751953125,,,,,,,,,,,,,Walking,,,,,,,
208,Device Motion,40.44359494400198,-79.94449667405543,289.5242500305176,315.4285888671875,15.861565589904785,,,-1.0,-1.0,N/A,0.0485076904296875,-0.978118896484375,-0.244049072265625,-0.051004063338041306,-0.08681878447532654,0.030491329729557037,-16.724212646484375,-90.73690795898438,-334.83770751953125,-0.0011148452758789062,0.0029836297035217285,0.03327465057373047,1.3105120135484516,0.16035968476939677,-0.12334947861291469,0.04109285771846771,-0.966316819190979,-0.2540539801120758,0.06026941165328026,-0.04801040515303612,-0.008473782800137997,Walking,,,,,,,
305,Gyrometer,40.44359494400198,-79.94449667405543,289.5242500305176,315.4285888671875,15.861565589904785,,,-1.0,-1.0,N/A,0.0485076904296875,-0.978118896484375,-0.244049072265625,-0.003681021276861429,-0.018065020442008972,0.017711352556943893,-16.724212646484375,-90.73690795898438,-334.83770751953125,-0.0011148452758789062,0.0029836297035217285,0.03327465057373047,1.3105120135484516,0.16035968476939677,-0.12334947861291469,0.04109285771846771,-0.966316819190979,-0.2540539801120758,0.06026941165328026,-0.04801040515303612,-0.008473782800137997,Walking,,,,,,,
333,Magnetometer,40.44359494400198,-79.94449667405543,289.5242500305176,315.4285888671875,15.861565589904785,,,-1.0,-1.0,N/A,0.0485076904296875,-0.978118896484375,-0.244049072265625,-0.003681021276861429,-0.018065020442008972,0.017711352556943893,-16.22784423828125,-90.97232055664062,-334.42657470703125,-0.0011148452758789062,0.0029836297035217285,0.03327465057373047,1.3105120135484516,0.16035968476939677,-0.12334947861291469,0.04109285771846771,-0.966316819190979,-0.2540539801120758,0.06026941165328026,-0.04801040515303612,-0.008473782800137997,Walking,,,,,,,
360,Accelerometer,40.44359494400198,-79.94449667405543,289.5242500305176,315.4285888671875,15.861565589904785,,,-1.0,-1.0,N/A,0.0429534912109375,-0.9643402099609375,-0.2189788818359375,-0.003681021276861429,-0.018065020442008972,0.017711352556943893,-16.22784423828125,-90.97232055664062,-334.42657470703125,-0.0011148452758789062,0.0029836297035217285,0.03327465057373047,1.3105120135484516,0.16035968476939677,-0.12334947861291469,0.04109285771846771,-0.966316819190979,-0.2540539801120758,0.06026941165328026,-0.04801040515303612,-0.008473782800137997,Walking,,,,,,,
394,GPS,40.443735364518936,-79.94421519680331,289.52170181274414,315.4285888671875,15.861565589904785,,,-1.0,-1.0,N/A,0.0429534912109375,-0.9643402099609375,-0.2189788818359375,-0.003681021276861429,-0.018065020442008972,0.017711352556943893,-16.22784423828125,-90.97232055664062,-334.42657470703125,-0.0011148452758789062,0.0029836297035217285,0.03327465057373047,1.3105120135484516,0.16035968476939677,-0.12334947861291469,0.04109285771846771,-0.966316819190979,-0.2540539801120758,0.06026941165328026,-0.04801040515303612,-0.008473782800137997,Walking,,,,,,,
430,GPS,40.44373619725946,-79.94421452840164,289.52170181274414,315.4285888671875,15.861565589904785,,,-1.0,-1.0,N/A,0.0429534912109375,-0.9643402099609375,-0.2189788818359375,-0.003681021276861429,-0.018065020442008972,0.017711352556943893,-16.22784423828125,-90.97232055664062,-334.42657470703125,-0.0011148452758789062,0.0029836297035217285,0.03327465057373047,1.3105120135484516,0.16035968476939677,-0.12334947861291469,0.04109285771846771,-0.966316819190979,-0.2540539801120758,0.06026941165328026,-0.04801040515303612,-0.008473782800137997,Walking,,,,,,,
465,GPS,40.443736854729806,-79.94421380218125,289.52170181274414,315.4285888671875,15.861565589904785,,,-1.0,-1.0,N/A,0.0429534912109375,-0.9643402099609375,-0.2189788818359375,-0.003681021276861429,-0.018065020442008972,0.017711352556943893,-16.22784423828125,-90.97232055664062,-334.42657470703125,-0.0011148452758789062,0.0029836297035217285,0.03327465057373047,1.3105120135484516,0.16035968476939677,-0.12334947861291469,0.04109285771846771,-0.966316819190979,-0.2540539801120758,0.06026941165328026,-0.04801040515303612,-0.008473782800137997,Walking,,,,,,,
497,Device Motion,40.443736854729806,-79.94421380218125,289.52170181274414,315.4285888671875,15.861565589904785,,,-1.0,-1.0,N/A,0.0429534912109375,-0.9643402099609375,-0.2189788818359375,-0.003681021276861429,-0.018065020442008972,0.017711352556943893,-16.22784423828125,-90.97232055664062,-334.42657470703125,-0.016017761081457138,0.0028977394104003906,0.03652361035346985,1.3178088231036578,0.13666025413978186,-0.11759402882384093,0.03409944847226143,-0.9681689739227295,-0.24796457588672638,0.04665527865290642,-0.017399223521351814,-0.04665348678827286,Walking,,,,,,,
580,COMPASS,40.443736854729806,-79.94421380218125,289.52170181274414,316.5373840332031,15.843119621276855,,,-1.0,-1.0,N/A,0.0429534912109375,-0.9643402099609375,-0.2189788818359375,-0.003681021276861429,-0.018065020442008972,0.017711352556943893,-16.22784423828125,-90.97232055664062,-334.42657470703125,-0.016017761081457138,0.0028977394104003906,0.03652361035346985,1.3178088231036578,0.13666025413978186,-0.11759402882384093,0.03409944847226143,-0.9681689739227295,-0.24796457588672638,0.04665527865290642,-0.017399223521351814,-0.04665348678827286,Walking,,,,,,,
612,Gyrometer,40.443736854729806,-79.94421380218125,289.52170181274414,316.5373840332031,15.843119621276855,,,-1.0,-1.0,N/A,0.0429534912109375,-0.9643402099609375,-0.2189788818359375,0.01889033429324627,-0.24201741814613342,-0.06925017386674881,-16.22784423828125,-90.97232055664062,-334.42657470703125,-0.016017761081457138,0.0028977394104003906,0.03652361035346985,1.3178088231036578,0.13666025413978186,-0.11759402882384093,0.03409944847226143,-0.9681689739227295,-0.24796457588672638,0.04665527865290642,-0.017399223521351814,-0.04665348678827286,Walking,,,,,,,
644,Magnetometer,40.443736854729806,-79.94421380218125,289.52170181274414,316.5373840332031,15.843119621276855,,,-1.0,-1.0,N/A,0.0429534912109375,-0.9643402099609375,-0.2189788818359375,0.01889033429324627,-0.24201741814613342,-0.06925017386674881,-17.44976806640625,-91.11485290527344,-334.9971618652344,-0.016017761081457138,0.0028977394104003906,0.03652361035346985,1.3178088231036578,0.13666025413978186,-0.11759402882384093,0.03409944847226143,-0.9681689739227295,-0.24796457588672638,0.04665527865290642,-0.017399223521351814,-0.04665348678827286,Walking,,,,,,,
674,COMPASS,40.443736854729806,-79.94421380218125,289.52170181274414,317.7159118652344,15.843718528747559,,,-1.0,-1.0,N/A,0.0429534912109375,-0.9643402099609375,-0.2189788818359375,0.01889033429324627,-0.24201741814613342,-0.06925017386674881,-17.44976806640625,-91.11485290527344,-334.9971618652344,-0.016017761081457138,0.0028977394104003906,0.03652361035346985,1.3178088231036578,0.13666025413978186,-0.11759402882384093,0.03409944847226143,-0.9681689739227295,-0.24796457588672638,0.04665527865290642,-0.017399223521351814,-0.04665348678827286,Walking,,,,,,,
704,Accelerometer,40.443736854729806,-79.94421380218125,289.52170181274414,317.7159118652344,15.843718528747559,,,-1.0,-1.0,N/A,0.000274658203125,-0.9509735107421875,-0.159149169921875,0.01889033429324627,-0.24201741814613342,-0.06925017386674881,-17.44976806640625,-91.11485290527344,-334.9971618652344,-0.016017761081457138,0.0028977394104003906,0.03652361035346985,1.3178088231036578,0.13666025413978186,-0.11759402882384093,0.03409944847226143,-0.9681689739227295,-0.24796457588672638,0.04665527865290642,-0.017399223521351814,-0.04665348678827286,Walking,,,,,,,
760,COMPASS,40.443736854729806,-79.94421380218125,289.52170181274414,318.8345031738281,15.84526538848877,,,-1.0,-1.0,N/A,0.000274658203125,-0.9509735107421875,-0.159149169921875,0.01889033429324627,-0.24201741814613342,-0.06925017386674881,-17.44976806640625,-91.11485290527344,-334.9971618652344,-0.016017761081457138,0.0028977394104003906,0.03652361035346985,1.3178088231036578,0.13666025413978186,-0.11759402882384093,0.03409944847226143,-0.9681689739227295,-0.24796457588672638,0.04665527865290642,-0.017399223521351814,-0.04665348678827286,Walking,,,,,,,
787,Device Motion,40.443736854729806,-79.94421380218125,289.52170181274414,318.8345031738281,15.84526538848877,,,-1.0,-1.0,N/A,0.000274658203125,-0.9509735107421875,-0.159149169921875,0.01889033429324627,-0.24201741814613342,-0.06925017386674881,-17.44976806640625,-91.11485290527344,-334.9971618652344,-0.054586466401815414,0.002991199493408203,0.12303200364112854,1.3040971050766073,0.15077807936987742,-0.17794681853741248,0.03958708792924881,-0.96464604139328,-0.2605593800544739,-0.12414781004190445,-0.12352998554706573,-0.06753157079219818,Walking,,,,,,,
849,GPS,40.4437345274906,-79.94425608776497,289.3484916687012,318.8345031738281,15.84526538848877,,,-1.0,-1.0,N/A,0.000274658203125,-0.9509735107421875,-0.159149169921875,0.01889033429324627,-0.24201741814613342,-0.06925017386674881,-17.44976806640625,-91.11485290527344,-334.9971618652344,-0.054586466401815414,0.002991199493408203,0.12303200364112854,1.3040971050766073,0.15077807936987742,-0.17794681853741248,0.03958708792924881,-0.96464604139328,-0.2605593800544739,-0.12414781004190445,-0.12352998554706573,-0.06753157079219818,Walking,,,,,,,
906,Gyrometer,40.4437345274906,-79.94425608776497,289.3484916687012,318.8345031738281,15.84526538848877,,,-1.0,-1.0,N/A,0.000274658203125,-0.9509735107421875,-0.159149169921875,-0.006586263421922922,-0.11061066389083862,-0.023619575425982475,-17.44976806640625,-91.11485290527344,-334.9971618652344,-0.054586466401815414,0.002991199493408203,0.12303200364112854,1.3040971050766073,0.15077807936987742,-0.17794681853741248,0.03958708792924881,-0.96464604139328,-0.2605593800544739,-0.12414781004190445,-0.12352998554706573,-0.06753157079219818,Walking,,,,,,,
941,Magnetometer,40.4437345274906,-79.94425608776497,289.3484916687012,318.8345031738281,15.84526538848877,,,-1.0,-1.0,N/A,0.000274658203125,-0.9509735107421875,-0.159149169921875,-0.006586263421922922,-0.11061066389083862,-0.023619575425982475,-18.947341918945312,-91.12843322753906,-335.47735595703125,-0.054586466401815414,0.002991199493408203,0.12303200364112854,1.3040971050766073,0.15077807936987742,-0.17794681853741248,0.03958708792924881,-0.96464604139328,-0.2605593800544739,-0.12414781004190445,-0.12352998554706573,-0.06753157079219818,Walking,,,,,,,
972,Accelerometer,40.4437345274906,-79.94425608776497,289.3484916687012,318.8345031738281,15.84526538848877,,,-1.0,-1.0,N/A,-0.008819580078125,-0.99627685546875,-0.1835479736328125,-0.006586263421922922,-0.11061066389083862,-0.023619575425982475,-18.947341918945312,-91.12843322753906,-335.47735595703125,-0.054586466401815414,0.002991199493408203,0.12303200364112854,1.3040971050766073,0.15077807936987742,-0.17794681853741248,0.03958708792924881,-0.96464604139328,-0.2605593800544739,-0.12414781004190445,-0.12352998554706573,-0.06753157079219818,Walking,,,,,,,
1044,Altimeter,40.4437345274906,-79.94425608776497,289.3484916687012,318.8345031738281,15.84526538848877,0,98.11865997314453,-1.0,-1.0,N/A,-0.008819580078125,-0.99627685546875,-0.1835479736328125,-0.006586263421922922,-0.11061066389083862,-0.023619575425982475,-18.947341918945312,-91.12843322753906,-335.47735595703125,-0.054586466401815414,0.002991199493408203,0.12303200364112854,1.3040971050766073,0.15077807936987742,-0.17794681853741248,0.03958708792924881,-0.96464604139328,-0.2605593800544739,-0.12414781004190445,-0.12352998554706573,-0.06753157079219818,Walking,,,,,,,
1080,Device Motion,40.4437345274906,-79.94425608776497,289.3484916687012,318.8345031738281,15.84526538848877,0,98.11865997314453,-1.0,-1.0,N/A,-0.008819580078125,-0.99627685546875,-0.1835479736328125,-0.006586263421922922,-0.11061066389083862,-0.023619575425982475,-18.947341918945312,-91.12843322753906,-335.47735595703125,-0.0458226203918457,-0.12061834335327148,0.09139370918273926,1.305788273294054,0.15182222641313242,-0.19096984033222908,0.0396122932434082,-0.9650903940200806,-0.2589045763015747,0.09033714234828949,0.04418094828724861,5.910394247621298e-05,Walking,,,,,,,
1207,Gyrometer,40.4437345274906,-79.94425608776497,289.3484916687012,318.8345031738281,15.84526538848877,0,98.11865997314453,-1.0,-1.0,N/A,-0.008819580078125,-0.99627685546875,-0.1835479736328125,0.02797091379761696,0.12105212360620499,0.013934990391135216,-18.947341918945312,-91.12843322753906,-335.47735595703125,-0.0458226203918457,-0.12061834335327148,0.09139370918273926,1.305788273294054,0.15182222641313242,-0.19096984033222908,0.0396122932434082,-0.9650903940200806,-0.2589045763015747,0.09033714234828949,0.04418094828724861,5.910394247621298e-05,Walking,,,,,,,
1241,Magnetometer,40.4437345274906,-79.94425608776497,289.3484916687012,318.8345031738281,15.84526538848877,0,98.11865997314453,-1.0,-1.0,N/A,-0.008819580078125,-0.99627685546875,-0.1835479736328125,0.02797091379761696,0.12105212360620499,0.013934990391135216,-21.3951416015625,-93.13813781738281,-334.5367431640625,-0.0458226203918457,-0.12061834335327148,0.09139370918273926,1.305788273294054,0.15182222641313242,-0.19096984033222908,0.0396122932434082,-0.9650903940200806,-0.2589045763015747,0.09033714234828949,0.04418094828724861,5.910394247621298e-05,Walking,,,,,,,
1273,Accelerometer,40.4437345274906,-79.94425608776497,289.3484916687012,318.8345031738281,15.84526538848877,0,98.11865997314453,-1.0,-1.0,N/A,0.026702880859375,-1.026947021484375,-0.20465087890625,0.02797091379761696,0.12105212360620499,0.013934990391135216,-21.3951416015625,-93.13813781738281,-334.5367431640625,-0.0458226203918457,-0.12061834335327148,0.09139370918273926,1.305788273294054,0.15182222641313242,-0.19096984033222908,0.0396122932434082,-0.9650903940200806,-0.2589045763015747,0.09033714234828949,0.04418094828724861,5.910394247621298e-05,Walking,,,,,,,
1304,COMPASS,40.4437345274906,-79.94425608776497,289.3484916687012,317.82916259765625,15.850282669067383,0,98.11865997314453,-1.0,-1.0,N/A,0.026702880859375,-1.026947021484375,-0.20465087890625,0.02797091379761696,0.12105212360620499,0.013934990391135216,-21.3951416015625,-93.13813781738281,-334.5367431640625,-0.0458226203918457,-0.12061834335327148,0.09139370918273926,1.305788273294054,0.15182222641313242,-0.19096984033222908,0.0396122932434082,-0.9650903940200806,-0.2589045763015747,0.09033714234828949,0.04418094828724861,5.910394247621298e-05,Walking,,,,,,,
1368,Device Motion,40.4437345274906,-79.94425608776497,289.3484916687012,317.82916259765625,15.850282669067383,0,98.11865997314453,-1.0,-1.0,N/A,0.026702880859375,-1.026947021484375,-0.20465087890625,0.02797091379761696,0.12105212360620499,0.013934990391135216,-21.3951416015625,-93.13813781738281,-334.5367431640625,-0.005321837961673737,0.09760111570358276,0.0032283663749694824,1.2948924986150223,0.11912769482790934,-0.11507418040231032,0.03237565979361534,-0.9621793627738953,-0.27048590779304504,0.11415760219097137,0.3347663879394531,0.1275012493133545,Walking,,,,,,,
1402,COMPASS,40.4437345274906,-79.94425608776497,289.3484916687012,316.552978515625,15.851848602294922,0,98.11865997314453,-1.0,-1.0,N/A,0.026702880859375,-1.026947021484375,-0.20465087890625,0.02797091379761696,0.12105212360620499,0.013934990391135216,-21.3951416015625,-93.13813781738281,-334.5367431640625,-0.005321837961673737,0.09760111570358276,0.0032283663749694824,1.2948924986150223,0.11912769482790934,-0.11507418040231032,0.03237565979361534,-0.9621793627738953,-0.27048590779304504,0.11415760219097137,0.3347663879394531,0.1275012493133545,Walking,,,,,,,
1438,COMPASS,40.4437345274906,-79.94425608776497,289.3484916687012,315.2113952636719,15.853031158447266,0,98.11865997314453,-1.0,-1.0,N/A,0.026702880859375,-1.026947021484375,-0.20465087890625,0.02797091379761696,0.12105212360620499,0.013934990391135216,-21.3951416015625,-93.13813781738281,-334.5367431640625,-0.005321837961673737,0.09760111570358276,0.0032283663749694824,1.2948924986150223,0.11912769482790934,-0.11507418040231032,0.03237565979361534,-0.9621793627738953,-0.27048590779304504,0.11415760219097137,0.3347663879394531,0.1275012493133545,Walking,,,,,,,
1507,Gyrometer,40.4437345274906,-79.94425608776497,289.3484916687012,315.2113952636719,15.853031158447266,0,98.11865997314453,-1.0,-1.0,N/A,0.026702880859375,-1.026947021484375,-0.20465087890625,-0.29379352927207947,0.04537627100944519,0.07166673243045807,-21.3951416015625,-93.13813781738281,-334.5367431640625,-0.005321837961673737,0.09760111570358276,0.0032283663749694824,1.2948924986150223,0.11912769482790934,-0.11507418040231032,0.03237565979361534,-0.9621793627738953,-0.27048590779304504,0.11415760219097137,0.3347663879394531,0.1275012493133545,Walking,,,,,,,
1542,Magnetometer,40.4437345274906,-79.94425608776497,289.3484916687012,315.2113952636719,15.853031158447266,0,98.11865997314453,-1.0,-1.0,N/A,0.026702880859375,-1.026947021484375,-0.20465087890625,-0.29379352927207947,0.04537627100944519,0.07166673243045807,-23.32562255859375,-94.77836608886719,-332.6185302734375,-0.005321837961673737,0.09760111570358276,0.0032283663749694824,1.2948924986150223,0.11912769482790934,-0.11507418040231032,0.03237565979361534,-0.9621793627738953,-0.27048590779304504,0.11415760219097137,0.3347663879394531,0.1275012493133545,Walking,,,,,,,
1566,COMPASS,40.4437345274906,-79.94425608776497,289.3484916687012,314.1732177734375,15.855396270751953,0,98.11865997314453,-1.0,-1.0,N/A,0.026702880859375,-1.026947021484375,-0.20465087890625,-0.29379352927207947,0.04537627100944519,0.07166673243045807,-23.32562255859375,-94.77836608886719,-332.6185302734375,-0.005321837961673737,0.09760111570358276,0.0032283663749694824,1.2948924986150223,0.11912769482790934,-0.11507418040231032,0.03237565979361534,-0.9621793627738953,-0.27048590779304504,0.11415760219097137,0.3347663879394531,0.1275012493133545,Walking,,,,,,,
1596,Accelerometer,40.4437345274906,-79.94425608776497,289.3484916687012,314.1732177734375,15.855396270751953,0,98.11865997314453,-1.0,-1.0,N/A,0.032867431640625,-0.8786163330078125,-0.2671661376953125,-0.29379352927207947,0.04537627100944519,0.07166673243045807,-23.32562255859375,-94.77836608886719,-332.6185302734375,-0.005321837961673737,0.09760111570358276,0.0032283663749694824,1.2948924986150223,0.11912769482790934,-0.11507418040231032,0.03237565979361534,-0.9621793627738953,-0.27048590779304504,0.11415760219097137,0.3347663879394531,0.1275012493133545,Walking,,,,,,,
1667,Device Motion,40.4437345274906,-79.94425608776497,289.3484916687012,314.1732177734375,15.855396270751953,0,98.11865997314453,-1.0,-1.0,N/A,0.032867431640625,-0.8786163330078125,-0.2671661376953125,-0.29379352927207947,0.04537627100944519,0.07166673243045807,-23.32562255859375,-94.77836608886719,-332.6185302734375,0.02341124229133129,0.0606197714805603,0.06112661957740784,1.2768371325208492,0.0961379397953627,-0.040958371494175756,0.02781251259148121,-0.9571042060852051,-0.2884061634540558,-0.05313099920749664,0.10943058878183365,0.04156596586108208,Walking,,,,,,,
1806,Magnetometer,40.4437345274906,-79.94425608776497,289.3484916687012,314.1732177734375,15.855396270751953,0,98.11865997314453,-1.0,-1.0,N/A,0.032867431640625,-0.8786163330078125,-0.2671661376953125,-0.29379352927207947,0.04537627100944519,0.07166673243045807,-25.360519409179688,-94.85684204101562,-330.0411376953125,0.02341124229133129,0.0606197714805603,0.06112661957740784,1.2768371325208492,0.0961379397953627,-0.040958371494175756,0.02781251259148121,-0.9571042060852051,-0.2884061634540558,-0.05313099920749664,0.10943058878183365,0.04156596586108208,Walking,,,,,,,
1842,Gyrometer,40.4437345274906,-79.94425608776497,289.3484916687012,314.1732177734375,15.855396270751953,0,98.11865997314453,-1.0,-1.0,N/A,0.032867431640625,-0.8786163330078125,-0.2671661376953125,0.0351601168513298,-0.13389068841934204,-0.1815578043460846,-25.360519409179688,-94.85684204101562,-330.0411376953125,0.02341124229133129,0.0606197714805603,0.06112661957740784,1.2768371325208492,0.0961379397953627,-0.040958371494175756,0.02781251259148121,-0.9571042060852051,-0.2884061634540558,-0.05313099920749664,0.10943058878183365,0.04156596586108208,Walking,,,,,,,
1873,Accelerometer,40.4437345274906,-79.94425608776497,289.3484916687012,314.1732177734375,15.855396270751953,0,98.11865997314453,-1.0,-1.0,N/A,0.0175018310546875,-0.998321533203125,-0.2529144287109375,0.0351601168513298,-0.13389068841934204,-0.1815578043460846,-25.360519409179688,-94.85684204101562,-330.0411376953125,0.02341124229133129,0.0606197714805603,0.06112661957740784,1.2768371325208492,0.0961379397953627,-0.040958371494175756,0.02781251259148121,-0.9571042060852051,-0.2884061634540558,-0.05313099920749664,0.10943058878183365,0.04156596586108208,Walking,,,,,,,
1904,COMPASS,40.4437345274906,-79.94425608776497,289.3484916687012,315.3708801269531,15.86081600189209,0,98.11865997314453,-1.0,-1.0,N/A,0.0175018310546875,-0.998321533203125,-0.2529144287109375,0.0351601168513298,-0.13389068841934204,-0.1815578043460846,-25.360519409179688,-94.85684204101562,-330.0411376953125,0.02341124229133129,0.0606197714805603,0.06112661957740784,1.2768371325208492,0.0961379397953627,-0.040958371494175756,0.02781251259148121,-0.9571042060852051,-0.2884061634540558,-0.05313099920749664,0.10943058878183365,0.04156596586108208,Walking,,,,,,,
1957,COMPASS,40.4437345274906,-79.94425608776497,289.3484916687012,316.40802001953125,15.862345695495605,0,98.11865997314453,-1.0,-1.0,N/A,0.0175018310546875,-0.998321533203125,-0.2529144287109375,0.0351601168513298,-0.13389068841934204,-0.1815578043460846,-25.360519409179688,-94.85684204101562,-330.0411376953125,0.02341124229133129,0.0606197714805603,0.06112661957740784,1.2768371325208492,0.0961379397953627,-0.040958371494175756,0.02781251259148121,-0.9571042060852051,-0.2884061634540558,-0.05313099920749664,0.10943058878183365,0.04156596586108208,Walking,,,,,,,
1989,Device Motion,40.4437345274906,-79.94425608776497,289.3484916687012,316.40802001953125,15.862345695495605,0,98.11865997314453,-1.0,-1.0,N/A,0.0175018310546875,-0.998321533203125,-0.2529144287109375,0.0351601168513298,-0.13389068841934204,-0.1815578043460846,-25.360519409179688,-94.85684204101562,-330.0411376953125,0.03556123003363609,-0.017070353031158447,-0.07345286011695862,1.2767580410790718,0.20978751502259865,-0.1758381010034365,0.0603555291891098,-0.9570813179016113,-0.28346532583236694,-0.19195334613323212,0.017734823748469353,-0.15162020921707153,Walking,,,,,,,
2042,Altimeter,40.4437345274906,-79.94425608776497,289.3484916687012,316.40802001953125,15.862345695495605,0.029052734375,98.11833953857422,-1.0,-1.0,N/A,0.0175018310546875,-0.998321533203125,-0.2529144287109375,0.0351601168513298,-0.13389068841934204,-0.1815578043460846,-25.360519409179688,-94.85684204101562,-330.0411376953125,0.03556123003363609,-0.017070353031158447,-0.07345286011695862,1.2767580410790718,0.20978751502259865,-0.1758381010034365,0.0603555291891098,-0.9570813179016113,-0.28346532583236694,-0.19195334613323212,0.017734823748469353,-0.15162020921707153,Walking,,,,,,,
2074,COMPASS,40.4437345274906,-79.94425608776497,289.3484916687012,317.5527038574219,15.86422061920166,0.029052734375,98.11833953857422,-1.0,-1.0,N/A,0.0175018310546875,-0.998321533203125,-0.2529144287109375,0.0351601168513298,-0.13389068841934204,-0.1815578043460846,-25.360519409179688,-94.85684204101562,-330.0411376953125,0.03556123003363609,-0.017070353031158447,-0.07345286011695862,1.2767580410790718,0.20978751502259865,-0.1758381010034365,0.0603555291891098,-0.9570813179016113,-0.28346532583236694,-0.19195334613323212,0.017734823748469353,-0.15162020921707153,Walking,,,,,,,
2106,Magnetometer,40.4437345274906,-79.94425608776497,289.3484916687012,317.5527038574219,15.86422061920166,0.029052734375,98.11833953857422,-1.0,-1.0,N/A,0.0175018310546875,-0.998321533203125,-0.2529144287109375,0.0351601168513298,-0.13389068841934204,-0.1815578043460846,-27.490585327148438,-93.97346496582031,-328.194580078125,0.03556123003363609,-0.017070353031158447,-0.07345286011695862,1.2767580410790718,0.20978751502259865,-0.1758381010034365,0.0603555291891098,-0.9570813179016113,-0.28346532583236694,-0.19195334613323212,0.017734823748469353,-0.15162020921707153,Walking,,,,,,,
2137,Gyrometer,40.4437345274906,-79.94425608776497,289.3484916687012,317.5527038574219,15.86422061920166,0.029052734375,98.11833953857422,-1.0,-1.0,N/A,0.0175018310546875,-0.998321533203125,-0.2529144287109375,-0.18474668264389038,-0.08304028958082199,-0.11962652951478958,-27.490585327148438,-93.97346496582031,-328.194580078125,0.03556123003363609,-0.017070353031158447,-0.07345286011695862,1.2767580410790718,0.20978751502259865,-0.1758381010034365,0.0603555291891098,-0.9570813179016113,-0.28346532583236694,-0.19195334613323212,0.017734823748469353,-0.15162020921707153,Walking,,,,,,,
2165,Accelerometer,40.4437345274906,-79.94425608776497,289.3484916687012,317.5527038574219,15.86422061920166,0.029052734375,98.11833953857422,-1.0,-1.0,N/A,0.0355072021484375,-0.811492919921875,-0.2522125244140625,-0.18474668264389038,-0.08304028958082199,-0.11962652951478958,-27.490585327148438,-93.97346496582031,-328.194580078125,0.03556123003363609,-0.017070353031158447,-0.07345286011695862,1.2767580410790718,0.20978751502259865,-0.1758381010034365,0.0603555291891098,-0.9570813179016113,-0.28346532583236694,-0.19195334613323212,0.017734823748469353,-0.15162020921707153,Walking,,,,,,,
2196,COMPASS,40.4437345274906,-79.94425608776497,289.3484916687012,318.6317138671875,15.866283416748047,0.029052734375,98.11833953857422,-1.0,-1.0,N/A,0.0355072021484375,-0.811492919921875,-0.2522125244140625,-0.18474668264389038,-0.08304028958082199,-0.11962652951478958,-27.490585327148438,-93.97346496582031,-328.194580078125,0.03556123003363609,-0.017070353031158447,-0.07345286011695862,1.2767580410790718,0.20978751502259865,-0.1758381010034365,0.0603555291891098,-0.9570813179016113,-0.28346532583236694,-0.19195334613323212,0.017734823748469353,-0.15162020921707153,Walking,,,,,,,
2265,Device Motion,40.4437345274906,-79.94425608776497,289.3484916687012,318.6317138671875,15.866283416748047,0.029052734375,98.11833953857422,-1.0,-1.0,N/A,0.0355072021484375,-0.811492919921875,-0.2522125244140625,-0.18474668264389038,-0.08304028958082199,-0.11962652951478958,-27.490585327148438,-93.97346496582031,-328.194580078125,-0.03974885493516922,0.03768289089202881,0.08180871605873108,1.2464348060810317,0.22981881247456556,-0.2227149161586574,0.07260103523731232,-0.9478543996810913,-0.31032413244247437,0.11523056775331497,-0.01889156736433506,0.0975465402007103,Walking,,,,,,,
2407,Magnetometer,40.4437345274906,-79.94425608776497,289.3484916687012,318.6317138671875,15.866283416748047,0.029052734375,98.11833953857422,-1.0,-1.0,N/A,0.0355072021484375,-0.811492919921875,-0.2522125244140625,-0.18474668264389038,-0.08304028958082199,-0.11962652951478958,-29.660186767578125,-93.92683410644531,-326.67327880859375,-0.03974885493516922,0.03768289089202881,0.08180871605873108,1.2464348060810317,0.22981881247456556,-0.2227149161586574,0.07260103523731232,-0.9478543996810913,-0.31032413244247437,0.11523056775331497,-0.01889156736433506,0.0975465402007103,Walking,,,,,,,
2443,Gyrometer,40.4437345274906,-79.94425608776497,289.3484916687012,318.6317138671875,15.866283416748047,0.029052734375,98.11833953857422,-1.0,-1.0,N/A,0.0355072021484375,-0.811492919921875,-0.2522125244140625,0.15594272315502167,-0.1415344923734665,0.10316073894500732,-29.660186767578125,-93.92683410644531,-326.67327880859375,-0.03974885493516922,0.03768289089202881,0.08180871605873108,1.2464348060810317,0.22981881247456556,-0.2227149161586574,0.07260103523731232,-0.9478543996810913,-0.31032413244247437,0.11523056775331497,-0.01889156736433506,0.0975465402007103,Walking,,,,,,,
2473,Accelerometer,40.4437345274906,-79.94425608776497,289.3484916687012,318.6317138671875,15.866283416748047,0.029052734375,98.11833953857422,-1.0,-1.0,N/A,0.075927734375,-1.118682861328125,-0.2684326171875,0.15594272315502167,-0.1415344923734665,0.10316073894500732,-29.660186767578125,-93.92683410644531,-326.67327880859375,-0.03974885493516922,0.03768289089202881,0.08180871605873108,1.2464348060810317,0.22981881247456556,-0.2227149161586574,0.07260103523731232,-0.9478543996810913,-0.31032413244247437,0.11523056775331497,-0.01889156736433506,0.0975465402007103,Walking,,,,,,,
2504,COMPASS,40.4437345274906,-79.94425608776497,289.3484916687012,317.4145812988281,15.871612548828125,0.029052734375,98.11833953857422,-1.0,-1.0,N/A,0.075927734375,-1.118682861328125,-0.2684326171875,0.15594272315502167,-0.1415344923734665,0.10316073894500732,-29.660186767578125,-93.92683410644531,-326.67327880859375,-0.03974885493516922,0.03768289089202881,0.08180871605873108,1.2464348060810317,0.22981881247456556,-0.2227149161586574,0.07260103523731232,-0.9478543996810913,-0.31032413244247437,0.11523056775331497,-0.01889156736433506,0.0975465402007103,Walking,,,,,,,
2534,Pedometer,40.4437345274906,-79.94425608776497,289.3484916687012,317.4145812988281,15.871612548828125,0.029052734375,98.11833953857422,-1.0,-1.0,N/A,0.075927734375,-1.118682861328125,-0.2684326171875,0.15594272315502167,-0.1415344923734665,0.10316073894500732,-29.660186767578125,-93.92683410644531,-326.67327880859375,-0.03974885493516922,0.03768289089202881,0.08180871605873108,1.2464348060810317,0.22981881247456556,-0.2227149161586574,0.07260103523731232,-0.9478543996810913,-0.31032413244247437,0.11523056775331497,-0.01889156736433506,0.0975465402007103,Walking,2,1.479999999981374,0,0,0.6564438343048096,2.009369611740112,1.860747466239635
2564,Device Motion,40.4437345274906,-79.94425608776497,289.3484916687012,317.4145812988281,15.871612548828125,0.029052734375,98.11833953857422,-1.0,-1.0,N/A,0.075927734375,-1.118682861328125,-0.2684326171875,0.15594272315502167,-0.1415344923734665,0.10316073894500732,-29.660186767578125,-93.92683410644531,-326.67327880859375,0.04230564832687378,0.020823955535888672,-0.015148282051086426,1.2754157354413167,0.18415534130716985,-0.15924681847360514,0.053305935114622116,-0.9566914439201355,-0.286182165145874,-0.22279459238052368,0.23705272376537323,0.08738751709461212,Walking,2,1.479999999981374,0,0,0.6564438343048096,2.009369611740112,1.860747466239635
2595,COMPASS,40.4437345274906,-79.94425608776497,289.3484916687012,316.2070617675781,15.8734130859375,0.029052734375,98.11833953857422,-1.0,-1.0,N/A,0.075927734375,-1.118682861328125,-0.2684326171875,0.15594272315502167,-0.1415344923734665,0.10316073894500732,-29.660186767578125,-93.92683410644531,-326.67327880859375,0.04230564832687378,0.020823955535888672,-0.015148282051086426,1.2754157354413167,0.18415534130716985,-0.15924681847360514,0.053305935114622116,-0.9566914439201355,-0.286182165145874,-0.22279459238052368,0.23705272376537323,0.08738751709461212,Walking,2,1.479999999981374,0,0,0.6564438343048096,2.009369611740112,1.860747466239635
2705,Magnetometer,40.4437345274906,-79.94425608776497,289.3484916687012,316.2070617675781,15.8734130859375,0.029052734375,98.11833953857422,-1.0,-1.0,N/A,0.075927734375,-1.118682861328125,-0.2684326171875,0.15594272315502167,-0.1415344923734665,0.10316073894500732,-31.837326049804688,-93.61351013183594,-327.6566162109375,0.04230564832687378,0.020823955535888672,-0.015148282051086426,1.2754157354413167,0.18415534130716985,-0.15924681847360514,0.053305935114622116,-0.9566914439201355,-0.286182165145874,-0.22279459238052368,0.23705272376537323,0.08738751709461212,Walking,2,1.479999999981374,0,0,0.6564438343048096,2.009369611740112,1.860747466239635
2742,COMPASS,40.4437345274906,-79.94425608776497,289.3484916687012,315.1445007324219,15.875945091247559,0.029052734375,98.11833953857422,-1.0,-1.0,N/A,0.075927734375,-1.118682861328125,-0.2684326171875,0.15594272315502167,-0.1415344923734665,0.10316073894500732,-31.837326049804688,-93.61351013183594,-327.6566162109375,0.04230564832687378,0.020823955535888672,-0.015148282051086426,1.2754157354413167,0.18415534130716985,-0.15924681847360514,0.053305935114622116,-0.9566914439201355,-0.286182165145874,-0.22279459238052368,0.23705272376537323,0.08738751709461212,Walking,2,1.479999999981374,0,0,0.6564438343048096,2.009369611740112,1.860747466239635
2772,Gyrometer,40.4437345274906,-79.94425608776497,289.3484916687012,315.1445007324219,15.875945091247559,0.029052734375,98.11833953857422,-1.0,-1.0,N/A,0.075927734375,-1.118682861328125,-0.2684326171875,-0.2273753583431244,0.05661960318684578,0.09407536685466766,-31.837326049804688,-93.61351013183594,-327.6566162109375,0.04230564832687378,0.020823955535888672,-0.015148282051086426,1.2754157354413167,0.18415534130716985,-0.15924681847360514,0.053305935114622116,-0.9566914439201355,-0.286182165145874,-0.22279459238052368,0.23705272376537323,0.08738751709461212,Walking,2,1.479999999981374,0,0,0.6564438343048096,2.009369611740112,1.860747466239635
2802,Accelerometer,40.4437345274906,-79.94425608776497,289.3484916687012,315.1445007324219,15.875945091247559,0.029052734375,98.11833953857422,-1.0,-1.0,N/A,0.0495758056640625,-0.788848876953125,-0.249267578125,-0.2273753583431244,0.05661960318684578,0.09407536685466766,-31.837326049804688,-93.61351013183594,-327.6566162109375,0.04230564832687378,0.020823955535888672,-0.015148282051086426,1.2754157354413167,0.18415534130716985,-0.15924681847360514,0.053305935114622116,-0.9566914439201355,-0.286182165145874,-0.22279459238052368,0.23705272376537323,0.08738751709461212,Walking,2,1.479999999981374,0,0,0.6564438343048096,2.009369611740112,1.860747466239635
2832,Activity Manager,40.4437345274906,-79.94425608776497,289.3484916687012,315.1445007324219,15.875945091247559,0.029052734375,98.11833953857422,-1.0,-1.0,N/A,0.0495758056640625,-0.788848876953125,-0.249267578125,-0.2273753583431244,0.05661960318684578,0.09407536685466766,-31.837326049804688,-93.61351013183594,-327.6566162109375,0.04230564832687378,0.020823955535888672,-0.015148282051086426,1.2754157354413167,0.18415534130716985,-0.15924681847360514,0.053305935114622116,-0.9566914439201355,-0.286182165145874,-0.22279459238052368,0.23705272376537323,0.08738751709461212,Walking,2,1.479999999981374,0,0,0.6564438343048096,2.009369611740112,1.860747466239635
2861,COMPASS,40.4437345274906,-79.94425608776497,289.3484916687012,314.0901794433594,15.878180503845215,0.029052734375,98.11833953857422,-1.0,-1.0,N/A,0.0495758056640625,-0.788848876953125,-0.249267578125,-0.2273753583431244,0.05661960318684578,0.09407536685466766,-31.837326049804688,-93.61351013183594,-327.6566162109375,0.04230564832687378,0.020823955535888672,-0.015148282051086426,1.2754157354413167,0.18415534130716985,-0.15924681847360514,0.053305935114622116,-0.9566914439201355,-0.286182165145874,-0.22279459238052368,0.23705272376537323,0.08738751709461212,Walking,2,1.479999999981374,0,0,0.6564438343048096,2.009369611740112,1.860747466239635
2894,Device Motion,40.4437345274906,-79.94425608776497,289.3484916687012,314.0901794433594,15.878180503845215,0.029052734375,98.11833953857422,-1.0,-1.0,N/A,0.0495758056640625,-0.788848876953125,-0.249267578125,-0.2273753583431244,0.05661960318684578,0.09407536685466766,-31.837326049804688,-93.61351013183594,-327.6566162109375,0.04054092988371849,0.007908523082733154,0.03070428967475891,1.2263370899827173,0.14908325376827405,-0.08169738397352717,0.05015731230378151,-0.9412581920623779,-0.3339420557022095,0.045273005962371826,0.06349113583564758,0.08204331994056702,Walking,2,1.479999999981374,0,0,0.6564438343048096,2.009369611740112,1.860747466239635
3005,Magnetometer,40.4437345274906,-79.94425608776497,289.3484916687012,314.0901794433594,15.878180503845215,0.029052734375,98.11833953857422,-1.0,-1.0,N/A,0.0495758056640625,-0.788848876953125,-0.249267578125,-0.2273753583431244,0.05661960318684578,0.09407536685466766,-35.21900939941406,-94.59649658203125,-328.75640869140625,0.04054092988371849,0.007908523082733154,0.03070428967475891,1.2263370899827173,0.14908325376827405,-0.08169738397352717,0.05015731230378151,-0.9412581920623779,-0.3339420557022095,0.045273005962371826,0.06349113583564758,0.08204331994056702,Walking,2,1.479999999981374,0,0,0.6564438343048096,2.009369611740112,1.860747466239635
3040,Gyrometer,40.4437345274906,-79.94425608776497,289.3484916687012,314.0901794433594,15.878180503845215,0.029052734375,98.11833953857422,-1.0,-1.0,N/A,0.0495758056640625,-0.788848876953125,-0.249267578125,0.2220626324415207,0.031072165817022324,-0.13474422693252563,-35.21900939941406,-94.59649658203125,-328.75640869140625,0.04054092988371849,0.007908523082733154,0.03070428967475891,1.2263370899827173,0.14908325376827405,-0.08169738397352717,0.05015731230378151,-0.9412581920623779,-0.3339420557022095,0.045273005962371826,0.06349113583564758,0.08204331994056702,Walking,2,1.479999999981374,0,0,0.6564438343048096,2.009369611740112,1.860747466239635
3070,Altimeter,40.4437345274906,-79.94425608776497,289.3484916687012,314.0901794433594,15.878180503845215,0.05548095703125,98.11802673339844,-1.0,-1.0,N/A,0.0495758056640625,-0.788848876953125,-0.249267578125,0.2220626324415207,0.031072165817022324,-0.13474422693252563,-35.21900939941406,-94.59649658203125,-328.75640869140625,0.04054092988371849,0.007908523082733154,0.03070428967475891,1.2263370899827173,0.14908325376827405,-0.08169738397352717,0.05015731230378151,-0.9412581920623779,-0.3339420557022095,0.045273005962371826,0.06349113583564758,0.08204331994056702,Walking,2,1.479999999981374,0,0,0.6564438343048096,2.009369611740112,1.860747466239635
3100,Accelerometer,40.4437345274906,-79.94425608776497,289.3484916687012,314.0901794433594,15.878180503845215,0.05548095703125,98.11802673339844,-1.0,-1.0,N/A,0.0552978515625,-1.026214599609375,-0.401458740234375,0.2220626324415207,0.031072165817022324,-0.13474422693252563,-35.21900939941406,-94.59649658203125,-328.75640869140625,0.04054092988371849,0.007908523082733154,0.03070428967475891,1.2263370899827173,0.14908325376827405,-0.08169738397352717,0.05015731230378151,-0.9412581920623779,-0.3339420557022095,0.045273005962371826,0.06349113583564758,0.08204331994056702,Walking,2,1.479999999981374,0,0,0.6564438343048096,2.009369611740112,1.860747466239635
3128,COMPASS,40.4437345274906,-79.94425608776497,289.3484916687012,315.1490173339844,15.882406234741211,0.05548095703125,98.11802673339844,-1.0,-1.0,N/A,0.0552978515625,-1.026214599609375,-0.401458740234375,0.2220626324415207,0.031072165817022324,-0.13474422693252563,-35.21900939941406,-94.59649658203125,-328.75640869140625,0.04054092988371849,0.007908523082733154,0.03070428967475891,1.2263370899827173,0.14908325376827405,-0.08169738397352717,0.05015731230378151,-0.9412581920623779,-0.3339420557022095,0.045273005962371826,0.06349113583564758,0.08204331994056702,Walking,2,1.479999999981374,0,0,0.6564438343048096,2.009369611740112,1.860747466239635
3162,Device Motion,40.4437345274906,-79.94425608776497,289.3484916687012,315.1490173339844,15.882406234741211,0.05548095703125,98.11802673339844,-1.0,-1.0,N/A,0.0552978515625,-1.026214599609375,-0.401458740234375,0.2220626324415207,0.031072165817022324,-0.13474422693252563,-35.21900939941406,-94.59649658203125,-328.75640869140625,-0.04045403376221657,-0.0019143223762512207,-0.10331699252128601,1.2149170510947744,0.16858421296216444,-0.12693544984923893,0.058459408581256866,-0.937340497970581,-0.34347546100616455,-0.40883246064186096,-0.27559736371040344,-0.10864932835102081,Walking,2,1.479999999981374,0,0,0.6564438343048096,2.009369611740112,1.860747466239635
3193,COMPASS,40.4437345274906,-79.94425608776497,289.3484916687012,316.3580627441406,15.883782386779785,0.05548095703125,98.11802673339844,-1.0,-1.0,N/A,0.0552978515625,-1.026214599609375,-0.401458740234375,0.2220626324415207,0.031072165817022324,-0.13474422693252563,-35.21900939941406,-94.59649658203125,-328.75640869140625,-0.04045403376221657,-0.0019143223762512207,-0.10331699252128601,1.2149170510947744,0.16858421296216444,-0.12693544984923893,0.058459408581256866,-0.937340497970581,-0.34347546100616455,-0.40883246064186096,-0.27559736371040344,-0.10864932835102081,Walking,2,1.479999999981374,0,0,0.6564438343048096,2.009369611740112,1.860747466239635
3273,COMPASS,40.4437345274906,-79.94425608776497,289.3484916687012,317.7530822753906,15.885149955749512,0.05548095703125,98.11802673339844,-1.0,-1.0,N/A,0.0552978515625,-1.026214599609375,-0.401458740234375,0.2220626324415207,0.031072165817022324,-0.13474422693252563,-35.21900939941406,-94.59649658203125,-328.75640869140625,-0.04045403376221657,-0.0019143223762512207,-0.10331699252128601,1.2149170510947744,0.16858421296216444,-0.12693544984923893,0.058459408581256866,-0.937340497970581,-0.34347546100616455,-0.40883246064186096,-0.27559736371040344,-0.10864932835102081,Walking,2,1.479999999981374,0,0,0.6564438343048096,2.009369611740112,1.860747466239635
3306,Magnetometer,40.4437345274906,-79.94425608776497,289.3484916687012,317.7530822753906,15.885149955749512,0.05548095703125,98.11802673339844,-1.0,-1.0,N/A,0.0552978515625,-1.026214599609375,-0.401458740234375,0.2220626324415207,0.031072165817022324,-0.13474422693252563,-39.51515197753906,-96.5848388671875,-329.9913635253906,-0.04045403376221657,-0.0019143223762512207,-0.10331699252128601,1.2149170510947744,0.16858421296216444,-0.12693544984923893,0.058459408581256866,-0.937340497970581,-0.34347546100616455,-0.40883246064186096,-0.27559736371040344,-0.10864932835102081,Walking,2,1.479999999981374,0,0,0.6564438343048096,2.009369611740112,1.860747466239635
3339,Gyrometer,40.4437345274906,-79.94425608776497,289.3484916687012,317.7530822753906,15.885149955749512,0.05548095703125,98.11802673339844,-1.0,-1.0,N/A,0.0552978515625,-1.026214599609375,-0.401458740234375,0.17386633157730103,-0.182181254029274,-0.11753462255001068,-39.51515197753906,-96.5848388671875,-329.9913635253906,-0.04045403376221657,-0.0019143223762512207,-0.10331699252128601,1.2149170510947744,0.16858421296216444,-0.12693544984923893,0.058459408581256866,-0.937340497970581,-0.34347546100616455,-0.40883246064186096,-0.27559736371040344,-0.10864932835102081,Walking,2,1.479999999981374,0,0,0.6564438343048096,2.009369611740112,1.860747466239635
3366,COMPASS,40.4437345274906,-79.94425608776497,289.3484916687012,318.9337158203125,15.886547088623047,0.05548095703125,98.11802673339844,-1.0,-1.0,N/A,0.0552978515625,-1.026214599609375,-0.401458740234375,0.17386633157730103,-0.182181254029274,-0.11753462255001068,-39.51515197753906,-96.5848388671875,-329.9913635253906,-0.04045403376221657,-0.0019143223762512207,-0.10331699252128601,1.2149170510947744,0.16858421296216444,-0.12693544984923893,0.058459408581256866,-0.937340497970581,-0.34347546100616455,-0.40883246064186096,-0.27559736371040344,-0.10864932835102081,Walking,2,1.479999999981374,0,0,0.6564438343048096,2.009369611740112,1.860747466239635
3397,Accelerometer,40.4437345274906,-79.94425608776497,289.3484916687012,318.9337158203125,15.886547088623047,0.05548095703125,98.11802673339844,-1.0,-1.0,N/A,0.033447265625,-0.830047607421875,-0.257537841796875,0.17386633157730103,-0.182181254029274,-0.11753462255001068,-39.51515197753906,-96.5848388671875,-329.9913635253906,-0.04045403376221657,-0.0019143223762512207,-0.10331699252128601,1.2149170510947744,0.16858421296216444,-0.12693544984923893,0.058459408581256866,-0.937340497970581,-0.34347546100616455,-0.40883246064186096,-0.27559736371040344,-0.10864932835102081,Walking,2,1.479999999981374,0,0,0.6564438343048096,2.009369611740112,1.860747466239635
3461,Device Motion,40.4437345274906,-79.94425608776497,289.3484916687012,318.9337158203125,15.886547088623047,0.05548095703125,98.11802673339844,-1.0,-1.0,N/A,0.033447265625,-0.830047607421875,-0.257537841796875,0.17386633157730103,-0.182181254029274,-0.11753462255001068,-39.51515197753906,-96.5848388671875,-329.9913635253906,-0.0301114022731781,-0.08224236965179443,0.002110898494720459,1.2185975128123014,0.21052590093072376,-0.2283801184810458,0.0720883160829544,-0.9386164546012878,-0.3373463451862335,0.2864314615726471,-0.25525596737861633,0.09031537920236588,Walking,2,1.479999999981374,0,0,0.6564438343048096,2.009369611740112,1.860747466239635
3498,COMPASS,40.4437345274906,-79.94425608776497,289.3484916687012,320.0372009277344,15.88869857788086,0.05548095703125,98.11802673339844,-1.0,-1.0,N/A,0.033447265625,-0.830047607421875,-0.257537841796875,0.17386633157730103,-0.182181254029274,-0.11753462255001068,-39.51515197753906,-96.5848388671875,-329.9913635253906,-0.0301114022731781,-0.08224236965179443,0.002110898494720459,1.2185975128123014,0.21052590093072376,-0.2283801184810458,0.0720883160829544,-0.9386164546012878,-0.3373463451862335,0.2864314615726471,-0.25525596737861633,0.09031537920236588,Walking,2,1.479999999981374,0,0,0.6564438343048096,2.009369611740112,1.860747466239635
3572,COMPASS,40.4437345274906,-79.94425608776497,289.3484916687012,318.88037109375,15.890439987182617,0.05548095703125,98.11802673339844,-1.0,-1.0,N/A,0.033447265625,-0.830047607421875,-0.257537841796875,0.17386633157730103,-0.182181254029274,-0.11753462255001068,-39.51515197753906,-96.5848388671875,-329.9913635253906,-0.0301114022731781,-0.08224236965179443,0.002110898494720459,1.2185975128123014,0.21052590093072376,-0.2283801184810458,0.0720883160829544,-0.9386164546012878,-0.3373463451862335,0.2864314615726471,-0.25525596737861633,0.09031537920236588,Walking,2,1.479999999981374,0,0,0.6564438343048096,2.009369611740112,1.860747466239635
3610,Magnetometer,40.4437345274906,-79.94425608776497,289.3484916687012,318.88037109375,15.890439987182617,0.05548095703125,98.11802673339844,-1.0,-1.0,N/A,0.033447265625,-0.830047607421875,-0.257537841796875,0.17386633157730103,-0.182181254029274,-0.11753462255001068,-42.35435485839844,-100.82191467285156,-326.8572082519531,-0.0301114022731781,-0.08224236965179443,0.002110898494720459,1.2185975128123014,0.21052590093072376,-0.2283801184810458,0.0720883160829544,-0.9386164546012878,-0.3373463451862335,0.2864314615726471,-0.25525596737861633,0.09031537920236588,Walking,2,1.479999999981374,0,0,0.6564438343048096,2.009369611740112,1.860747466239635
3642,COMPASS,40.4437345274906,-79.94425608776497,289.3484916687012,317.6184387207031,15.891434669494629,0.05548095703125,98.11802673339844,-1.0,-1.0,N/A,0.033447265625,-0.830047607421875,-0.257537841796875,0.17386633157730103,-0.182181254029274,-0.11753462255001068,-42.35435485839844,-100.82191467285156,-326.8572082519531,-0.0301114022731781,-0.08224236965179443,0.002110898494720459,1.2185975128123014,0.21052590093072376,-0.2283801184810458,0.0720883160829544,-0.9386164546012878,-0.3373463451862335,0.2864314615726471,-0.25525596737861633,0.09031537920236588,Walking,2,1.479999999981374,0,0,0.6564438343048096,2.009369611740112,1.860747466239635
3672,Gyrometer,40.4437345274906,-79.94425608776497,289.3484916687012,317.6184387207031,15.891434669494629,0.05548095703125,98.11802673339844,-1.0,-1.0,N/A,0.033447265625,-0.830047607421875,-0.257537841796875,0.3610071837902069,0.08325840532779694,0.30907660722732544,-42.35435485839844,-100.82191467285156,-326.8572082519531,-0.0301114022731781,-0.08224236965179443,0.002110898494720459,1.2185975128123014,0.21052590093072376,-0.2283801184810458,0.0720883160829544,-0.9386164546012878,-0.3373463451862335,0.2864314615726471,-0.25525596737861633,0.09031537920236588,Walking,2,1.479999999981374,0,0,0.6564438343048096,2.009369611740112,1.860747466239635
3704,Accelerometer,40.4437345274906,-79.94425608776497,289.3484916687012,317.6184387207031,15.891434669494629,0.05548095703125,98.11802673339844,-1.0,-1.0,N/A,0.0332489013671875,-1.0454254150390625,-0.33612060546875,0.3610071837902069,0.08325840532779694,0.30907660722732544,-42.35435485839844,-100.82191467285156,-326.8572082519531,-0.0301114022731781,-0.08224236965179443,0.002110898494720459,1.2185975128123014,0.21052590093072376,-0.2283801184810458,0.0720883160829544,-0.9386164546012878,-0.3373463451862335,0.2864314615726471,-0.25525596737861633,0.09031537920236588,Walking,2,1.479999999981374,0,0,0.6564438343048096,2.009369611740112,1.860747466239635
3734,COMPASS,40.4437345274906,-79.94425608776497,289.3484916687012,316.4571533203125,15.892668724060059,0.05548095703125,98.11802673339844,-1.0,-1.0,N/A,0.0332489013671875,-1.0454254150390625,-0.33612060546875,0.3610071837902069,0.08325840532779694,0.30907660722732544,-42.35435485839844,-100.82191467285156,-326.8572082519531,-0.0301114022731781,-0.08224236965179443,0.002110898494720459,1.2185975128123014,0.21052590093072376,-0.2283801184810458,0.0720883160829544,-0.9386164546012878,-0.3373463451862335,0.2864314615726471,-0.25525596737861633,0.09031537920236588,Walking,2,1.479999999981374,0,0,0.6564438343048096,2.009369611740112,1.860747466239635
3766,COMPASS,40.4437345274906,-79.94425608776497,289.3484916687012,315.4182434082031,15.893275260925293,0.05548095703125,98.11802673339844,-1.0,-1.0,N/A,0.0332489013671875,-1.0454254150390625,-0.33612060546875,0.3610071837902069,0.08325840532779694,0.30907660722732544,-42.35435485839844,-100.82191467285156,-326.8572082519531,-0.0301114022731781,-0.08224236965179443,0.002110898494720459,1.2185975128123014,0.21052590093072376,-0.2283801184810458,0.0720883160829544,-0.9386164546012878,-0.3373463451862335,0.2864314615726471,-0.25525596737861633,0.09031537920236588,Walking,2,1.479999999981374,0,0,0.6564438343048096,2.009369611740112,1.860747466239635
3797,Device Motion,40.4437345274906,-79.94425608776497,289.3484916687012,315.4182434082031,15.893275260925293,0.05548095703125,98.11802673339844,-1.0,-1.0,N/A,0.0332489013671875,-1.0454254150390625,-0.33612060546875,0.3610071837902069,0.08325840532779694,0.30907660722732544,-42.35435485839844,-100.82191467285156,-326.8572082519531,0.08922511339187622,0.07629960775375366,-0.011567443609237671,1.2437066841469777,0.14601360725602303,-0.10271863920893286,0.04674597084522247,-0.9469814300537109,-0.3178696036338806,-0.226251021027565,0.33622848987579346,0.04339141026139259,Walking,2,1.479999999981374,0,0,0.6564438343048096,2.009369611740112,1.860747466239635
3871,COMPASS,40.4437345274906,-79.94425608776497,289.3484916687012,314.3562316894531,15.895163536071777,0.05548095703125,98.11802673339844,-1.0,-1.0,N/A,0.0332489013671875,-1.0454254150390625,-0.33612060546875,0.3610071837902069,0.08325840532779694,0.30907660722732544,-42.35435485839844,-100.82191467285156,-326.8572082519531,0.08922511339187622,0.07629960775375366,-0.011567443609237671,1.2437066841469777,0.14601360725602303,-0.10271863920893286,0.04674597084522247,-0.9469814300537109,-0.3178696036338806,-0.226251021027565,0.33622848987579346,0.04339141026139259,Walking,2,1.479999999981374,0,0,0.6564438343048096,2.009369611740112,1.860747466239635
3903,Magnetometer,40.4437345274906,-79.94425608776497,289.3484916687012,314.3562316894531,15.895163536071777,0.05548095703125,98.11802673339844,-1.0,-1.0,N/A,0.0332489013671875,-1.0454254150390625,-0.33612060546875,0.3610071837902069,0.08325840532779694,0.30907660722732544,-43.25482177734375,-103.76663208007812,-326.1944885253906,0.08922511339187622,0.07629960775375366,-0.011567443609237671,1.2437066841469777,0.14601360725602303,-0.10271863920893286,0.04674597084522247,-0.9469814300537109,-0.3178696036338806,-0.226251021027565,0.33622848987579346,0.04339141026139259,Walking,2,1.479999999981374,0,0,0.6564438343048096,2.009369611740112,1.860747466239635
3936,Gyrometer,40.4437345274906,-79.94425608776497,289.3484916687012,314.3562316894531,15.895163536071777,0.05548095703125,98.11802673339844,-1.0,-1.0,N/A,0.0332489013671875,-1.0454254150390625,-0.33612060546875,-0.027513116598129272,0.08988994359970093,-0.03377847000956535,-43.25482177734375,-103.76663208007812,-326.1944885253906,0.08922511339187622,0.07629960775375366,-0.011567443609237671,1.2437066841469777,0.14601360725602303,-0.10271863920893286,0.04674597084522247,-0.9469814300537109,-0.3178696036338806,-0.226251021027565,0.33622848987579346,0.04339141026139259,Walking,2,1.479999999981374,0,0,0.6564438343048096,2.009369611740112,1.860747466239635
3970,Accelerometer,40.4437345274906,-79.94425608776497,289.3484916687012,314.3562316894531,15.895163536071777,0.05548095703125,98.11802673339844,-1.0,-1.0,N/A,0.0673370361328125,-0.9076080322265625,-0.2962493896484375,-0.027513116598129272,0.08988994359970093,-0.03377847000956535,-43.25482177734375,-103.76663208007812,-326.1944885253906,0.08922511339187622,0.07629960775375366,-0.011567443609237671,1.2437066841469777,0.14601360725602303,-0.10271863920893286,0.04674597084522247,-0.9469814300537109,-0.3178696036338806,-0.226251021027565,0.33622848987579346,0.04339141026139259,Walking,2,1.479999999981374,0,0,0.6564438343048096,2.009369611740112,1.860747466239635
4045,Altimeter,40.4437345274906,-79.94425608776497,289.3484916687012,314.3562316894531,15.895163536071777,0.058135986328125,98.11798095703125,-1.0,-1.0,N/A,0.0673370361328125,-0.9076080322265625,-0.2962493896484375,-0.027513116598129272,0.08988994359970093,-0.03377847000956535,-43.25482177734375,-103.76663208007812,-326.1944885253906,0.08922511339187622,0.07629960775375366,-0.011567443609237671,1.2437066841469777,0.14601360725602303,-0.10271863920893286,0.04674597084522247,-0.9469814300537109,-0.3178696036338806,-0.226251021027565,0.33622848987579346,0.04339141026139259,Walking,2,1.479999999981374,0,0,0.6564438343048096,2.009369611740112,1.860747466239635
4080,Device Motion,40.4437345274906,-79.94425608776497,289.3484916687012,314.3562316894531,15.895163536071777,0.058135986328125,98.11798095703125,-1.0,-1.0,N/A,0.0673370361328125,-0.9076080322265625,-0.2962493896484375,-0.027513116598129272,0.08988994359970093,-0.03377847000956535,-43.25482177734375,-103.76663208007812,-326.1944885253906,-0.012361079454421997,-0.07196760177612305,-0.05307966470718384,1.2470076021485814,0.15364664848573192,-0.1001192512925714,0.0486922524869442,-0.948036789894104,-0.3144128620624542,0.3334188759326935,-0.16850484907627106,-0.018952351063489914,Walking,2,1.479999999981374,0,0,0.6564438343048096,2.009369611740112,1.860747466239635
4131,COMPASS,40.4437345274906,-79.94425608776497,289.3484916687012,315.5542297363281,15.899209022521973,0.058135986328125,98.11798095703125,-1.0,-1.0,N/A,0.0673370361328125,-0.9076080322265625,-0.2962493896484375,-0.027513116598129272,0.08988994359970093,-0.03377847000956535,-43.25482177734375,-103.76663208007812,-326.1944885253906,-0.012361079454421997,-0.07196760177612305,-0.05307966470718384,1.2470076021485814,0.15364664848573192,-0.1001192512925714,0.0486922524869442,-0.948036789894104,-0.3144128620624542,0.3334188759326935,-0.16850484907627106,-0.018952351063489914,Walking,2,1.479999999981374,0,0,0.6564438343048096,2.009369611740112,1.860747466239635
4203,Magnetometer,40.4437345274906,-79.94425608776497,289.3484916687012,315.5542297363281,15.899209022521973,0.058135986328125,98.11798095703125,-1.0,-1.0,N/A,0.0673370361328125,-0.9076080322265625,-0.2962493896484375,-0.027513116598129272,0.08988994359970093,-0.03377847000956535,-43.822021484375,-106.45368957519531,-325.8705749511719,-0.012361079454421997,-0.07196760177612305,-0.05307966470718384,1.2470076021485814,0.15364664848573192,-0.1001192512925714,0.0486922524869442,-0.948036789894104,-0.3144128620624542,0.3334188759326935,-0.16850484907627106,-0.018952351063489914,Walking,2,1.479999999981374,0,0,0.6564438343048096,2.009369611740112,1.860747466239635
4242,COMPASS,40.4437345274906,-79.94425608776497,289.3484916687012,316.8379211425781,15.900472640991211,0.058135986328125,98.11798095703125,-1.0,-1.0,N/A,0.0673370361328125,-0.9076080322265625,-0.2962493896484375,-0.027513116598129272,0.08988994359970093,-0.03377847000956535,-43.822021484375,-106.45368957519531,-325.8705749511719,-0.012361079454421997,-0.07196760177612305,-0.05307966470718384,1.2470076021485814,0.15364664848573192,-0.1001192512925714,0.0486922524869442,-0.948036789894104,-0.3144128620624542,0.3334188759326935,-0.16850484907627106,-0.018952351063489914,Walking,2,1.479999999981374,0,0,0.6564438343048096,2.009369611740112,1.860747466239635
4274,COMPASS,40.4437345274906,-79.94425608776497,289.3484916687012,317.9660339355469,15.901358604431152,0.058135986328125,98.11798095703125,-1.0,-1.0,N/A,0.0673370361328125,-0.9076080322265625,-0.2962493896484375,-0.027513116598129272,0.08988994359970093,-0.03377847000956535,-43.822021484375,-106.45368957519531,-325.8705749511719,-0.012361079454421997,-0.07196760177612305,-0.05307966470718384,1.2470076021485814,0.15364664848573192,-0.1001192512925714,0.0486922524869442,-0.948036789894104,-0.3144128620624542,0.3334188759326935,-0.16850484907627106,-0.018952351063489914,Walking,2,1.479999999981374,0,0,0.6564438343048096,2.009369611740112,1.860747466239635
4306,Gyrometer,40.4437345274906,-79.94425608776497,289.3484916687012,317.9660339355469,15.901358604431152,0.058135986328125,98.11798095703125,-1.0,-1.0,N/A,0.0673370361328125,-0.9076080322265625,-0.2962493896484375,-0.22005780041217804,-0.1509983092546463,-0.1643063873052597,-43.822021484375,-106.45368957519531,-325.8705749511719,-0.012361079454421997,-0.07196760177612305,-0.05307966470718384,1.2470076021485814,0.15364664848573192,-0.1001192512925714,0.0486922524869442,-0.948036789894104,-0.3144128620624542,0.3334188759326935,-0.16850484907627106,-0.018952351063489914,Walking,2,1.479999999981374,0,0,0.6564438343048096,2.009369611740112,1.860747466239635
4340,COMPASS,40.4437345274906,-79.94425608776497,289.3484916687012,319.1319580078125,15.902237892150879,0.058135986328125,98.11798095703125,-1.0,-1.0,N/A,0.0673370361328125,-0.9076080322265625,-0.2962493896484375,-0.22005780041217804,-0.1509983092546463,-0.1643063873052597,-43.822021484375,-106.45368957519531,-325.8705749511719,-0.012361079454421997,-0.07196760177612305,-0.05307966470718384,1.2470076021485814,0.15364664848573192,-0.1001192512925714,0.0486922524869442,-0.948036789894104,-0.3144128620624542,0.3334188759326935,-0.16850484907627106,-0.018952351063489914,Walking,2,1.479999999981374,0,0,0.6564438343048096,2.009369611740112,1.860747466239635
