Timestamp (ms),Triggering Sensor,Latitude,Longitude,Altitude,Heading (degrees),Heading accuracy (degrees),Relative Altitude (m),Pressure (kPa),Speed (m/s),Speed Accuracy (m/s),Floor,Acceleration - X axis,Acceleration - Y axis,Acceleration - Z axis,Gyrometer - X axis,Gyrometer - Y axis,Gyrometer - Z axis,Magnetometer - X axis,Magnetometer - Y axis,Magnetometer - Z axis,User acceleration - X axis,User acceleration - Y axis,User acceleration - Z axis,Attitude Pitch,Attitude Roll,Attitude Yaw,Gravity - X axis,Gravity - Y axis,Gravity - Z axis,Rotation Rate - X axis,Rotation Rate - Y axis,Rotation Rate - Z axis,Activity Type,Number of Steps,Distance,Floors Ascended,Floors Descended,Current Pace,Current Cadence,Average Active Pace
10,Gyrometer,,,,,,,,,,,,,,-0.13007090985774994,0.017222397029399872,-0.032584842294454575,,,,,,,,,,,,,,,,,,,,,,,
37,GPS,40.44362110053005,-79.94448451717773,289.7286071777344,,,,,-1.0,-1.0,N/A,,,,-0.13007090985774994,0.017222397029399872,-0.032584842294454575,,,,,,,,,,,,,,,,,,,,,,,
62,COMPASS,40.44362110053005,-79.94448451717773,289.7286071777344,225.23110961914062,15.54157829284668,,,-1.0,-1.0,N/A,,,,-0.13007090985774994,0.017222397029399872,-0.032584842294454575,,,,,,,,,,,,,,,,,,,,,,,
93,GPS,40.44362110053005,-79.94448451717773,289.7286071777344,225.23110961914062,15.54157829284668,,,-1.0,-1.0,N/A,,,,-0.13007090985774994,0.017222397029399872,-0.032584842294454575,,,,,,,,,,,,,,,,,,,,,,,
124,Magnetometer,40.44362110053005,-79.94448451717773,289.7286071777344,225.23110961914062,15.54157829284668,,,-1.0,-1.0,N/A,,,,-0.13007090985774994,0.017222397029399872,-0.032584842294454575,-23.70599365234375,-128.5275115966797,-314.0666809082031,,,,,,,,,,,,,,,,,,,,
153,GPS,40.44361441031203,-79.94448663082916,289.6636390686035,225.23110961914062,15.54157829284668,,,-1.0,-1.0,N/A,,,,-0.13007090985774994,0.017222397029399872,-0.032584842294454575,-23.70599365234375,-128.5275115966797,-314.0666809082031,,,,,,,,,,,,,,,,,,,,
184,GPS,40.443610773408864,-79.94448401449411,289.662296295166,225.23110961914062,15.54157829284668,,,-1.0,-1.0,N/A,,,,-0.13007090985774994,0.017222397029399872,-0.032584842294454575,-23.70599365234375,-128.5275115966797,-314.0666809082031,,,,,,,,,,,,,,,,,,,,
214,Activity Manager,40.443610773408864,-79.94448401449411,289.662296295166,225.23110961914062,15.54157829284668,,,-1.0,-1.0,N/A,,,,-0.13007090985774994,0.017222397029399872,-0.032584842294454575,-23.70599365234375,-128.5275115966797,-314.0666809082031,,,,,,,,,,,,,Walking,,,,,,,
244,Accelerometer,40.443610773408864,-79.94448401449411,289.662296295166,225.23110961914062,15.54157829284668,,,-1.0,-1.0,N/A,0.023223876953125,-1.017669677734375,-0.248809814453125,-0.13007090985774994,0.017222397029399872,-0.032584842294454575,-23.70599365234375,-128.5275115966797,-314.0666809082031,,,,,,,,,,,,,Walking,,,,,,,
275,Device Motion,40.443610773408864,-79.94448401449411,289.662296295166,225.23110961914062,15.54157829284668,,,-1.0,-1.0,N/A,0.023223876953125,-1.017669677734375,-0.248809814453125,-0.13007090985774994,0.017222397029399872,-0.032584842294454575,-23.70599365234375,-128.5275115966797,-314.0666809082031,-0.009030909277498722,0.030390918254852295,0.07398821413516998,1.3521486111368575,0.0665860952557461,-0.05342167825031551,0.014432495459914207,-0.9761916399002075,-0.2164289653301239,-0.2243836671113968,-0.07229747623205185,0.015697503462433815,Walking,,,,,,,
306,Pedometer,40.443610773408864,-79.94448401449411,289.662296295166,225.23110961914062,15.54157829284668,,,-1.0,-1.0,N/A,0.023223876953125,-1.017669677734375,-0.248809814453125,-0.13007090985774994,0.017222397029399872,-0.032584842294454575,-23.70599365234375,-128.5275115966797,-314.0666809082031,-0.009030909277498722,0.030390918254852295,0.07398821413516998,1.3521486111368575,0.0665860952557461,-0.05342167825031551,0.014432495459914207,-0.9761916399002075,-0.2164289653301239,-0.2243836671113968,-0.07229747623205185,0.015697503462433815,Walking,8,5.599999999976717,0,0,,,0.8189174107176905
335,Gyrometer,40.443610773408864,-79.94448401449411,289.662296295166,225.23110961914062,15.54157829284668,,,-1.0,-1.0,N/A,0.023223876953125,-1.017669677734375,-0.248809814453125,-0.22555269300937653,-0.08681479096412659,-0.0002436792419757694,-23.70599365234375,-128.5275115966797,-314.0666809082031,-0.009030909277498722,0.030390918254852295,0.07398821413516998,1.3521486111368575,0.0665860952557461,-0.05342167825031551,0.014432495459914207,-0.9761916399002075,-0.2164289653301239,-0.2243836671113968,-0.07229747623205185,0.015697503462433815,Walking,8,5.599999999976717,0,0,,,0.8189174107176905
366,Magnetometer,40.443610773408864,-79.94448401449411,289.662296295166,225.23110961914062,15.54157829284668,,,-1.0,-1.0,N/A,0.023223876953125,-1.017669677734375,-0.248809814453125,-0.22555269300937653,-0.08681479096412659,-0.0002436792419757694,-22.781631469726562,-128.5073699951172,-314.08837890625,-0.009030909277498722,0.030390918254852295,0.07398821413516998,1.3521486111368575,0.0665860952557461,-0.05342167825031551,0.014432495459914207,-0.9761916399002075,-0.2164289653301239,-0.2243836671113968,-0.07229747623205185,0.015697503462433815,Walking,8,5.599999999976717,0,0,,,0.8189174107176905
394,Accelerometer,40.443610773408864,-79.94448401449411,289.662296295166,225.23110961914062,15.54157829284668,,,-1.0,-1.0,N/A,-0.0110321044921875,-0.9615631103515625,-0.1983489990234375,-0.22555269300937653,-0.08681479096412659,-0.0002436792419757694,-22.781631469726562,-128.5073699951172,-314.08837890625,-0.009030909277498722,0.030390918254852295,0.07398821413516998,1.3521486111368575,0.0665860952557461,-0.05342167825031551,0.014432495459914207,-0.9761916399002075,-0.2164289653301239,-0.2243836671113968,-0.07229747623205185,0.015697503462433815,Walking,8,5.599999999976717,0,0,,,0.8189174107176905
533,COMPASS,40.443610773408864,-79.94448401449411,289.662296295166,224.2295684814453,15.52988338470459,,,-1.0,-1.0,N/A,-0.0110321044921875,-0.9615631103515625,-0.1983489990234375,-0.22555269300937653,-0.08681479096412659,-0.0002436792419757694,-22.781631469726562,-128.5073699951172,-314.08837890625,-0.009030909277498722,0.030390918254852295,0.07398821413516998,1.3521486111368575,0.0665860952557461,-0.05342167825031551,0.014432495459914207,-0.9761916399002075,-0.2164289653301239,-0.2243836671113968,-0.07229747623205185,0.015697503462433815,Walking,8,5.599999999976717,0,0,,,0.8189174107176905
571,Device Motion,40.443610773408864,-79.94448401449411,289.662296295166,224.2295684814453,15.52988338470459,,,-1.0,-1.0,N/A,-0.0110321044921875,-0.9615631103515625,-0.1983489990234375,-0.22555269300937653,-0.08681479096412659,-0.0002436792419757694,-22.781631469726562,-128.5073699951172,-314.08837890625,0.020054638385772705,0.00856161117553711,0.048557937145233154,1.3325025834631428,0.020150665153192658,0.005301605157517041,0.004756138194352388,-0.9717421531677246,-0.23599690198898315,-0.036291539669036865,0.15681730210781097,0.052244219928979874,Walking,8,5.599999999976717,0,0,,,0.8189174107176905
606,Gyrometer,40.443610773408864,-79.94448401449411,289.662296295166,224.2295684814453,15.52988338470459,,,-1.0,-1.0,N/A,-0.0110321044921875,-0.9615631103515625,-0.1983489990234375,-0.01828659512102604,0.1677490472793579,0.04584285616874695,-22.781631469726562,-128.5073699951172,-314.08837890625,0.020054638385772705,0.00856161117553711,0.048557937145233154,1.3325025834631428,0.020150665153192658,0.005301605157517041,0.004756138194352388,-0.9717421531677246,-0.23599690198898315,-0.036291539669036865,0.15681730210781097,0.052244219928979874,Walking,8,5.599999999976717,0,0,,,0.8189174107176905
635,Magnetometer,40.443610773408864,-79.94448401449411,289.662296295166,224.2295684814453,15.52988338470459,,,-1.0,-1.0,N/A,-0.0110321044921875,-0.9615631103515625,-0.1983489990234375,-0.01828659512102604,0.1677490472793579,0.04584285616874695,-22.459320068359375,-128.5255126953125,-315.090087890625,0.020054638385772705,0.00856161117553711,0.048557937145233154,1.3325025834631428,0.020150665153192658,0.005301605157517041,0.004756138194352388,-0.9717421531677246,-0.23599690198898315,-0.036291539669036865,0.15681730210781097,0.052244219928979874,Walking,8,5.599999999976717,0,0,,,0.8189174107176905
666,COMPASS,40.443610773408864,-79.94448401449411,289.662296295166,223.21116638183594,15.52634334564209,,,-1.0,-1.0,N/A,-0.0110321044921875,-0.9615631103515625,-0.1983489990234375,-0.01828659512102604,0.1677490472793579,0.04584285616874695,-22.459320068359375,-128.5255126953125,-315.090087890625,0.020054638385772705,0.00856161117553711,0.048557937145233154,1.3325025834631428,0.020150665153192658,0.005301605157517041,0.004756138194352388,-0.9717421531677246,-0.23599690198898315,-0.036291539669036865,0.15681730210781097,0.052244219928979874,Walking,8,5.599999999976717,0,0,,,0.8189174107176905
703,Accelerometer,40.443610773408864,-79.94448401449411,289.662296295166,223.21116638183594,15.52634334564209,,,-1.0,-1.0,N/A,0.0312652587890625,-0.9615631103515625,-0.1981353759765625,-0.01828659512102604,0.1677490472793579,0.04584285616874695,-22.459320068359375,-128.5255126953125,-315.090087890625,0.020054638385772705,0.00856161117553711,0.048557937145233154,1.3325025834631428,0.020150665153192658,0.005301605157517041,0.004756138194352388,-0.9717421531677246,-0.23599690198898315,-0.036291539669036865,0.15681730210781097,0.052244219928979874,Walking,8,5.599999999976717,0,0,,,0.8189174107176905
861,Device Motion,40.443610773408864,-79.94448401449411,289.662296295166,223.21116638183594,15.52634334564209,,,-1.0,-1.0,N/A,0.0312652587890625,-0.9615631103515625,-0.1981353759765625,-0.01828659512102604,0.1677490472793579,0.04584285616874695,-22.459320068359375,-128.5255126953125,-315.090087890625,0.038657307624816895,-0.008149445056915283,0.10484519600868225,1.3075856914785766,0.0268372460946911,0.023915062183275708,0.006981723941862583,-0.9655596017837524,-0.2600880563259125,-0.07217194139957428,-0.04008321464061737,-0.00713521521538496,Walking,8,5.599999999976717,0,0,,,0.8189174107176905
907,Gyrometer,40.443610773408864,-79.94448401449411,289.662296295166,223.21116638183594,15.52634334564209,,,-1.0,-1.0,N/A,0.0312652587890625,-0.9615631103515625,-0.1981353759765625,-0.04352031275629997,-0.01950605772435665,0.06149239093065262,-22.459320068359375,-128.5255126953125,-315.090087890625,0.038657307624816895,-0.008149445056915283,0.10484519600868225,1.3075856914785766,0.0268372460946911,0.023915062183275708,0.006981723941862583,-0.9655596017837524,-0.2600880563259125,-0.07217194139957428,-0.04008321464061737,-0.00713521521538496,Walking,8,5.599999999976717,0,0,,,0.8189174107176905
942,Magnetometer,40.443610773408864,-79.94448401449411,289.662296295166,223.21116638183594,15.52634334564209,,,-1.0,-1.0,N/A,0.0312652587890625,-0.9615631103515625,-0.1981353759765625,-0.04352031275629997,-0.01950605772435665,0.06149239093065262,-21.8748779296875,-127.25820922851562,-315.61859130859375,0.038657307624816895,-0.008149445056915283,0.10484519600868225,1.3075856914785766,0.0268372460946911,0.023915062183275708,0.006981723941862583,-0.9655596017837524,-0.2600880563259125,-0.07217194139957428,-0.04008321464061737,-0.00713521521538496,Walking,8,5.599999999976717,0,0,,,0.8189174107176905
974,Accelerometer,40.443610773408864,-79.94448401449411,289.662296295166,223.21116638183594,15.52634334564209,,,-1.0,-1.0,N/A,0.0257568359375,-0.9863128662109375,-0.12701416015625,-0.04352031275629997,-0.01950605772435665,0.06149239093065262,-21.8748779296875,-127.25820922851562,-315.61859130859375,0.038657307624816895,-0.008149445056915283,0.10484519600868225,1.3075856914785766,0.0268372460946911,0.023915062183275708,0.006981723941862583,-0.9655596017837524,-0.2600880563259125,-0.07217194139957428,-0.04008321464061737,-0.00713521521538496,Walking,8,5.599999999976717,0,0,,,0.8189174107176905
1054,Altimeter,40.443610773408864,-79.94448401449411,289.662296295166,223.21116638183594,15.52634334564209,0,98.07485961914062,-1.0,-1.0,N/A,0.0257568359375,-0.9863128662109375,-0.12701416015625,-0.04352031275629997,-0.01950605772435665,0.06149239093065262,-21.8748779296875,-127.25820922851562,-315.61859130859375,0.038657307624816895,-0.008149445056915283,0.10484519600868225,1.3075856914785766,0.0268372460946911,0.023915062183275708,0.006981723941862583,-0.9655596017837524,-0.2600880563259125,-0.07217194139957428,-0.04008321464061737,-0.00713521521538496,Walking,8,5.599999999976717,0,0,,,0.8189174107176905
1111,COMPASS,40.443610773408864,-79.94448401449411,289.662296295166,224.3478546142578,15.524986267089844,0,98.07485961914062,-1.0,-1.0,N/A,0.0257568359375,-0.9863128662109375,-0.12701416015625,-0.04352031275629997,-0.01950605772435665,0.06149239093065262,-21.8748779296875,-127.25820922851562,-315.61859130859375,0.038657307624816895,-0.008149445056915283,0.10484519600868225,1.3075856914785766,0.0268372460946911,0.023915062183275708,0.006981723941862583,-0.9655596017837524,-0.2600880563259125,-0.07217194139957428,-0.04008321464061737,-0.00713521521538496,Walking,8,5.599999999976717,0,0,,,0.8189174107176905
1160,Device Motion,40.443610773408864,-79.94448401449411,289.662296295166,224.3478546142578,15.524986267089844,0,98.07485961914062,-1.0,-1.0,N/A,0.0257568359375,-0.9863128662109375,-0.12701416015625,-0.04352031275629997,-0.01950605772435665,0.06149239093065262,-21.8748779296875,-127.25820922851562,-315.61859130859375,0.007666170597076416,-0.08983850479125977,0.03909194469451904,1.325634304145422,0.01789239846475306,-0.009658975211342517,0.004342495929449797,-0.9700980186462402,-0.24267472326755524,0.13267797231674194,-0.08094865083694458,-0.1251097023487091,Walking,8,5.599999999976717,0,0,,,0.8189174107176905
1207,Gyrometer,40.443610773408864,-79.94448401449411,289.662296295166,224.3478546142578,15.524986267089844,0,98.07485961914062,-1.0,-1.0,N/A,0.0257568359375,-0.9863128662109375,-0.12701416015625,0.11912426352500916,-0.027100859209895134,-0.026977555826306343,-21.8748779296875,-127.25820922851562,-315.61859130859375,0.007666170597076416,-0.08983850479125977,0.03909194469451904,1.325634304145422,0.01789239846475306,-0.009658975211342517,0.004342495929449797,-0.9700980186462402,-0.24267472326755524,0.13267797231674194,-0.08094865083694458,-0.1251097023487091,Walking,8,5.599999999976717,0,0,,,0.8189174107176905
1241,COMPASS,40.443610773408864,-79.94448401449411,289.662296295166,225.36048889160156,15.527358055114746,0,98.07485961914062,-1.0,-1.0,N/A,0.0257568359375,-0.9863128662109375,-0.12701416015625,0.11912426352500916,-0.027100859209895134,-0.026977555826306343,-21.8748779296875,-127.25820922851562,-315.61859130859375,0.007666170597076416,-0.08983850479125977,0.03909194469451904,1.325634304145422,0.01789239846475306,-0.009658975211342517,0.004342495929449797,-0.9700980186462402,-0.24267472326755524,0.13267797231674194,-0.08094865083694458,-0.1251097023487091,Walking,8,5.599999999976717,0,0,,,0.8189174107176905
1274,Magnetometer,40.443610773408864,-79.94448401449411,289.662296295166,225.36048889160156,15.527358055114746,0,98.07485961914062,-1.0,-1.0,N/A,0.0257568359375,-0.9863128662109375,-0.12701416015625,0.11912426352500916,-0.027100859209895134,-0.026977555826306343,-19.971389770507812,-124.62132263183594,-313.1171569824219,0.007666170597076416,-0.08983850479125977,0.03909194469451904,1.325634304145422,0.01789239846475306,-0.009658975211342517,0.004342495929449797,-0.9700980186462402,-0.24267472326755524,0.13267797231674194,-0.08094865083694458,-0.1251097023487091,Walking,8,5.599999999976717,0,0,,,0.8189174107176905
1306,Accelerometer,40.443610773408864,-79.94448401449411,289.662296295166,225.36048889160156,15.527358055114746,0,98.07485961914062,-1.0,-1.0,N/A,0.018341064453125,-1.0369110107421875,-0.2399444580078125,0.11912426352500916,-0.027100859209895134,-0.026977555826306343,-19.971389770507812,-124.62132263183594,-313.1171569824219,0.007666170597076416,-0.08983850479125977,0.03909194469451904,1.325634304145422,0.01789239846475306,-0.009658975211342517,0.004342495929449797,-0.9700980186462402,-0.24267472326755524,0.13267797231674194,-0.08094865083694458,-0.1251097023487091,Walking,8,5.599999999976717,0,0,,,0.8189174107176905
1339,COMPASS,40.443610773408864,-79.94448401449411,289.662296295166,226.4249267578125,15.528867721557617,0,98.07485961914062,-1.0,-1.0,N/A,0.018341064453125,-1.0369110107421875,-0.2399444580078125,0.11912426352500916,-0.027100859209895134,-0.026977555826306343,-19.971389770507812,-124.62132263183594,-313.1171569824219,0.007666170597076416,-0.08983850479125977,0.03909194469451904,1.325634304145422,0.01789239846475306,-0.009658975211342517,0.004342495929449797,-0.9700980186462402,-0.24267472326755524,0.13267797231674194,-0.08094865083694458,-0.1251097023487091,Walking,8,5.599999999976717,0,0,,,0.8189174107176905
1370,COMPASS,40.443610773408864,-79.94448401449411,289.662296295166,227.6007537841797,15.529747009277344,0,98.07485961914062,-1.0,-1.0,N/A,0.018341064453125,-1.0369110107421875,-0.2399444580078125,0.11912426352500916,-0.027100859209895134,-0.026977555826306343,-19.971389770507812,-124.62132263183594,-313.1171569824219,0.007666170597076416,-0.08983850479125977,0.03909194469451904,1.325634304145422,0.01789239846475306,-0.009658975211342517,0.004342495929449797,-0.9700980186462402,-0.24267472326755524,0.13267797231674194,-0.08094865083694458,-0.1251097023487091,Walking,8,5.599999999976717,0,0,,,0.8189174107176905
1459,Device Motion,40.443610773408864,-79.94448401449411,289.662296295166,227.6007537841797,15.529747009277344,0,98.07485961914062,-1.0,-1.0,N/A,0.018341064453125,-1.0369110107421875,-0.2399444580078125,0.11912426352500916,-0.027100859209895134,-0.026977555826306343,-19.971389770507812,-124.62132263183594,-313.1171569824219,-0.0473516583442688,0.1101534366607666,0.053693950176239014,1.3271903538294902,0.12464538100819497,-0.14405398574208858,0.029987135902047157,-0.9704745411872864,-0.2393323928117752,-0.11618944257497787,-0.05163515731692314,-0.020590001717209816,Walking,8,5.599999999976717,0,0,,,0.8189174107176905
1507,Magnetometer,40.443610773408864,-79.94448401449411,289.662296295166,227.6007537841797,15.529747009277344,0,98.07485961914062,-1.0,-1.0,N/A,0.018341064453125,-1.0369110107421875,-0.2399444580078125,0.11912426352500916,-0.027100859209895134,-0.026977555826306343,-16.365234375,-121.56257629394531,-311.8507080078125,-0.0473516583442688,0.1101534366607666,0.053693950176239014,1.3271903538294902,0.12464538100819497,-0.14405398574208858,0.029987135902047157,-0.9704745411872864,-0.2393323928117752,-0.11618944257497787,-0.05163515731692314,-0.020590001717209816,Walking,8,5.599999999976717,0,0,,,0.8189174107176905
1542,Gyrometer,40.443610773408864,-79.94448401449411,289.662296295166,227.6007537841797,15.529747009277344,0,98.07485961914062,-1.0,-1.0,N/A,0.018341064453125,-1.0369110107421875,-0.2399444580078125,-0.020237360149621964,-0.18455946445465088,-0.05271008238196373,-16.365234375,-121.56257629394531,-311.8507080078125,-0.0473516583442688,0.1101534366607666,0.053693950176239014,1.3271903538294902,0.12464538100819497,-0.14405398574208858,0.029987135902047157,-0.9704745411872864,-0.2393323928117752,-0.11618944257497787,-0.05163515731692314,-0.020590001717209816,Walking,8,5.599999999976717,0,0,,,0.8189174107176905
1573,COMPASS,40.443610773408864,-79.94448401449411,289.662296295166,228.75807189941406,15.532683372497559,0,98.07485961914062,-1.0,-1.0,N/A,0.018341064453125,-1.0369110107421875,-0.2399444580078125,-0.020237360149621964,-0.18455946445465088,-0.05271008238196373,-16.365234375,-121.56257629394531,-311.8507080078125,-0.0473516583442688,0.1101534366607666,0.053693950176239014,1.3271903538294902,0.12464538100819497,-0.14405398574208858,0.029987135902047157,-0.9704745411872864,-0.2393323928117752,-0.11618944257497787,-0.05163515731692314,-0.020590001717209816,Walking,8,5.599999999976717,0,0,,,0.8189174107176905
1605,Accelerometer,40.443610773408864,-79.94448401449411,289.662296295166,228.75807189941406,15.532683372497559,0,98.07485961914062,-1.0,-1.0,N/A,-0.0556793212890625,-0.8863525390625,-0.1257781982421875,-0.020237360149621964,-0.18455946445465088,-0.05271008238196373,-16.365234375,-121.56257629394531,-311.8507080078125,-0.0473516583442688,0.1101534366607666,0.053693950176239014,1.3271903538294902,0.12464538100819497,-0.14405398574208858,0.029987135902047157,-0.9704745411872864,-0.2393323928117752,-0.11618944257497787,-0.05163515731692314,-0.020590001717209816,Walking,8,5.599999999976717,0,0,,,0.8189174107176905
1759,Device Motion,40.443610773408864,-79.94448401449411,289.662296295166,228.75807189941406,15.532683372497559,0,98.07485961914062,-1.0,-1.0,N/A,-0.0556793212890625,-0.8863525390625,-0.1257781982421875,-0.020237360149621964,-0.18455946445465088,-0.05271008238196373,-16.365234375,-121.56257629394531,-311.8507080078125,-0.007502524182200432,-0.12491440773010254,-0.03065773844718933,1.3503909104215002,0.10507209243012208,-0.15040263345509125,0.022929184138774872,-0.9758089184761047,-0.21741968393325806,0.056752607226371765,0.11112070828676224,0.09339442849159241,Walking,8,5.599999999976717,0,0,,,0.8189174107176905
1807,Magnetometer,40.443610773408864,-79.94448401449411,289.662296295166,228.75807189941406,15.532683372497559,0,98.07485961914062,-1.0,-1.0,N/A,-0.0556793212890625,-0.8863525390625,-0.1257781982421875,-0.020237360149621964,-0.18455946445465088,-0.05271008238196373,-13.929962158203125,-116.98347473144531,-310.4814453125,-0.007502524182200432,-0.12491440773010254,-0.03065773844718933,1.3503909104215002,0.10507209243012208,-0.15040263345509125,0.022929184138774872,-0.9758089184761047,-0.21741968393325806,0.056752607226371765,0.11112070828676224,0.09339442849159241,Walking,8,5.599999999976717,0,0,,,0.8189174107176905
1840,Gyrometer,40.443610773408864,-79.94448401449411,289.662296295166,228.75807189941406,15.532683372497559,0,98.07485961914062,-1.0,-1.0,N/A,-0.0556793212890625,-0.8863525390625,-0.1257781982421875,0.16728194057941437,-0.052028581500053406,0.1608128547668457,-13.929962158203125,-116.98347473144531,-310.4814453125,-0.007502524182200432,-0.12491440773010254,-0.03065773844718933,1.3503909104215002,0.10507209243012208,-0.15040263345509125,0.022929184138774872,-0.9758089184761047,-0.21741968393325806,0.056752607226371765,0.11112070828676224,0.09339442849159241,Walking,8,5.599999999976717,0,0,,,0.8189174107176905
1872,Accelerometer,40.443610773408864,-79.94448401449411,289.662296295166,228.75807189941406,15.532683372497559,0,98.07485961914062,-1.0,-1.0,N/A,-0.01080322265625,-1.070770263671875,-0.194610595703125,0.16728194057941437,-0.052028581500053406,0.1608128547668457,-13.929962158203125,-116.98347473144531,-310.4814453125,-0.007502524182200432,-0.12491440773010254,-0.03065773844718933,1.3503909104215002,0.10507209243012208,-0.15040263345509125,0.022929184138774872,-0.9758089184761047,-0.21741968393325806,0.056752607226371765,0.11112070828676224,0.09339442849159241,Walking,8,5.599999999976717,0,0,,,0.8189174107176905
1909,COMPASS,40.443610773408864,-79.94448401449411,289.662296295166,227.6068878173828,15.5394868850708,0,98.07485961914062,-1.0,-1.0,N/A,-0.01080322265625,-1.070770263671875,-0.194610595703125,0.16728194057941437,-0.052028581500053406,0.1608128547668457,-13.929962158203125,-116.98347473144531,-310.4814453125,-0.007502524182200432,-0.12491440773010254,-0.03065773844718933,1.3503909104215002,0.10507209243012208,-0.15040263345509125,0.022929184138774872,-0.9758089184761047,-0.21741968393325806,0.056752607226371765,0.11112070828676224,0.09339442849159241,Walking,8,5.599999999976717,0,0,,,0.8189174107176905
2051,Altimeter,40.443610773408864,-79.94448401449411,289.662296295166,227.6068878173828,15.5394868850708,-0.021148681640625,98.07511138916016,-1.0,-1.0,N/A,-0.01080322265625,-1.070770263671875,-0.194610595703125,0.16728194057941437,-0.052028581500053406,0.1608128547668457,-13.929962158203125,-116.98347473144531,-310.4814453125,-0.007502524182200432,-0.12491440773010254,-0.03065773844718933,1.3503909104215002,0.10507209243012208,-0.15040263345509125,0.022929184138774872,-0.9758089184761047,-0.21741968393325806,0.056752607226371765,0.11112070828676224,0.09339442849159241,Walking,8,5.599999999976717,0,0,,,0.8189174107176905
2090,Device Motion,40.443610773408864,-79.94448401449411,289.662296295166,227.6068878173828,15.5394868850708,-0.021148681640625,98.07511138916016,-1.0,-1.0,N/A,-0.01080322265625,-1.070770263671875,-0.194610595703125,0.16728194057941437,-0.052028581500053406,0.1608128547668457,-13.929962158203125,-116.98347473144531,-310.4814453125,0.03200080990791321,0.13218212127685547,0.06417796015739441,1.3171861071607336,-0.0026883885110895746,-0.03179669578294987,-0.0006745177088305354,-0.9680129289627075,-0.2508997619152069,-0.3441457748413086,0.01839582249522209,0.14941740036010742,Walking,8,5.599999999976717,0,0,,,0.8189174107176905
2122,Magnetometer,40.443610773408864,-79.94448401449411,289.662296295166,227.6068878173828,15.5394868850708,-0.021148681640625,98.07511138916016,-1.0,-1.0,N/A,-0.01080322265625,-1.070770263671875,-0.194610595703125,0.16728194057941437,-0.052028581500053406,0.1608128547668457,-11.818511962890625,-113.98246765136719,-313.407958984375,0.03200080990791321,0.13218212127685547,0.06417796015739441,1.3171861071607336,-0.0026883885110895746,-0.03179669578294987,-0.0006745177088305354,-0.9680129289627075,-0.2508997619152069,-0.3441457748413086,0.01839582249522209,0.14941740036010742,Walking,8,5.599999999976717,0,0,,,0.8189174107176905
2153,COMPASS,40.443610773408864,-79.94448401449411,289.662296295166,226.53089904785156,15.543391227722168,-0.021148681640625,98.07511138916016,-1.0,-1.0,N/A,-0.01080322265625,-1.070770263671875,-0.194610595703125,0.16728194057941437,-0.052028581500053406,0.1608128547668457,-11.818511962890625,-113.98246765136719,-313.407958984375,0.03200080990791321,0.13218212127685547,0.06417796015739441,1.3171861071607336,-0.0026883885110895746,-0.03179669578294987,-0.0006745177088305354,-0.9680129289627075,-0.2508997619152069,-0.3441457748413086,0.01839582249522209,0.14941740036010742,Walking,8,5.599999999976717,0,0,,,0.8189174107176905
2185,Gyrometer,40.443610773408864,-79.94448401449411,289.662296295166,226.53089904785156,15.543391227722168,-0.021148681640625,98.07511138916016,-1.0,-1.0,N/A,-0.01080322265625,-1.070770263671875,-0.194610595703125,-0.10151676833629608,0.11240803450345993,0.054908789694309235,-11.818511962890625,-113.98246765136719,-313.407958984375,0.03200080990791321,0.13218212127685547,0.06417796015739441,1.3171861071607336,-0.0026883885110895746,-0.03179669578294987,-0.0006745177088305354,-0.9680129289627075,-0.2508997619152069,-0.3441457748413086,0.01839582249522209,0.14941740036010742,Walking,8,5.599999999976717,0,0,,,0.8189174107176905
2219,Accelerometer,40.443610773408864,-79.94448401449411,289.662296295166,226.53089904785156,15.543391227722168,-0.021148681640625,98.07511138916016,-1.0,-1.0,N/A,0.02960205078125,-0.8896484375,-0.2315216064453125,-0.10151676833629608,0.11240803450345993,0.054908789694309235,-11.818511962890625,-113.98246765136719,-313.407958984375,0.03200080990791321,0.13218212127685547,0.06417796015739441,1.3171861071607336,-0.0026883885110895746,-0.03179669578294987,-0.0006745177088305354,-0.9680129289627075,-0.2508997619152069,-0.3441457748413086,0.01839582249522209,0.14941740036010742,Walking,8,5.599999999976717,0,0,,,0.8189174107176905
2356,COMPASS,40.443610773408864,-79.94448401449411,289.662296295166,227.7457733154297,15.547525405883789,-0.021148681640625,98.07511138916016,-1.0,-1.0,N/A,0.02960205078125,-0.8896484375,-0.2315216064453125,-0.10151676833629608,0.11240803450345993,0.054908789694309235,-11.818511962890625,-113.98246765136719,-313.407958984375,0.03200080990791321,0.13218212127685547,0.06417796015739441,1.3171861071607336,-0.0026883885110895746,-0.03179669578294987,-0.0006745177088305354,-0.9680129289627075,-0.2508997619152069,-0.3441457748413086,0.01839582249522209,0.14941740036010742,Walking,8,5.599999999976717,0,0,,,0.8189174107176905
2391,Device Motion,40.443610773408864,-79.94448401449411,289.662296295166,227.7457733154297,15.547525405883789,-0.021148681640625,98.07511138916016,-1.0,-1.0,N/A,0.02960205078125,-0.8896484375,-0.2315216064453125,-0.10151676833629608,0.11240803450345993,0.054908789694309235,-11.818511962890625,-113.98246765136719,-313.407958984375,0.024794667959213257,-0.17405438423156738,-0.11288338899612427,1.3517602156969193,-0.03174229804391535,-0.023123957440990738,-0.006896093487739563,-0.9761073589324951,-0.21717952191829681,0.27425599098205566,-0.3535899817943573,-0.12218821048736572,Walking,8,5.599999999976717,0,0,,,0.8189174107176905
2420,COMPASS,40.443610773408864,-79.94448401449411,289.662296295166,229.0290985107422,15.548529624938965,-0.021148681640625,98.07511138916016,-1.0,-1.0,N/A,0.02960205078125,-0.8896484375,-0.2315216064453125,-0.10151676833629608,0.11240803450345993,0.054908789694309235,-11.818511962890625,-113.98246765136719,-313.407958984375,0.024794667959213257,-0.17405438423156738,-0.11288338899612427,1.3517602156969193,-0.03174229804391535,-0.023123957440990738,-0.006896093487739563,-0.9761073589324951,-0.21717952191829681,0.27425599098205566,-0.3535899817943573,-0.12218821048736572,Walking,8,5.599999999976717,0,0,,,0.8189174107176905
2452,Magnetometer,40.443610773408864,-79.94448401449411,289.662296295166,229.0290985107422,15.548529624938965,-0.021148681640625,98.07511138916016,-1.0,-1.0,N/A,0.02960205078125,-0.8896484375,-0.2315216064453125,-0.10151676833629608,0.11240803450345993,0.054908789694309235,-9.226150512695312,-110.92538452148438,-313.50970458984375,0.024794667959213257,-0.17405438423156738,-0.11288338899612427,1.3517602156969193,-0.03174229804391535,-0.023123957440990738,-0.006896093487739563,-0.9761073589324951,-0.21717952191829681,0.27425599098205566,-0.3535899817943573,-0.12218821048736572,Walking,8,5.599999999976717,0,0,,,0.8189174107176905
2482,GPS,40.443641032968216,-79.944489263573,289.6174430847168,229.0290985107422,15.548529624938965,-0.021148681640625,98.07511138916016,-1.0,-1.0,N/A,0.02960205078125,-0.8896484375,-0.2315216064453125,-0.10151676833629608,0.11240803450345993,0.054908789694309235,-9.226150512695312,-110.92538452148438,-313.50970458984375,0.024794667959213257,-0.17405438423156738,-0.11288338899612427,1.3517602156969193,-0.03174229804391535,-0.023123957440990738,-0.006896093487739563,-0.9761073589324951,-0.21717952191829681,0.27425599098205566,-0.3535899817943573,-0.12218821048736572,Walking,8,5.599999999976717,0,0,,,0.8189174107176905
2514,Gyrometer,40.443641032968216,-79.944489263573,289.6174430847168,229.0290985107422,15.548529624938965,-0.021148681640625,98.07511138916016,-1.0,-1.0,N/A,0.02960205078125,-0.8896484375,-0.2315216064453125,0.18047283589839935,-0.04821227118372917,-0.1958797574043274,-9.226150512695312,-110.92538452148438,-313.50970458984375,0.024794667959213257,-0.17405438423156738,-0.11288338899612427,1.3517602156969193,-0.03174229804391535,-0.023123957440990738,-0.006896093487739563,-0.9761073589324951,-0.21717952191829681,0.27425599098205566,-0.3535899817943573,-0.12218821048736572,Walking,8,5.599999999976717,0,0,,,0.8189174107176905
2545,COMPASS,40.443641032968216,-79.944489263573,289.6174430847168,230.29287719726562,15.550359725952148,-0.021148681640625,98.07511138916016,-1.0,-1.0,N/A,0.02960205078125,-0.8896484375,-0.2315216064453125,0.18047283589839935,-0.04821227118372917,-0.1958797574043274,-9.226150512695312,-110.92538452148438,-313.50970458984375,0.024794667959213257,-0.17405438423156738,-0.11288338899612427,1.3517602156969193,-0.03174229804391535,-0.023123957440990738,-0.006896093487739563,-0.9761073589324951,-0.21717952191829681,0.27425599098205566,-0.3535899817943573,-0.12218821048736572,Walking,8,5.599999999976717,0,0,,,0.8189174107176905
2577,Accelerometer,40.443641032968216,-79.944489263573,289.6174430847168,230.29287719726562,15.550359725952148,-0.021148681640625,98.07511138916016,-1.0,-1.0,N/A,0.01617431640625,-1.0032958984375,-0.232452392578125,0.18047283589839935,-0.04821227118372917,-0.1958797574043274,-9.226150512695312,-110.92538452148438,-313.50970458984375,0.024794667959213257,-0.17405438423156738,-0.11288338899612427,1.3517602156969193,-0.03174229804391535,-0.023123957440990738,-0.006896093487739563,-0.9761073589324951,-0.21717952191829681,0.27425599098205566,-0.3535899817943573,-0.12218821048736572,Walking,8,5.599999999976717,0,0,,,0.8189174107176905
2627,COMPASS,40.443641032968216,-79.944489263573,289.6174430847168,231.4193572998047,15.551916122436523,-0.021148681640625,98.07511138916016,-1.0,-1.0,N/A,0.01617431640625,-1.0032958984375,-0.232452392578125,0.18047283589839935,-0.04821227118372917,-0.1958797574043274,-9.226150512695312,-110.92538452148438,-313.50970458984375,0.024794667959213257,-0.17405438423156738,-0.11288338899612427,1.3517602156969193,-0.03174229804391535,-0.023123957440990738,-0.006896093487739563,-0.9761073589324951,-0.21717952191829681,0.27425599098205566,-0.3535899817943573,-0.12218821048736572,Walking,8,5.599999999976717,0,0,,,0.8189174107176905
2657,Device Motion,40.443641032968216,-79.944489263573,289.6174430847168,231.4193572998047,15.551916122436523,-0.021148681640625,98.07511138916016,-1.0,-1.0,N/A,0.01617431640625,-1.0032958984375,-0.232452392578125,0.18047283589839935,-0.04821227118372917,-0.1958797574043274,-9.226150512695312,-110.92538452148438,-313.50970458984375,-0.045859724283218384,0.1916760802268982,0.04767036437988281,1.3249649879387524,0.08741830282169234,-0.18316102530543435,0.02124728262424469,-0.9699353575706482,-0.242433562874794,-0.11429260671138763,-0.26134631037712097,-0.024538889527320862,Walking,8,5.599999999976717,0,0,,,0.8189174107176905
2706,Magnetometer,40.443641032968216,-79.944489263573,289.6174430847168,231.4193572998047,15.551916122436523,-0.021148681640625,98.07511138916016,-1.0,-1.0,N/A,0.01617431640625,-1.0032958984375,-0.232452392578125,0.18047283589839935,-0.04821227118372917,-0.1958797574043274,-7.6203460693359375,-110.09654235839844,-316.27899169921875,-0.045859724283218384,0.1916760802268982,0.04767036437988281,1.3249649879387524,0.08741830282169234,-0.18316102530543435,0.02124728262424469,-0.9699353575706482,-0.242433562874794,-0.11429260671138763,-0.26134631037712097,-0.024538889527320862,Walking,8,5.599999999976717,0,0,,,0.8189174107176905
2737,COMPASS,40.443641032968216,-79.944489263573,289.6174430847168,232.6838836669922,15.55337905883789,-0.021148681640625,98.07511138916016,-1.0,-1.0,N/A,0.01617431640625,-1.0032958984375,-0.232452392578125,0.18047283589839935,-0.04821227118372917,-0.1958797574043274,-7.6203460693359375,-110.09654235839844,-316.27899169921875,-0.045859724283218384,0.1916760802268982,0.04767036437988281,1.3249649879387524,0.08741830282169234,-0.18316102530543435,0.02124728262424469,-0.9699353575706482,-0.242433562874794,-0.11429260671138763,-0.26134631037712097,-0.024538889527320862,Walking,8,5.599999999976717,0,0,,,0.8189174107176905
2767,Gyrometer,40.443641032968216,-79.944489263573,289.6174430847168,232.6838836669922,15.55337905883789,-0.021148681640625,98.07511138916016,-1.0,-1.0,N/A,0.01617431640625,-1.0032958984375,-0.232452392578125,0.007194796111434698,-0.21364223957061768,-0.1449023336172104,-7.6203460693359375,-110.09654235839844,-316.27899169921875,-0.045859724283218384,0.1916760802268982,0.04767036437988281,1.3249649879387524,0.08741830282169234,-0.18316102530543435,0.02124728262424469,-0.9699353575706482,-0.242433562874794,-0.11429260671138763,-0.26134631037712097,-0.024538889527320862,Walking,8,5.599999999976717,0,0,,,0.8189174107176905
2801,Accelerometer,40.443641032968216,-79.944489263573,289.6174430847168,232.6838836669922,15.55337905883789,-0.021148681640625,98.07511138916016,-1.0,-1.0,N/A,-0.066925048828125,-0.9242095947265625,-0.16900634765625,0.007194796111434698,-0.21364223957061768,-0.1449023336172104,-7.6203460693359375,-110.09654235839844,-316.27899169921875,-0.045859724283218384,0.1916760802268982,0.04767036437988281,1.3249649879387524,0.08741830282169234,-0.18316102530543435,0.02124728262424469,-0.9699353575706482,-0.242433562874794,-0.11429260671138763,-0.26134631037712097,-0.024538889527320862,Walking,8,5.599999999976717,0,0,,,0.8189174107176905
2831,Activity Manager,40.443641032968216,-79.944489263573,289.6174430847168,232.6838836669922,15.55337905883789,-0.021148681640625,98.07511138916016,-1.0,-1.0,N/A,-0.066925048828125,-0.9242095947265625,-0.16900634765625,0.007194796111434698,-0.21364223957061768,-0.1449023336172104,-7.6203460693359375,-110.09654235839844,-316.27899169921875,-0.045859724283218384,0.1916760802268982,0.04767036437988281,1.3249649879387524,0.08741830282169234,-0.18316102530543435,0.02124728262424469,-0.9699353575706482,-0.242433562874794,-0.11429260671138763,-0.26134631037712097,-0.024538889527320862,Walking,8,5.599999999976717,0,0,,,0.8189174107176905
2860,Pedometer,40.443641032968216,-79.944489263573,289.6174430847168,232.6838836669922,15.55337905883789,-0.021148681640625,98.07511138916016,-1.0,-1.0,N/A,-0.066925048828125,-0.9242095947265625,-0.16900634765625,0.007194796111434698,-0.21364223957061768,-0.1449023336172104,-7.6203460693359375,-110.09654235839844,-316.27899169921875,-0.045859724283218384,0.1916760802268982,0.04767036437988281,1.3249649879387524,0.08741830282169234,-0.18316102530543435,0.02124728262424469,-0.9699353575706482,-0.242433562874794,-0.11429260671138763,-0.26134631037712097,-0.024538889527320862,Walking,8,5.599999999976717,0,0,,,1.353236607148483
2890,COMPASS,40.443641032968216,-79.944489263573,289.6174430847168,231.3467254638672,15.556756973266602,-0.021148681640625,98.07511138916016,-1.0,-1.0,N/A,-0.066925048828125,-0.9242095947265625,-0.16900634765625,0.007194796111434698,-0.21364223957061768,-0.1449023336172104,-7.6203460693359375,-110.09654235839844,-316.27899169921875,-0.045859724283218384,0.1916760802268982,0.04767036437988281,1.3249649879387524,0.08741830282169234,-0.18316102530543435,0.02124728262424469,-0.9699353575706482,-0.242433562874794,-0.11429260671138763,-0.26134631037712097,-0.024538889527320862,Walking,8,5.599999999976717,0,0,,,1.353236607148483
2945,COMPASS,40.443641032968216,-79.944489263573,289.6174430847168,230.13111877441406,15.557791709899902,-0.021148681640625,98.07511138916016,-1.0,-1.0,N/A,-0.066925048828125,-0.9242095947265625,-0.16900634765625,0.007194796111434698,-0.21364223957061768,-0.1449023336172104,-7.6203460693359375,-110.09654235839844,-316.27899169921875,-0.045859724283218384,0.1916760802268982,0.04767036437988281,1.3249649879387524,0.08741830282169234,-0.18316102530543435,0.02124728262424469,-0.9699353575706482,-0.242433562874794,-0.11429260671138763,-0.26134631037712097,-0.024538889527320862,Walking,8,5.599999999976717,0,0,,,1.353236607148483
2976,Device Motion,40.443641032968216,-79.944489263573,289.6174430847168,230.13111877441406,15.557791709899902,-0.021148681640625,98.07511138916016,-1.0,-1.0,N/A,-0.066925048828125,-0.9242095947265625,-0.16900634765625,0.007194796111434698,-0.21364223957061768,-0.1449023336172104,-7.6203460693359375,-110.09654235839844,-316.27899169921875,-0.0022742440924048424,-0.16772115230560303,-0.017011791467666626,1.3482113934208206,0.04999901041280976,-0.12292011488728011,0.011032778769731522,-0.9753300547599792,-0.22047603130340576,0.27433067560195923,0.21017858386039734,0.15285149216651917,Walking,8,5.599999999976717,0,0,,,1.353236607148483
3007,Magnetometer,40.443641032968216,-79.944489263573,289.6174430847168,230.13111877441406,15.557791709899902,-0.021148681640625,98.07511138916016,-1.0,-1.0,N/A,-0.066925048828125,-0.9242095947265625,-0.16900634765625,0.007194796111434698,-0.21364223957061768,-0.1449023336172104,-5.913055419921875,-110.49761962890625,-312.9538879394531,-0.0022742440924048424,-0.16772115230560303,-0.017011791467666626,1.3482113934208206,0.04999901041280976,-0.12292011488728011,0.011032778769731522,-0.9753300547599792,-0.22047603130340576,0.27433067560195923,0.21017858386039734,0.15285149216651917,Walking,8,5.599999999976717,0,0,,,1.353236607148483
3037,COMPASS,40.443641032968216,-79.944489263573,289.6174430847168,228.9611053466797,15.558956146240234,-0.021148681640625,98.07511138916016,-1.0,-1.0,N/A,-0.066925048828125,-0.9242095947265625,-0.16900634765625,0.007194796111434698,-0.21364223957061768,-0.1449023336172104,-5.913055419921875,-110.49761962890625,-312.9538879394531,-0.0022742440924048424,-0.16772115230560303,-0.017011791467666626,1.3482113934208206,0.04999901041280976,-0.12292011488728011,0.011032778769731522,-0.9753300547599792,-0.22047603130340576,0.27433067560195923,0.21017858386039734,0.15285149216651917,Walking,8,5.599999999976717,0,0,,,1.353236607148483
3066,Gyrometer,40.443641032968216,-79.944489263573,289.6174430847168,228.9611053466797,15.558956146240234,-0.021148681640625,98.07511138916016,-1.0,-1.0,N/A,-0.066925048828125,-0.9242095947265625,-0.16900634765625,-0.07911159843206406,0.0683755949139595,0.16390478610992432,-5.913055419921875,-110.49761962890625,-312.9538879394531,-0.0022742440924048424,-0.16772115230560303,-0.017011791467666626,1.3482113934208206,0.04999901041280976,-0.12292011488728011,0.011032778769731522,-0.9753300547599792,-0.22047603130340576,0.27433067560195923,0.21017858386039734,0.15285149216651917,Walking,8,5.599999999976717,0,0,,,1.353236607148483
3095,Accelerometer,40.443641032968216,-79.944489263573,289.6174430847168,228.9611053466797,15.558956146240234,-0.021148681640625,98.07511138916016,-1.0,-1.0,N/A,0.03656005859375,-0.93719482421875,-0.2569427490234375,-0.07911159843206406,0.0683755949139595,0.16390478610992432,-5.913055419921875,-110.49761962890625,-312.9538879394531,-0.0022742440924048424,-0.16772115230560303,-0.017011791467666626,1.3482113934208206,0.04999901041280976,-0.12292011488728011,0.011032778769731522,-0.9753300547599792,-0.22047603130340576,0.27433067560195923,0.21017858386039734,0.15285149216651917,Walking,8,5.599999999976717,0,0,,,1.353236607148483
3123,Altimeter,40.443641032968216,-79.944489263573,289.6174430847168,228.9611053466797,15.558956146240234,-0.042266845703125,98.07536315917969,-1.0,-1.0,N/A,0.03656005859375,-0.93719482421875,-0.2569427490234375,-0.07911159843206406,0.0683755949139595,0.16390478610992432,-5.913055419921875,-110.49761962890625,-312.9538879394531,-0.0022742440924048424,-0.16772115230560303,-0.017011791467666626,1.3482113934208206,0.04999901041280976,-0.12292011488728011,0.011032778769731522,-0.9753300547599792,-0.22047603130340576,0.27433067560195923,0.21017858386039734,0.15285149216651917,Walking,8,5.599999999976717,0,0,,,1.353236607148483
3152,COMPASS,40.443641032968216,-79.944489263573,289.6174430847168,227.7141876220703,15.560457229614258,-0.042266845703125,98.07536315917969,-1.0,-1.0,N/A,0.03656005859375,-0.93719482421875,-0.2569427490234375,-0.07911159843206406,0.0683755949139595,0.16390478610992432,-5.913055419921875,-110.49761962890625,-312.9538879394531,-0.0022742440924048424,-0.16772115230560303,-0.017011791467666626,1.3482113934208206,0.04999901041280976,-0.12292011488728011,0.011032778769731522,-0.9753300547599792,-0.22047603130340576,0.27433067560195923,0.21017858386039734,0.15285149216651917,Walking,8,5.599999999976717,0,0,,,1.353236607148483
3254,Device Motion,40.443641032968216,-79.944489263573,289.6174430847168,227.7141876220703,15.560457229614258,-0.042266845703125,98.07536315917969,-1.0,-1.0,N/A,0.03656005859375,-0.93719482421875,-0.2569427490234375,-0.07911159843206406,0.0683755949139595,0.16390478610992432,-5.913055419921875,-110.49761962890625,-312.9538879394531,-0.017371833324432373,0.18447279930114746,0.10385012626647949,1.331053263598713,-0.029533131499765098,-0.00573587468222385,-0.007011705078184605,-0.9713990092277527,-0.2373492419719696,0.06954328715801239,0.14359848201274872,-0.03660440072417259,Walking,8,5.599999999976717,0,0,,,1.353236607148483
3304,Magnetometer,40.443641032968216,-79.944489263573,289.6174430847168,227.7141876220703,15.560457229614258,-0.042266845703125,98.07536315917969,-1.0,-1.0,N/A,0.03656005859375,-0.93719482421875,-0.2569427490234375,-0.07911159843206406,0.0683755949139595,0.16390478610992432,-5.0902252197265625,-109.82463073730469,-309.61309814453125,-0.017371833324432373,0.18447279930114746,0.10385012626647949,1.331053263598713,-0.029533131499765098,-0.00573587468222385,-0.007011705078184605,-0.9713990092277527,-0.2373492419719696,0.06954328715801239,0.14359848201274872,-0.03660440072417259,Walking,8,5.599999999976717,0,0,,,1.353236607148483
3335,COMPASS,40.443641032968216,-79.944489263573,289.6174430847168,226.63059997558594,15.563308715820312,-0.042266845703125,98.07536315917969,-1.0,-1.0,N/A,0.03656005859375,-0.93719482421875,-0.2569427490234375,-0.07911159843206406,0.0683755949139595,0.16390478610992432,-5.0902252197265625,-109.82463073730469,-309.61309814453125,-0.017371833324432373,0.18447279930114746,0.10385012626647949,1.331053263598713,-0.029533131499765098,-0.00573587468222385,-0.007011705078184605,-0.9713990092277527,-0.2373492419719696,0.06954328715801239,0.14359848201274872,-0.03660440072417259,Walking,8,5.599999999976717,0,0,,,1.353236607148483
3366,Gyrometer,40.443641032968216,-79.944489263573,289.6174430847168,226.63059997558594,15.563308715820312,-0.042266845703125,98.07536315917969,-1.0,-1.0,N/A,0.03656005859375,-0.93719482421875,-0.2569427490234375,0.06988001614809036,0.1247166320681572,0.09875533729791641,-5.0902252197265625,-109.82463073730469,-309.61309814453125,-0.017371833324432373,0.18447279930114746,0.10385012626647949,1.331053263598713,-0.029533131499765098,-0.00573587468222385,-0.007011705078184605,-0.9713990092277527,-0.2373492419719696,0.06954328715801239,0.14359848201274872,-0.03660440072417259,Walking,8,5.599999999976717,0,0,,,1.353236607148483
3399,Accelerometer,40.443641032968216,-79.944489263573,289.6174430847168,226.63059997558594,15.563308715820312,-0.042266845703125,98.07536315917969,-1.0,-1.0,N/A,0.0087127685546875,-1.0068817138671875,-0.2032012939453125,0.06988001614809036,0.1247166320681572,0.09875533729791641,-5.0902252197265625,-109.82463073730469,-309.61309814453125,-0.017371833324432373,0.18447279930114746,0.10385012626647949,1.331053263598713,-0.029533131499765098,-0.00573587468222385,-0.007011705078184605,-0.9713990092277527,-0.2373492419719696,0.06954328715801239,0.14359848201274872,-0.03660440072417259,Walking,8,5.599999999976717,0,0,,,1.353236607148483
3431,COMPASS,40.443641032968216,-79.944489263573,289.6174430847168,225.58229064941406,15.565119743347168,-0.042266845703125,98.07536315917969,-1.0,-1.0,N/A,0.0087127685546875,-1.0068817138671875,-0.2032012939453125,0.06988001614809036,0.1247166320681572,0.09875533729791641,-5.0902252197265625,-109.82463073730469,-309.61309814453125,-0.017371833324432373,0.18447279930114746,0.10385012626647949,1.331053263598713,-0.029533131499765098,-0.00573587468222385,-0.007011705078184605,-0.9713990092277527,-0.2373492419719696,0.06954328715801239,0.14359848201274872,-0.03660440072417259,Walking,8,5.599999999976717,0,0,,,1.353236607148483
3524,COMPASS,40.443641032968216,-79.944489263573,289.6174430847168,226.83995056152344,15.567119598388672,-0.042266845703125,98.07536315917969,-1.0,-1.0,N/A,0.0087127685546875,-1.0068817138671875,-0.2032012939453125,0.06988001614809036,0.1247166320681572,0.09875533729791641,-5.0902252197265625,-109.82463073730469,-309.61309814453125,-0.017371833324432373,0.18447279930114746,0.10385012626647949,1.331053263598713,-0.029533131499765098,-0.00573587468222385,-0.007011705078184605,-0.9713990092277527,-0.2373492419719696,0.06954328715801239,0.14359848201274872,-0.03660440072417259,Walking,8,5.599999999976717,0,0,,,1.353236607148483
3555,Device Motion,40.443641032968216,-79.944489263573,289.6174430847168,226.83995056152344,15.567119598388672,-0.042266845703125,98.07536315917969,-1.0,-1.0,N/A,0.0087127685546875,-1.0068817138671875,-0.2032012939453125,0.06988001614809036,0.1247166320681572,0.09875533729791641,-5.0902252197265625,-109.82463073730469,-309.61309814453125,-0.02539592981338501,-0.07223689556121826,-0.02677309513092041,1.3624607082696485,-0.06375819009301106,0.011295581636996439,-0.01317830104380846,-0.9783765077590942,-0.20641174912452698,0.01399936992675066,-0.137385755777359,-0.22269734740257263,Walking,8,5.599999999976717,0,0,,,1.353236607148483
3585,COMPASS,40.443641032968216,-79.944489263573,289.6174430847168,227.98004150390625,15.567935943603516,-0.042266845703125,98.07536315917969,-1.0,-1.0,N/A,0.0087127685546875,-1.0068817138671875,-0.2032012939453125,0.06988001614809036,0.1247166320681572,0.09875533729791641,-5.0902252197265625,-109.82463073730469,-309.61309814453125,-0.02539592981338501,-0.07223689556121826,-0.02677309513092041,1.3624607082696485,-0.06375819009301106,0.011295581636996439,-0.01317830104380846,-0.9783765077590942,-0.20641174912452698,0.01399936992675066,-0.137385755777359,-0.22269734740257263,Walking,8,5.599999999976717,0,0,,,1.353236607148483
3615,Magnetometer,40.443641032968216,-79.944489263573,289.6174430847168,227.98004150390625,15.567935943603516,-0.042266845703125,98.07536315917969,-1.0,-1.0,N/A,0.0087127685546875,-1.0068817138671875,-0.2032012939453125,0.06988001614809036,0.1247166320681572,0.09875533729791641,-3.8271331787109375,-105.70233154296875,-306.67340087890625,-0.02539592981338501,-0.07223689556121826,-0.02677309513092041,1.3624607082696485,-0.06375819009301106,0.011295581636996439,-0.01317830104380846,-0.9783765077590942,-0.20641174912452698,0.01399936992675066,-0.137385755777359,-0.22269734740257263,Walking,8,5.599999999976717,0,0,,,1.353236607148483
3646,Gyrometer,40.443641032968216,-79.944489263573,289.6174430847168,227.98004150390625,15.567935943603516,-0.042266845703125,98.07536315917969,-1.0,-1.0,N/A,0.0087127685546875,-1.0068817138671875,-0.2032012939453125,-0.20395046472549438,-0.2746744453907013,-0.038310371339321136,-3.8271331787109375,-105.70233154296875,-306.67340087890625,-0.02539592981338501,-0.07223689556121826,-0.02677309513092041,1.3624607082696485,-0.06375819009301106,0.011295581636996439,-0.01317830104380846,-0.9783765077590942,-0.20641174912452698,0.01399936992675066,-0.137385755777359,-0.22269734740257263,Walking,8,5.599999999976717,0,0,,,1.353236607148483
3677,COMPASS,40.443641032968216,-79.944489263573,289.6174430847168,229.07931518554688,15.568992614746094,-0.042266845703125,98.07536315917969,-1.0,-1.0,N/A,0.0087127685546875,-1.0068817138671875,-0.2032012939453125,-0.20395046472549438,-0.2746744453907013,-0.038310371339321136,-3.8271331787109375,-105.70233154296875,-306.67340087890625,-0.02539592981338501,-0.07223689556121826,-0.02677309513092041,1.3624607082696485,-0.06375819009301106,0.011295581636996439,-0.01317830104380846,-0.9783765077590942,-0.20641174912452698,0.01399936992675066,-0.137385755777359,-0.22269734740257263,Walking,8,5.599999999976717,0,0,,,1.353236607148483
3708,Accelerometer,40.443641032968216,-79.944489263573,289.6174430847168,229.07931518554688,15.568992614746094,-0.042266845703125,98.07536315917969,-1.0,-1.0,N/A,-0.0923919677734375,-0.906768798828125,-0.208770751953125,-0.20395046472549438,-0.2746744453907013,-0.038310371339321136,-3.8271331787109375,-105.70233154296875,-306.67340087890625,-0.02539592981338501,-0.07223689556121826,-0.02677309513092041,1.3624607082696485,-0.06375819009301106,0.011295581636996439,-0.01317830104380846,-0.9783765077590942,-0.20641174912452698,0.01399936992675066,-0.137385755777359,-0.22269734740257263,Walking,8,5.599999999976717,0,0,,,1.353236607148483
3853,Device Motion,40.443641032968216,-79.944489263573,289.6174430847168,229.07931518554688,15.568992614746094,-0.042266845703125,98.07536315917969,-1.0,-1.0,N/A,-0.0923919677734375,-0.906768798828125,-0.208770751953125,-0.20395046472549438,-0.2746744453907013,-0.038310371339321136,-3.8271331787109375,-105.70233154296875,-306.67340087890625,-0.03777959942817688,0.10178601741790771,0.08133590221405029,1.3076287665866997,0.003866748589941177,-0.08326165301795098,0.00100589485373348,-0.9655708074569702,-0.2601384222507477,0.16186848282814026,0.09246504306793213,-0.18091122806072235,Walking,8,5.599999999976717,0,0,,,1.353236607148483
3904,Magnetometer,40.443641032968216,-79.944489263573,289.6174430847168,229.07931518554688,15.568992614746094,-0.042266845703125,98.07536315917969,-1.0,-1.0,N/A,-0.0923919677734375,-0.906768798828125,-0.208770751953125,-0.20395046472549438,-0.2746744453907013,-0.038310371339321136,-1.66162109375,-101.68220520019531,-306.335693359375,-0.03777959942817688,0.10178601741790771,0.08133590221405029,1.3076287665866997,0.003866748589941177,-0.08326165301795098,0.00100589485373348,-0.9655708074569702,-0.2601384222507477,0.16186848282814026,0.09246504306793213,-0.18091122806072235,Walking,8,5.599999999976717,0,0,,,1.353236607148483
3941,Gyrometer,40.443641032968216,-79.944489263573,289.6174430847168,229.07931518554688,15.568992614746094,-0.042266845703125,98.07536315917969,-1.0,-1.0,N/A,-0.0923919677734375,-0.906768798828125,-0.208770751953125,0.37367451190948486,0.03556278720498085,0.10433359444141388,-1.66162109375,-101.68220520019531,-306.335693359375,-0.03777959942817688,0.10178601741790771,0.08133590221405029,1.3076287665866997,0.003866748589941177,-0.08326165301795098,0.00100589485373348,-0.9655708074569702,-0.2601384222507477,0.16186848282814026,0.09246504306793213,-0.18091122806072235,Walking,8,5.599999999976717,0,0,,,1.353236607148483
3972,Accelerometer,40.443641032968216,-79.944489263573,289.6174430847168,229.07931518554688,15.568992614746094,-0.042266845703125,98.07536315917969,-1.0,-1.0,N/A,-0.03814697265625,-1.05487060546875,-0.217498779296875,0.37367451190948486,0.03556278720498085,0.10433359444141388,-1.66162109375,-101.68220520019531,-306.335693359375,-0.03777959942817688,0.10178601741790771,0.08133590221405029,1.3076287665866997,0.003866748589941177,-0.08326165301795098,0.00100589485373348,-0.9655708074569702,-0.2601384222507477,0.16186848282814026,0.09246504306793213,-0.18091122806072235,Walking,8,5.599999999976717,0,0,,,1.353236607148483
4055,Altimeter,40.443641032968216,-79.944489263573,289.6174430847168,229.07931518554688,15.568992614746094,-0.0819091796875,98.07581329345703,-1.0,-1.0,N/A,-0.03814697265625,-1.05487060546875,-0.217498779296875,0.37367451190948486,0.03556278720498085,0.10433359444141388,-1.66162109375,-101.68220520019531,-306.335693359375,-0.03777959942817688,0.10178601741790771,0.08133590221405029,1.3076287665866997,0.003866748589941177,-0.08326165301795098,0.00100589485373348,-0.9655708074569702,-0.2601384222507477,0.16186848282814026,0.09246504306793213,-0.18091122806072235,Walking,8,5.599999999976717,0,0,,,1.353236607148483
4103,COMPASS,40.443641032968216,-79.944489263573,289.6174430847168,228.0465087890625,15.576099395751953,-0.0819091796875,98.07581329345703,-1.0,-1.0,N/A,-0.03814697265625,-1.05487060546875,-0.217498779296875,0.37367451190948486,0.03556278720498085,0.10433359444141388,-1.66162109375,-101.68220520019531,-306.335693359375,-0.03777959942817688,0.10178601741790771,0.08133590221405029,1.3076287665866997,0.003866748589941177,-0.08326165301795098,0.00100589485373348,-0.9655708074569702,-0.2601384222507477,0.16186848282814026,0.09246504306793213,-0.18091122806072235,Walking,8,5.599999999976717,0,0,,,1.353236607148483
4152,Device Motion,40.443641032968216,-79.944489263573,289.6174430847168,228.0465087890625,15.576099395751953,-0.0819091796875,98.07581329345703,-1.0,-1.0,N/A,-0.03814697265625,-1.05487060546875,-0.217498779296875,0.37367451190948486,0.03556278720498085,0.10433359444141388,-1.66162109375,-101.68220520019531,-306.335693359375,0.012704223394393921,0.00018346309661865234,-0.06136775016784668,1.3354244987165478,-0.05843580394456897,-0.004847216016939333,-0.0136197404935956,-0.9724277257919312,-0.2328064888715744,-0.221638485789299,-0.2851443290710449,0.12654341757297516,Walking,8,5.599999999976717,0,0,,,1.353236607148483
4203,Magnetometer,40.443641032968216,-79.944489263573,289.6174430847168,228.0465087890625,15.576099395751953,-0.0819091796875,98.07581329345703,-1.0,-1.0,N/A,-0.03814697265625,-1.05487060546875,-0.217498779296875,0.37367451190948486,0.03556278720498085,0.10433359444141388,1.0747833251953125,-99.73712158203125,-307.9356994628906,0.012704223394393921,0.00018346309661865234,-0.06136775016784668,1.3354244987165478,-0.05843580394456897,-0.004847216016939333,-0.0136197404935956,-0.9724277257919312,-0.2328064888715744,-0.221638485789299,-0.2851443290710449,0.12654341757297516,Walking,8,5.599999999976717,0,0,,,1.353236607148483
4237,Gyrometer,40.443641032968216,-79.944489263573,289.6174430847168,228.0465087890625,15.576099395751953,-0.0819091796875,98.07581329345703,-1.0,-1.0,N/A,-0.03814697265625,-1.05487060546875,-0.217498779296875,-0.28921955823898315,0.042038265615701675,-0.029891053214669228,1.0747833251953125,-99.73712158203125,-307.9356994628906,0.012704223394393921,0.00018346309661865234,-0.06136775016784668,1.3354244987165478,-0.05843580394456897,-0.004847216016939333,-0.0136197404935956,-0.9724277257919312,-0.2328064888715744,-0.221638485789299,-0.2851443290710449,0.12654341757297516,Walking,8,5.599999999976717,0,0,,,1.353236607148483
4269,Accelerometer,40.443641032968216,-79.944489263573,289.6174430847168,228.0465087890625,15.576099395751953,-0.0819091796875,98.07581329345703,-1.0,-1.0,N/A,0.038604736328125,-0.9061431884765625,-0.309661865234375,-0.28921955823898315,0.042038265615701675,-0.029891053214669228,1.0747833251953125,-99.73712158203125,-307.9356994628906,0.012704223394393921,0.00018346309661865234,-0.06136775016784668,1.3354244987165478,-0.05843580394456897,-0.004847216016939333,-0.0136197404935956,-0.9724277257919312,-0.2328064888715744,-0.221638485789299,-0.2851443290710449,0.12654341757297516,Walking,8,5.599999999976717,0,0,,,1.353236607148483
4451,Device Motion,40.443641032968216,-79.944489263573,289.6174430847168,228.0465087890625,15.576099395751953,-0.0819091796875,98.07581329345703,-1.0,-1.0,N/A,0.038604736328125,-0.9061431884765625,-0.309661865234375,-0.28921955823898315,0.042038265615701675,-0.029891053214669228,1.0747833251953125,-99.73712158203125,-307.9356994628906,0.04961392283439636,0.037118732929229736,0.04629075527191162,1.327227877215898,-0.0706369391113456,-0.004844467768571407,-0.017021141946315765,-0.9704835414886475,-0.24056567251682281,0.1665576994419098,-0.01659541018307209,-0.1816614866256714,Walking,8,5.599999999976717,0,0,,,1.353236607148483
4503,Magnetometer,40.443641032968216,-79.944489263573,289.6174430847168,228.0465087890625,15.576099395751953,-0.0819091796875,98.07581329345703,-1.0,-1.0,N/A,0.038604736328125,-0.9061431884765625,-0.309661865234375,-0.28921955823898315,0.042038265615701675,-0.029891053214669228,6.2358551025390625,-99.29812622070312,-313.02069091796875,0.04961392283439636,0.037118732929229736,0.04629075527191162,1.327227877215898,-0.0706369391113456,-0.004844467768571407,-0.017021141946315765,-0.9704835414886475,-0.24056567251682281,0.1665576994419098,-0.01659541018307209,-0.1816614866256714,Walking,8,5.599999999976717,0,0,,,1.353236607148483
4539,Gyrometer,40.443641032968216,-79.944489263573,289.6174430847168,228.0465087890625,15.576099395751953,-0.0819091796875,98.07581329345703,-1.0,-1.0,N/A,0.038604736328125,-0.9061431884765625,-0.309661865234375,0.18500474095344543,0.16187624633312225,-0.08745847642421722,6.2358551025390625,-99.29812622070312,-313.02069091796875,0.04961392283439636,0.037118732929229736,0.04629075527191162,1.327227877215898,-0.0706369391113456,-0.004844467768571407,-0.017021141946315765,-0.9704835414886475,-0.24056567251682281,0.1665576994419098,-0.01659541018307209,-0.1816614866256714,Walking,8,5.599999999976717,0,0,,,1.353236607148483
