Timestamp (ms),Triggering Sensor,Latitude,Longitude,Altitude,Heading (degrees),Heading accuracy (degrees),Relative Altitude (m),Pressure (kPa),Speed (m/s),Speed Accuracy (m/s),Floor,Acceleration - X axis,Acceleration - Y axis,Acceleration - Z axis,Gyrometer - X axis,Gyrometer - Y axis,Gyrometer - Z axis,Magnetometer - X axis,Magnetometer - Y axis,Magnetometer - Z axis,User acceleration - X axis,User acceleration - Y axis,User acceleration - Z axis,Attitude Pitch,Attitude Roll,Attitude Yaw,Gravity - X axis,Gravity - Y axis,Gravity - Z axis,Rotation Rate - X axis,Rotation Rate - Y axis,Rotation Rate - Z axis,Activity Type,Number of Steps,Distance,Floors Ascended,Floors Descended,Current Pace,Current Cadence,Average Active Pace
9,Gyrometer,,,,,,,,,,,,,,-0.07786870002746582,0.07449048012495041,-0.02732403203845024,,,,,,,,,,,,,,,,,,,,,,,
56,GPS,40.44340057898823,-79.94447779434473,289.803165435791,,,,,-1.0,-1.0,N/A,,,,-0.07786870002746582,0.07449048012495041,-0.02732403203845024,,,,,,,,,,,,,,,,,,,,,,,
98,COMPASS,40.44340057898823,-79.94447779434473,289.803165435791,347.057373046875,15.540051460266113,,,-1.0,-1.0,N/A,,,,-0.07786870002746582,0.07449048012495041,-0.02732403203845024,,,,,,,,,,,,,,,,,,,,,,,
135,GPS,40.44340057898823,-79.94447779434473,289.803165435791,347.057373046875,15.540051460266113,,,-1.0,-1.0,N/A,,,,-0.07786870002746582,0.07449048012495041,-0.02732403203845024,,,,,,,,,,,,,,,,,,,,,,,
164,Magnetometer,40.44340057898823,-79.94447779434473,289.803165435791,347.057373046875,15.540051460266113,,,-1.0,-1.0,N/A,,,,-0.07786870002746582,0.07449048012495041,-0.02732403203845024,-16.684967041015625,-135.66770935058594,-340.8531494140625,,,,,,,,,,,,,,,,,,,,
191,GPS,40.44383839334191,-79.94448023862707,289.8028373718262,347.057373046875,15.540051460266113,,,-1.0,-1.0,N/A,,,,-0.07786870002746582,0.07449048012495041,-0.02732403203845024,-16.684967041015625,-135.66770935058594,-340.8531494140625,,,,,,,,,,,,,,,,,,,,
222,GPS,40.443875446670944,-79.94448056431352,289.8028373718262,347.057373046875,15.540051460266113,,,-1.0,-1.0,N/A,,,,-0.07786870002746582,0.07449048012495041,-0.02732403203845024,-16.684967041015625,-135.66770935058594,-340.8531494140625,,,,,,,,,,,,,,,,,,,,
249,Activity Manager,40.443875446670944,-79.94448056431352,289.8028373718262,347.057373046875,15.540051460266113,,,-1.0,-1.0,N/A,,,,-0.07786870002746582,0.07449048012495041,-0.02732403203845024,-16.684967041015625,-135.66770935058594,-340.8531494140625,,,,,,,,,,,,,Walking,,,,,,,
279,Accelerometer,40.443875446670944,-79.94448056431352,289.8028373718262,347.057373046875,15.540051460266113,,,-1.0,-1.0,N/A,0.0124969482421875,-1.0007476806640625,-0.1114959716796875,-0.07786870002746582,0.07449048012495041,-0.02732403203845024,-16.684967041015625,-135.66770935058594,-340.8531494140625,,,,,,,,,,,,,Walking,,,,,,,
311,Device Motion,40.443875446670944,-79.94448056431352,289.8028373718262,347.057373046875,15.540051460266113,,,-1.0,-1.0,N/A,0.0124969482421875,-1.0007476806640625,-0.1114959716796875,-0.07786870002746582,0.07449048012495041,-0.02732403203845024,-16.684967041015625,-135.66770935058594,-340.8531494140625,0.006664813496172428,-0.005408585071563721,0.02154313027858734,1.4617252199575774,0.09211319723775957,-0.08258816165412193,0.01001302432268858,-0.9940576553344727,-0.10839585214853287,0.016451552510261536,-0.031054215505719185,0.045618101954460144,Walking,,,,,,,
339,Gyrometer,40.443875446670944,-79.94448056431352,289.8028373718262,347.057373046875,15.540051460266113,,,-1.0,-1.0,N/A,0.0124969482421875,-1.0007476806640625,-0.1114959716796875,0.04910283163189888,-0.014386395923793316,-0.016630375757813454,-16.684967041015625,-135.66770935058594,-340.8531494140625,0.006664813496172428,-0.005408585071563721,0.02154313027858734,1.4617252199575774,0.09211319723775957,-0.08258816165412193,0.01001302432268858,-0.9940576553344727,-0.10839585214853287,0.016451552510261536,-0.031054215505719185,0.045618101954460144,Walking,,,,,,,
369,Magnetometer,40.443875446670944,-79.94448056431352,289.8028373718262,347.057373046875,15.540051460266113,,,-1.0,-1.0,N/A,0.0124969482421875,-1.0007476806640625,-0.1114959716796875,0.04910283163189888,-0.014386395923793316,-0.016630375757813454,-16.840377807617188,-135.6637420654297,-340.6708984375,0.006664813496172428,-0.005408585071563721,0.02154313027858734,1.4617252199575774,0.09211319723775957,-0.08258816165412193,0.01001302432268858,-0.9940576553344727,-0.10839585214853287,0.016451552510261536,-0.031054215505719185,0.045618101954460144,Walking,,,,,,,
399,Accelerometer,40.443875446670944,-79.94448056431352,289.8028373718262,347.057373046875,15.540051460266113,,,-1.0,-1.0,N/A,0.00823974609375,-0.9882965087890625,-0.0589599609375,0.04910283163189888,-0.014386395923793316,-0.016630375757813454,-16.840377807617188,-135.6637420654297,-340.6708984375,0.006664813496172428,-0.005408585071563721,0.02154313027858734,1.4617252199575774,0.09211319723775957,-0.08258816165412193,0.01001302432268858,-0.9940576553344727,-0.10839585214853287,0.016451552510261536,-0.031054215505719185,0.045618101954460144,Walking,,,,,,,
428,Device Motion,40.443875446670944,-79.94448056431352,289.8028373718262,347.057373046875,15.540051460266113,,,-1.0,-1.0,N/A,0.00823974609375,-0.9882965087890625,-0.0589599609375,0.04910283163189888,-0.014386395923793316,-0.016630375757813454,-16.840377807617188,-135.6637420654297,-340.6708984375,0.017611324787139893,0.011738121509552002,0.047032058238983154,1.4640941178691906,0.06190855436355982,-0.05752774507246093,0.006589107681065798,-0.9943127036094666,-0.10629689693450928,-0.060454048216342926,-0.06005679816007614,0.03465278819203377,Walking,,,,,,,
588,GPS,40.44348551953917,-79.94449252843172,289.7518424987793,347.057373046875,15.540051460266113,,,-1.0,-1.0,N/A,0.00823974609375,-0.9882965087890625,-0.0589599609375,0.04910283163189888,-0.014386395923793316,-0.016630375757813454,-16.840377807617188,-135.6637420654297,-340.6708984375,0.017611324787139893,0.011738121509552002,0.047032058238983154,1.4640941178691906,0.06190855436355982,-0.05752774507246093,0.006589107681065798,-0.9943127036094666,-0.10629689693450928,-0.060454048216342926,-0.06005679816007614,0.03465278819203377,Walking,,,,,,,
622,Gyrometer,40.44348551953917,-79.94449252843172,289.7518424987793,347.057373046875,15.540051460266113,,,-1.0,-1.0,N/A,0.00823974609375,-0.9882965087890625,-0.0589599609375,-0.12191658467054367,-0.10252691060304642,0.005993976723402739,-16.840377807617188,-135.6637420654297,-340.6708984375,0.017611324787139893,0.011738121509552002,0.047032058238983154,1.4640941178691906,0.06190855436355982,-0.05752774507246093,0.006589107681065798,-0.9943127036094666,-0.10629689693450928,-0.060454048216342926,-0.06005679816007614,0.03465278819203377,Walking,,,,,,,
641,Magnetometer,40.44348551953917,-79.94449252843172,289.7518424987793,347.057373046875,15.540051460266113,,,-1.0,-1.0,N/A,0.00823974609375,-0.9882965087890625,-0.0589599609375,-0.12191658467054367,-0.10252691060304642,0.005993976723402739,-16.730728149414062,-135.27224731445312,-341.46905517578125,0.017611324787139893,0.011738121509552002,0.047032058238983154,1.4640941178691906,0.06190855436355982,-0.05752774507246093,0.006589107681065798,-0.9943127036094666,-0.10629689693450928,-0.060454048216342926,-0.06005679816007614,0.03465278819203377,Walking,,,,,,,
670,Accelerometer,40.44348551953917,-79.94449252843172,289.7518424987793,347.057373046875,15.540051460266113,,,-1.0,-1.0,N/A,0.008544921875,-0.9956512451171875,-0.0611114501953125,-0.12191658467054367,-0.10252691060304642,0.005993976723402739,-16.730728149414062,-135.27224731445312,-341.46905517578125,0.017611324787139893,0.011738121509552002,0.047032058238983154,1.4640941178691906,0.06190855436355982,-0.05752774507246093,0.006589107681065798,-0.9943127036094666,-0.10629689693450928,-0.060454048216342926,-0.06005679816007614,0.03465278819203377,Walking,,,,,,,
699,Device Motion,40.44348551953917,-79.94449252843172,289.7518424987793,347.057373046875,15.540051460266113,,,-1.0,-1.0,N/A,0.008544921875,-0.9956512451171875,-0.0611114501953125,-0.12191658467054367,-0.10252691060304642,0.005993976723402739,-16.730728149414062,-135.27224731445312,-341.46905517578125,0.003723202273249626,-0.01005709171295166,0.06013979762792587,1.4575082639287666,0.0904236175189958,-0.0981389341304381,0.01020808145403862,-0.9935897588729858,-0.11258391290903091,-0.10919884592294693,-0.05216841399669647,-0.04528700187802315,Walking,,,,,,,
732,COMPASS,40.44348551953917,-79.94449252843172,289.7518424987793,348.0589294433594,15.532468795776367,,,-1.0,-1.0,N/A,0.008544921875,-0.9956512451171875,-0.0611114501953125,-0.12191658467054367,-0.10252691060304642,0.005993976723402739,-16.730728149414062,-135.27224731445312,-341.46905517578125,0.003723202273249626,-0.01005709171295166,0.06013979762792587,1.4575082639287666,0.0904236175189958,-0.0981389341304381,0.01020808145403862,-0.9935897588729858,-0.11258391290903091,-0.10919884592294693,-0.05216841399669647,-0.04528700187802315,Walking,,,,,,,
905,Gyrometer,40.44348551953917,-79.94449252843172,289.7518424987793,348.0589294433594,15.532468795776367,,,-1.0,-1.0,N/A,0.008544921875,-0.9956512451171875,-0.0611114501953125,-0.12346867471933365,-0.037454165518283844,-0.02889236807823181,-16.730728149414062,-135.27224731445312,-341.46905517578125,0.003723202273249626,-0.01005709171295166,0.06013979762792587,1.4575082639287666,0.0904236175189958,-0.0981389341304381,0.01020808145403862,-0.9935897588729858,-0.11258391290903091,-0.10919884592294693,-0.05216841399669647,-0.04528700187802315,Walking,,,,,,,
942,Magnetometer,40.44348551953917,-79.94449252843172,289.7518424987793,348.0589294433594,15.532468795776367,,,-1.0,-1.0,N/A,0.008544921875,-0.9956512451171875,-0.0611114501953125,-0.12346867471933365,-0.037454165518283844,-0.02889236807823181,-16.72406005859375,-135.3341827392578,-342.703369140625,0.003723202273249626,-0.01005709171295166,0.06013979762792587,1.4575082639287666,0.0904236175189958,-0.0981389341304381,0.01020808145403862,-0.9935897588729858,-0.11258391290903091,-0.10919884592294693,-0.05216841399669647,-0.04528700187802315,Walking,,,,,,,
976,Accelerometer,40.44348551953917,-79.94449252843172,289.7518424987793,348.0589294433594,15.532468795776367,,,-1.0,-1.0,N/A,-0.028472900390625,-0.9738616943359375,-0.02362060546875,-0.12346867471933365,-0.037454165518283844,-0.02889236807823181,-16.72406005859375,-135.3341827392578,-342.703369140625,0.003723202273249626,-0.01005709171295166,0.06013979762792587,1.4575082639287666,0.0904236175189958,-0.0981389341304381,0.01020808145403862,-0.9935897588729858,-0.11258391290903091,-0.10919884592294693,-0.05216841399669647,-0.04528700187802315,Walking,,,,,,,
1007,Device Motion,40.44348551953917,-79.94449252843172,289.7518424987793,348.0589294433594,15.532468795776367,,,-1.0,-1.0,N/A,-0.028472900390625,-0.9738616943359375,-0.02362060546875,-0.12346867471933365,-0.037454165518283844,-0.02889236807823181,-16.72406005859375,-135.3341827392578,-342.703369140625,-0.06052136421203613,0.012506246566772461,0.11356651782989502,1.4408695961409392,0.03561290757015671,-0.06653139233468665,0.004613150376826525,-0.9915713667869568,-0.12948115170001984,-0.16678380966186523,-0.04677418991923332,-0.02508549951016903,Walking,,,,,,,
1037,Altimeter,40.44348551953917,-79.94449252843172,289.7518424987793,348.0589294433594,15.532468795776367,0,98.0682373046875,-1.0,-1.0,N/A,-0.028472900390625,-0.9738616943359375,-0.02362060546875,-0.12346867471933365,-0.037454165518283844,-0.02889236807823181,-16.72406005859375,-135.3341827392578,-342.703369140625,-0.06052136421203613,0.012506246566772461,0.11356651782989502,1.4408695961409392,0.03561290757015671,-0.06653139233468665,0.004613150376826525,-0.9915713667869568,-0.12948115170001984,-0.16678380966186523,-0.04677418991923332,-0.02508549951016903,Walking,,,,,,,
1140,COMPASS,40.44348551953917,-79.94449252843172,289.7518424987793,349.12969970703125,15.535782814025879,0,98.0682373046875,-1.0,-1.0,N/A,-0.028472900390625,-0.9738616943359375,-0.02362060546875,-0.12346867471933365,-0.037454165518283844,-0.02889236807823181,-16.72406005859375,-135.3341827392578,-342.703369140625,-0.06052136421203613,0.012506246566772461,0.11356651782989502,1.4408695961409392,0.03561290757015671,-0.06653139233468665,0.004613150376826525,-0.9915713667869568,-0.12948115170001984,-0.16678380966186523,-0.04677418991923332,-0.02508549951016903,Walking,,,,,,,
1205,Gyrometer,40.44348551953917,-79.94449252843172,289.7518424987793,349.12969970703125,15.535782814025879,0,98.0682373046875,-1.0,-1.0,N/A,-0.028472900390625,-0.9738616943359375,-0.02362060546875,0.14378699660301208,0.027227094396948814,-0.008175372146070004,-16.72406005859375,-135.3341827392578,-342.703369140625,-0.06052136421203613,0.012506246566772461,0.11356651782989502,1.4408695961409392,0.03561290757015671,-0.06653139233468665,0.004613150376826525,-0.9915713667869568,-0.12948115170001984,-0.16678380966186523,-0.04677418991923332,-0.02508549951016903,Walking,,,,,,,
1242,Magnetometer,40.44348551953917,-79.94449252843172,289.7518424987793,349.12969970703125,15.535782814025879,0,98.0682373046875,-1.0,-1.0,N/A,-0.028472900390625,-0.9738616943359375,-0.02362060546875,0.14378699660301208,0.027227094396948814,-0.008175372146070004,-16.812225341796875,-135.95272827148438,-343.8798828125,-0.06052136421203613,0.012506246566772461,0.11356651782989502,1.4408695961409392,0.03561290757015671,-0.06653139233468665,0.004613150376826525,-0.9915713667869568,-0.12948115170001984,-0.16678380966186523,-0.04677418991923332,-0.02508549951016903,Walking,,,,,,,
1271,Accelerometer,40.44348551953917,-79.94449252843172,289.7518424987793,349.12969970703125,15.535782814025879,0,98.0682373046875,-1.0,-1.0,N/A,-0.0211944580078125,-1.022918701171875,0.017974853515625,0.14378699660301208,0.027227094396948814,-0.008175372146070004,-16.812225341796875,-135.95272827148438,-343.8798828125,-0.06052136421203613,0.012506246566772461,0.11356651782989502,1.4408695961409392,0.03561290757015671,-0.06653139233468665,0.004613150376826525,-0.9915713667869568,-0.12948115170001984,-0.16678380966186523,-0.04677418991923332,-0.02508549951016903,Walking,,,,,,,
1301,Device Motion,40.44348551953917,-79.94449252843172,289.7518424987793,349.12969970703125,15.535782814025879,0,98.0682373046875,-1.0,-1.0,N/A,-0.0211944580078125,-1.022918701171875,0.017974853515625,0.14378699660301208,0.027227094396948814,-0.008175372146070004,-16.812225341796875,-135.95272827148438,-343.8798828125,-0.023663640022277832,-0.10882985591888428,0.11916917562484741,1.4435006201729588,0.006829444549861576,-0.04466124205848749,0.0008670173701830208,-0.991908848285675,-0.12695086002349854,-0.07378882169723511,0.01413128711283207,0.01327243261039257,Walking,,,,,,,
1499,COMPASS,40.44348551953917,-79.94449252843172,289.7518424987793,348.0458679199219,15.542749404907227,0,98.0682373046875,-1.0,-1.0,N/A,-0.0211944580078125,-1.022918701171875,0.017974853515625,0.14378699660301208,0.027227094396948814,-0.008175372146070004,-16.812225341796875,-135.95272827148438,-343.8798828125,-0.023663640022277832,-0.10882985591888428,0.11916917562484741,1.4435006201729588,0.006829444549861576,-0.04466124205848749,0.0008670173701830208,-0.991908848285675,-0.12695086002349854,-0.07378882169723511,0.01413128711283207,0.01327243261039257,Walking,,,,,,,
1533,Magnetometer,40.44348551953917,-79.94449252843172,289.7518424987793,348.0458679199219,15.542749404907227,0,98.0682373046875,-1.0,-1.0,N/A,-0.0211944580078125,-1.022918701171875,0.017974853515625,0.14378699660301208,0.027227094396948814,-0.008175372146070004,-15.863265991210938,-138.09959411621094,-342.6434326171875,-0.023663640022277832,-0.10882985591888428,0.11916917562484741,1.4435006201729588,0.006829444549861576,-0.04466124205848749,0.0008670173701830208,-0.991908848285675,-0.12695086002349854,-0.07378882169723511,0.01413128711283207,0.01327243261039257,Walking,,,,,,,
1565,COMPASS,40.44348551953917,-79.94449252843172,289.7518424987793,346.9644470214844,15.54404067993164,0,98.0682373046875,-1.0,-1.0,N/A,-0.0211944580078125,-1.022918701171875,0.017974853515625,0.14378699660301208,0.027227094396948814,-0.008175372146070004,-15.863265991210938,-138.09959411621094,-342.6434326171875,-0.023663640022277832,-0.10882985591888428,0.11916917562484741,1.4435006201729588,0.006829444549861576,-0.04466124205848749,0.0008670173701830208,-0.991908848285675,-0.12695086002349854,-0.07378882169723511,0.01413128711283207,0.01327243261039257,Walking,5,3.650000000023283,0,0,0.7773886322975159,1.763332486152649,0.8304794520494969
1596,COMPASS,40.44348551953917,-79.94449252843172,289.7518424987793,346.9644470214844,15.54404067993164,0,98.0682373046875,-1.0,-1.0,N/A,-0.0211944580078125,-1.022918701171875,0.017974853515625,0.14378699660301208,0.027227094396948814,-0.008175372146070004,-15.863265991210938,-138.09959411621094,-342.6434326171875,-0.023663640022277832,-0.10882985591888428,0.11916917562484741,1.4435006201729588,0.006829444549861576,-0.04466124205848749,0.0008670173701830208,-0.991908848285675,-0.12695086002349854,-0.07378882169723511,0.01413128711283207,0.01327243261039257,Walking,5,3.650000000023283,0,0,0.7773886322975159,1.763332486152649,0.8304794520494969
1624,Gyrometer,40.44348551953917,-79.94449252843172,289.7518424987793,346.9644470214844,15.54404067993164,0,98.0682373046875,-1.0,-1.0,N/A,-0.0211944580078125,-1.022918701171875,0.017974853515625,-0.3386289179325104,0.0736667662858963,0.23409558832645416,-15.863265991210938,-138.09959411621094,-342.6434326171875,-0.023663640022277832,-0.10882985591888428,0.11916917562484741,1.4435006201729588,0.006829444549861576,-0.04466124205848749,0.0008670173701830208,-0.991908848285675,-0.12695086002349854,-0.07378882169723511,0.01413128711283207,0.01327243261039257,Walking,5,3.650000000023283,0,0,0.7773886322975159,1.763332486152649,0.8304794520494969
1653,Accelerometer,40.44348551953917,-79.94449252843172,289.7518424987793,346.9644470214844,15.54404067993164,0,98.0682373046875,-1.0,-1.0,N/A,0.02325439453125,-0.9798431396484375,-0.149566650390625,-0.3386289179325104,0.0736667662858963,0.23409558832645416,-15.863265991210938,-138.09959411621094,-342.6434326171875,-0.023663640022277832,-0.10882985591888428,0.11916917562484741,1.4435006201729588,0.006829444549861576,-0.04466124205848749,0.0008670173701830208,-0.991908848285675,-0.12695086002349854,-0.07378882169723511,0.01413128711283207,0.01327243261039257,Walking,5,3.650000000023283,0,0,0.7773886322975159,1.763332486152649,0.8304794520494969
1666,Activity Manager,40.44348551953917,-79.94449252843172,289.7518424987793,346.9644470214844,15.54404067993164,0,98.0682373046875,-1.0,-1.0,N/A,0.02325439453125,-0.9798431396484375,-0.149566650390625,-0.3386289179325104,0.0736667662858963,0.23409558832645416,-15.863265991210938,-138.09959411621094,-342.6434326171875,-0.023663640022277832,-0.10882985591888428,0.11916917562484741,1.4435006201729588,0.006829444549861576,-0.04466124205848749,0.0008670173701830208,-0.991908848285675,-0.12695086002349854,-0.07378882169723511,0.01413128711283207,0.01327243261039257,Walking,5,3.650000000023283,0,0,0.7773886322975159,1.763332486152649,0.8304794520494969
1695,COMPASS,40.44348551953917,-79.94449252843172,289.7518424987793,345.59722900390625,15.546648025512695,0,98.0682373046875,-1.0,-1.0,N/A,0.02325439453125,-0.9798431396484375,-0.149566650390625,-0.3386289179325104,0.0736667662858963,0.23409558832645416,-15.863265991210938,-138.09959411621094,-342.6434326171875,-0.023663640022277832,-0.10882985591888428,0.11916917562484741,1.4435006201729588,0.006829444549861576,-0.04466124205848749,0.0008670173701830208,-0.991908848285675,-0.12695086002349854,-0.07378882169723511,0.01413128711283207,0.01327243261039257,Walking,5,3.650000000023283,0,0,0.7773886322975159,1.763332486152649,0.8304794520494969
1724,Device Motion,40.44348551953917,-79.94449252843172,289.7518424987793,345.59722900390625,15.546648025512695,0,98.0682373046875,-1.0,-1.0,N/A,0.02325439453125,-0.9798431396484375,-0.149566650390625,-0.3386289179325104,0.0736667662858963,0.23409558832645416,-15.863265991210938,-138.09959411621094,-342.6434326171875,0.03226640820503235,0.058741867542266846,-0.04683928191661835,1.4363645217393224,-0.16775679478226627,0.15360612861167638,-0.02237870916724205,-0.9909776449203491,-0.1321459710597992,-0.01567230187356472,0.11692332476377487,0.05771983414888382,Walking,5,3.650000000023283,0,0,0.7773886322975159,1.763332486152649,0.8304794520494969
1778,COMPASS,40.44348551953917,-79.94449252843172,289.7518424987793,344.4874267578125,15.548615455627441,0,98.0682373046875,-1.0,-1.0,N/A,0.02325439453125,-0.9798431396484375,-0.149566650390625,-0.3386289179325104,0.0736667662858963,0.23409558832645416,-15.863265991210938,-138.09959411621094,-342.6434326171875,0.03226640820503235,0.058741867542266846,-0.04683928191661835,1.4363645217393224,-0.16775679478226627,0.15360612861167638,-0.02237870916724205,-0.9909776449203491,-0.1321459710597992,-0.01567230187356472,0.11692332476377487,0.05771983414888382,Walking,5,3.650000000023283,0,0,0.7773886322975159,1.763332486152649,0.8304794520494969
1807,Magnetometer,40.44348551953917,-79.94449252843172,289.7518424987793,344.4874267578125,15.548615455627441,0,98.0682373046875,-1.0,-1.0,N/A,0.02325439453125,-0.9798431396484375,-0.149566650390625,-0.3386289179325104,0.0736667662858963,0.23409558832645416,-15.962020874023438,-138.24053955078125,-343.8471984863281,0.03226640820503235,0.058741867542266846,-0.04683928191661835,1.4363645217393224,-0.16775679478226627,0.15360612861167638,-0.02237870916724205,-0.9909776449203491,-0.1321459710597992,-0.01567230187356472,0.11692332476377487,0.05771983414888382,Walking,5,3.650000000023283,0,0,0.7773886322975159,1.763332486152649,0.8304794520494969
1835,Gyrometer,40.44348551953917,-79.94449252843172,289.7518424987793,344.4874267578125,15.548615455627441,0,98.0682373046875,-1.0,-1.0,N/A,0.02325439453125,-0.9798431396484375,-0.149566650390625,-0.11555109918117523,0.15690386295318604,-0.027275828644633293,-15.962020874023438,-138.24053955078125,-343.8471984863281,0.03226640820503235,0.058741867542266846,-0.04683928191661835,1.4363645217393224,-0.16775679478226627,0.15360612861167638,-0.02237870916724205,-0.9909776449203491,-0.1321459710597992,-0.01567230187356472,0.11692332476377487,0.05771983414888382,Walking,5,3.650000000023283,0,0,0.7773886322975159,1.763332486152649,0.8304794520494969
1865,Accelerometer,40.44348551953917,-79.94449252843172,289.7518424987793,344.4874267578125,15.548615455627441,0,98.0682373046875,-1.0,-1.0,N/A,0.014068603515625,-0.920928955078125,-0.1517333984375,-0.11555109918117523,0.15690386295318604,-0.027275828644633293,-15.962020874023438,-138.24053955078125,-343.8471984863281,0.03226640820503235,0.058741867542266846,-0.04683928191661835,1.4363645217393224,-0.16775679478226627,0.15360612861167638,-0.02237870916724205,-0.9909776449203491,-0.1321459710597992,-0.01567230187356472,0.11692332476377487,0.05771983414888382,Walking,5,3.650000000023283,0,0,0.7773886322975159,1.763332486152649,0.8304794520494969
1895,Device Motion,40.44348551953917,-79.94449252843172,289.7518424987793,344.4874267578125,15.548615455627441,0,98.0682373046875,-1.0,-1.0,N/A,0.014068603515625,-0.920928955078125,-0.1517333984375,-0.11555109918117523,0.15690386295318604,-0.027275828644633293,-15.962020874023438,-138.24053955078125,-343.8471984863281,0.02912929840385914,0.04816138744354248,0.06730689108371735,1.4163892289421705,-0.1465712281708815,0.18657940826646793,-0.02246122434735298,-0.988102912902832,-0.15214546024799347,0.21129997074604034,0.11024821549654007,-0.0027663609944283962,Walking,5,3.650000000023283,0,0,0.7773886322975159,1.763332486152649,0.8304794520494969
1924,COMPASS,40.44348551953917,-79.94449252843172,289.7518424987793,343.4349060058594,15.551301002502441,0,98.0682373046875,-1.0,-1.0,N/A,0.014068603515625,-0.920928955078125,-0.1517333984375,-0.11555109918117523,0.15690386295318604,-0.027275828644633293,-15.962020874023438,-138.24053955078125,-343.8471984863281,0.02912929840385914,0.04816138744354248,0.06730689108371735,1.4163892289421705,-0.1465712281708815,0.18657940826646793,-0.02246122434735298,-0.988102912902832,-0.15214546024799347,0.21129997074604034,0.11024821549654007,-0.0027663609944283962,Walking,5,3.650000000023283,0,0,0.7773886322975159,1.763332486152649,0.8304794520494969
2031,Altimeter,40.44348551953917,-79.94449252843172,289.7518424987793,343.4349060058594,15.551301002502441,-0.02642822265625,98.06854248046875,-1.0,-1.0,N/A,0.014068603515625,-0.920928955078125,-0.1517333984375,-0.11555109918117523,0.15690386295318604,-0.027275828644633293,-15.962020874023438,-138.24053955078125,-343.8471984863281,0.02912929840385914,0.04816138744354248,0.06730689108371735,1.4163892289421705,-0.1465712281708815,0.18657940826646793,-0.02246122434735298,-0.988102912902832,-0.15214546024799347,0.21129997074604034,0.11024821549654007,-0.0027663609944283962,Walking,5,3.650000000023283,0,0,0.7773886322975159,1.763332486152649,0.8304794520494969
2066,COMPASS,40.44348551953917,-79.94449252843172,289.7518424987793,344.7907409667969,15.554817199707031,-0.02642822265625,98.06854248046875,-1.0,-1.0,N/A,0.014068603515625,-0.920928955078125,-0.1517333984375,-0.11555109918117523,0.15690386295318604,-0.027275828644633293,-15.962020874023438,-138.24053955078125,-343.8471984863281,0.02912929840385914,0.04816138744354248,0.06730689108371735,1.4163892289421705,-0.1465712281708815,0.18657940826646793,-0.02246122434735298,-0.988102912902832,-0.15214546024799347,0.21129997074604034,0.11024821549654007,-0.0027663609944283962,Walking,5,3.650000000023283,0,0,0.7773886322975159,1.763332486152649,0.8304794520494969
2097,COMPASS,40.44348551953917,-79.94449252843172,289.7518424987793,345.8504333496094,15.55564022064209,-0.02642822265625,98.06854248046875,-1.0,-1.0,N/A,0.014068603515625,-0.920928955078125,-0.1517333984375,-0.11555109918117523,0.15690386295318604,-0.027275828644633293,-15.962020874023438,-138.24053955078125,-343.8471984863281,0.02912929840385914,0.04816138744354248,0.06730689108371735,1.4163892289421705,-0.1465712281708815,0.18657940826646793,-0.02246122434735298,-0.988102912902832,-0.15214546024799347,0.21129997074604034,0.11024821549654007,-0.0027663609944283962,Walking,5,3.650000000023283,0,0,0.7773886322975159,1.763332486152649,0.8304794520494969
2128,Magnetometer,40.44348551953917,-79.94449252843172,289.7518424987793,345.8504333496094,15.55564022064209,-0.02642822265625,98.06854248046875,-1.0,-1.0,N/A,0.014068603515625,-0.920928955078125,-0.1517333984375,-0.11555109918117523,0.15690386295318604,-0.027275828644633293,-17.09051513671875,-139.95510864257812,-340.400146484375,0.02912929840385914,0.04816138744354248,0.06730689108371735,1.4163892289421705,-0.1465712281708815,0.18657940826646793,-0.02246122434735298,-0.988102912902832,-0.15214546024799347,0.21129997074604034,0.11024821549654007,-0.0027663609944283962,Walking,5,3.650000000023283,0,0,0.7773886322975159,1.763332486152649,0.8304794520494969
2154,COMPASS,40.44348551953917,-79.94449252843172,289.7518424987793,346.9117126464844,15.556425094604492,-0.02642822265625,98.06854248046875,-1.0,-1.0,N/A,0.014068603515625,-0.920928955078125,-0.1517333984375,-0.11555109918117523,0.15690386295318604,-0.027275828644633293,-17.09051513671875,-139.95510864257812,-340.400146484375,0.02912929840385914,0.04816138744354248,0.06730689108371735,1.4163892289421705,-0.1465712281708815,0.18657940826646793,-0.02246122434735298,-0.988102912902832,-0.15214546024799347,0.21129997074604034,0.11024821549654007,-0.0027663609944283962,Walking,5,3.650000000023283,0,0,0.7773886322975159,1.763332486152649,0.8304794520494969
2180,COMPASS,40.44348551953917,-79.94449252843172,289.7518424987793,347.98822021484375,15.557171821594238,-0.02642822265625,98.06854248046875,-1.0,-1.0,N/A,0.014068603515625,-0.920928955078125,-0.1517333984375,-0.11555109918117523,0.15690386295318604,-0.027275828644633293,-17.09051513671875,-139.95510864257812,-340.400146484375,0.02912929840385914,0.04816138744354248,0.06730689108371735,1.4163892289421705,-0.1465712281708815,0.18657940826646793,-0.02246122434735298,-0.988102912902832,-0.15214546024799347,0.21129997074604034,0.11024821549654007,-0.0027663609944283962,Walking,5,3.650000000023283,0,0,0.7773886322975159,1.763332486152649,0.8304794520494969
2208,Gyrometer,40.44348551953917,-79.94449252843172,289.7518424987793,347.98822021484375,15.557171821594238,-0.02642822265625,98.06854248046875,-1.0,-1.0,N/A,0.014068603515625,-0.920928955078125,-0.1517333984375,0.12414831668138504,-0.366154283285141,-0.12328864634037018,-17.09051513671875,-139.95510864257812,-340.400146484375,0.02912929840385914,0.04816138744354248,0.06730689108371735,1.4163892289421705,-0.1465712281708815,0.18657940826646793,-0.02246122434735298,-0.988102912902832,-0.15214546024799347,0.21129997074604034,0.11024821549654007,-0.0027663609944283962,Walking,5,3.650000000023283,0,0,0.7773886322975159,1.763332486152649,0.8304794520494969
2235,COMPASS,40.44348551953917,-79.94449252843172,289.7518424987793,349.0777893066406,15.557900428771973,-0.02642822265625,98.06854248046875,-1.0,-1.0,N/A,0.014068603515625,-0.920928955078125,-0.1517333984375,0.12414831668138504,-0.366154283285141,-0.12328864634037018,-17.09051513671875,-139.95510864257812,-340.400146484375,0.02912929840385914,0.04816138744354248,0.06730689108371735,1.4163892289421705,-0.1465712281708815,0.18657940826646793,-0.02246122434735298,-0.988102912902832,-0.15214546024799347,0.21129997074604034,0.11024821549654007,-0.0027663609944283962,Walking,5,3.650000000023283,0,0,0.7773886322975159,1.763332486152649,0.8304794520494969
2266,Accelerometer,40.44348551953917,-79.94449252843172,289.7518424987793,349.0777893066406,15.557900428771973,-0.02642822265625,98.06854248046875,-1.0,-1.0,N/A,-0.06048583984375,-1.0861053466796875,-0.0869140625,0.12414831668138504,-0.366154283285141,-0.12328864634037018,-17.09051513671875,-139.95510864257812,-340.400146484375,0.02912929840385914,0.04816138744354248,0.06730689108371735,1.4163892289421705,-0.1465712281708815,0.18657940826646793,-0.02246122434735298,-0.988102912902832,-0.15214546024799347,0.21129997074604034,0.11024821549654007,-0.0027663609944283962,Walking,5,3.650000000023283,0,0,0.7773886322975159,1.763332486152649,0.8304794520494969
2293,COMPASS,40.44348551953917,-79.94449252843172,289.7518424987793,350.193603515625,15.55903434753418,-0.02642822265625,98.06854248046875,-1.0,-1.0,N/A,-0.06048583984375,-1.0861053466796875,-0.0869140625,0.12414831668138504,-0.366154283285141,-0.12328864634037018,-17.09051513671875,-139.95510864257812,-340.400146484375,0.02912929840385914,0.04816138744354248,0.06730689108371735,1.4163892289421705,-0.1465712281708815,0.18657940826646793,-0.02246122434735298,-0.988102912902832,-0.15214546024799347,0.21129997074604034,0.11024821549654007,-0.0027663609944283962,Walking,5,3.650000000023283,0,0,0.7773886322975159,1.763332486152649,0.8304794520494969
2319,Device Motion,40.44348551953917,-79.94449252843172,289.7518424987793,350.193603515625,15.55903434753418,-0.02642822265625,98.06854248046875,-1.0,-1.0,N/A,-0.06048583984375,-1.0861053466796875,-0.0869140625,0.12414831668138504,-0.366154283285141,-0.12328864634037018,-17.09051513671875,-139.95510864257812,-340.400146484375,-0.02489149570465088,0.014384806156158447,-0.07483190298080444,1.4459269459552455,-0.08054397692142005,0.04847774406146152,-0.010020597837865353,-0.9922139644622803,-0.1241423636674881,-0.4019220769405365,-0.37718871235847473,-0.14653067290782928,Walking,5,3.650000000023283,0,0,0.7773886322975159,1.763332486152649,0.8304794520494969
2356,COMPASS,40.44348551953917,-79.94449252843172,289.7518424987793,351.2711486816406,15.560627937316895,-0.02642822265625,98.06854248046875,-1.0,-1.0,N/A,-0.06048583984375,-1.0861053466796875,-0.0869140625,0.12414831668138504,-0.366154283285141,-0.12328864634037018,-17.09051513671875,-139.95510864257812,-340.400146484375,-0.02489149570465088,0.014384806156158447,-0.07483190298080444,1.4459269459552455,-0.08054397692142005,0.04847774406146152,-0.010020597837865353,-0.9922139644622803,-0.1241423636674881,-0.4019220769405365,-0.37718871235847473,-0.14653067290782928,Walking,5,3.650000000023283,0,0,0.7773886322975159,1.763332486152649,0.8304794520494969
2404,Magnetometer,40.44348551953917,-79.94449252843172,289.7518424987793,351.2711486816406,15.560627937316895,-0.02642822265625,98.06854248046875,-1.0,-1.0,N/A,-0.06048583984375,-1.0861053466796875,-0.0869140625,0.12414831668138504,-0.366154283285141,-0.12328864634037018,-17.738861083984375,-139.04307556152344,-346.50506591796875,-0.02489149570465088,0.014384806156158447,-0.07483190298080444,1.4459269459552455,-0.08054397692142005,0.04847774406146152,-0.010020597837865353,-0.9922139644622803,-0.1241423636674881,-0.4019220769405365,-0.37718871235847473,-0.14653067290782928,Walking,5,3.650000000023283,0,0,0.7773886322975159,1.763332486152649,0.8304794520494969
2435,Gyrometer,40.44348551953917,-79.94449252843172,289.7518424987793,351.2711486816406,15.560627937316895,-0.02642822265625,98.06854248046875,-1.0,-1.0,N/A,-0.06048583984375,-1.0861053466796875,-0.0869140625,0.21797654032707214,-0.17687836289405823,-0.0032527849543839693,-17.738861083984375,-139.04307556152344,-346.50506591796875,-0.02489149570465088,0.014384806156158447,-0.07483190298080444,1.4459269459552455,-0.08054397692142005,0.04847774406146152,-0.010020597837865353,-0.9922139644622803,-0.1241423636674881,-0.4019220769405365,-0.37718871235847473,-0.14653067290782928,Walking,5,3.650000000023283,0,0,0.7773886322975159,1.763332486152649,0.8304794520494969
2464,Accelerometer,40.44348551953917,-79.94449252843172,289.7518424987793,351.2711486816406,15.560627937316895,-0.02642822265625,98.06854248046875,-1.0,-1.0,N/A,-0.06109619140625,-0.892791748046875,-0.079010009765625,0.21797654032707214,-0.17687836289405823,-0.0032527849543839693,-17.738861083984375,-139.04307556152344,-346.50506591796875,-0.02489149570465088,0.014384806156158447,-0.07483190298080444,1.4459269459552455,-0.08054397692142005,0.04847774406146152,-0.010020597837865353,-0.9922139644622803,-0.1241423636674881,-0.4019220769405365,-0.37718871235847473,-0.14653067290782928,Walking,5,3.650000000023283,0,0,0.7773886322975159,1.763332486152649,0.8304794520494969
2492,COMPASS,40.44348551953917,-79.94449252843172,289.7518424987793,352.3626708984375,15.563170433044434,-0.02642822265625,98.06854248046875,-1.0,-1.0,N/A,-0.06109619140625,-0.892791748046875,-0.079010009765625,0.21797654032707214,-0.17687836289405823,-0.0032527849543839693,-17.738861083984375,-139.04307556152344,-346.50506591796875,-0.02489149570465088,0.014384806156158447,-0.07483190298080444,1.4459269459552455,-0.08054397692142005,0.04847774406146152,-0.010020597837865353,-0.9922139644622803,-0.1241423636674881,-0.4019220769405365,-0.37718871235847473,-0.14653067290782928,Walking,5,3.650000000023283,0,0,0.7773886322975159,1.763332486152649,0.8304794520494969
2520,Device Motion,40.44348551953917,-79.94449252843172,289.7518424987793,352.3626708984375,15.563170433044434,-0.02642822265625,98.06854248046875,-1.0,-1.0,N/A,-0.06109619140625,-0.892791748046875,-0.079010009765625,0.21797654032707214,-0.17687836289405823,-0.0032527849543839693,-17.738861083984375,-139.04307556152344,-346.50506591796875,-0.04609021544456482,0.06215459108352661,0.02684713900089264,1.4063041363015816,0.1068568618920308,-0.18698630795178103,0.017464732751250267,-0.9865016341209412,-0.16281788051128387,0.02146260440349579,-0.17215776443481445,-0.06893149018287659,Walking,5,3.650000000023283,0,0,0.7773886322975159,1.763332486152649,0.8304794520494969
2703,Magnetometer,40.44348551953917,-79.94449252843172,289.7518424987793,352.3626708984375,15.563170433044434,-0.02642822265625,98.06854248046875,-1.0,-1.0,N/A,-0.06109619140625,-0.892791748046875,-0.079010009765625,0.21797654032707214,-0.17687836289405823,-0.0032527849543839693,-18.838546752929688,-141.1435089111328,-343.1223449707031,-0.04609021544456482,0.06215459108352661,0.02684713900089264,1.4063041363015816,0.1068568618920308,-0.18698630795178103,0.017464732751250267,-0.9865016341209412,-0.16281788051128387,0.02146260440349579,-0.17215776443481445,-0.06893149018287659,Walking,5,3.650000000023283,0,0,0.7773886322975159,1.763332486152649,0.8304794520494969
2737,Gyrometer,40.44348551953917,-79.94449252843172,289.7518424987793,352.3626708984375,15.563170433044434,-0.02642822265625,98.06854248046875,-1.0,-1.0,N/A,-0.06109619140625,-0.892791748046875,-0.079010009765625,0.005154548212885857,0.210180401802063,-0.014943529851734638,-18.838546752929688,-141.1435089111328,-343.1223449707031,-0.04609021544456482,0.06215459108352661,0.02684713900089264,1.4063041363015816,0.1068568618920308,-0.18698630795178103,0.017464732751250267,-0.9865016341209412,-0.16281788051128387,0.02146260440349579,-0.17215776443481445,-0.06893149018287659,Walking,5,3.650000000023283,0,0,0.7773886322975159,1.763332486152649,0.8304794520494969
2765,COMPASS,40.44348551953917,-79.94449252843172,289.7518424987793,351.325439453125,15.568873405456543,-0.02642822265625,98.06854248046875,-1.0,-1.0,N/A,-0.06109619140625,-0.892791748046875,-0.079010009765625,0.005154548212885857,0.210180401802063,-0.014943529851734638,-18.838546752929688,-141.1435089111328,-343.1223449707031,-0.04609021544456482,0.06215459108352661,0.02684713900089264,1.4063041363015816,0.1068568618920308,-0.18698630795178103,0.017464732751250267,-0.9865016341209412,-0.16281788051128387,0.02146260440349579,-0.17215776443481445,-0.06893149018287659,Walking,5,3.650000000023283,0,0,0.7773886322975159,1.763332486152649,0.8304794520494969
2793,Accelerometer,40.44348551953917,-79.94449252843172,289.7518424987793,351.325439453125,15.568873405456543,-0.02642822265625,98.06854248046875,-1.0,-1.0,N/A,0.0403900146484375,-1.129180908203125,-0.2223052978515625,0.005154548212885857,0.210180401802063,-0.014943529851734638,-18.838546752929688,-141.1435089111328,-343.1223449707031,-0.04609021544456482,0.06215459108352661,0.02684713900089264,1.4063041363015816,0.1068568618920308,-0.18698630795178103,0.017464732751250267,-0.9865016341209412,-0.16281788051128387,0.02146260440349579,-0.17215776443481445,-0.06893149018287659,Walking,5,3.650000000023283,0,0,0.7773886322975159,1.763332486152649,0.8304794520494969
2821,Device Motion,40.44348551953917,-79.94449252843172,289.7518424987793,351.325439453125,15.568873405456543,-0.02642822265625,98.06854248046875,-1.0,-1.0,N/A,0.0403900146484375,-1.129180908203125,-0.2223052978515625,0.005154548212885857,0.210180401802063,-0.014943529851734638,-18.838546752929688,-141.1435089111328,-343.1223449707031,-0.028742969036102295,0.00345003604888916,-0.10488767921924591,1.454737636447412,0.03264471232802801,-0.09939259442980077,0.003779605496674776,-0.9932727217674255,-0.1157388910651207,0.06613732874393463,0.19260543584823608,0.020544366911053658,Walking,5,3.650000000023283,0,0,0.7773886322975159,1.763332486152649,0.8304794520494969
2875,COMPASS,40.44348551953917,-79.94449252843172,289.7518424987793,350.30474853515625,15.570908546447754,-0.02642822265625,98.06854248046875,-1.0,-1.0,N/A,0.0403900146484375,-1.129180908203125,-0.2223052978515625,0.005154548212885857,0.210180401802063,-0.014943529851734638,-18.838546752929688,-141.1435089111328,-343.1223449707031,-0.028742969036102295,0.00345003604888916,-0.10488767921924591,1.454737636447412,0.03264471232802801,-0.09939259442980077,0.003779605496674776,-0.9932727217674255,-0.1157388910651207,0.06613732874393463,0.19260543584823608,0.020544366911053658,Walking,5,3.650000000023283,0,0,0.7773886322975159,1.763332486152649,0.8304794520494969
2935,COMPASS,40.44348551953917,-79.94449252843172,289.7518424987793,349.1236267089844,15.57141399383545,-0.02642822265625,98.06854248046875,-1.0,-1.0,N/A,0.0403900146484375,-1.129180908203125,-0.2223052978515625,0.005154548212885857,0.210180401802063,-0.014943529851734638,-18.838546752929688,-141.1435089111328,-343.1223449707031,-0.028742969036102295,0.00345003604888916,-0.10488767921924591,1.454737636447412,0.03264471232802801,-0.09939259442980077,0.003779605496674776,-0.9932727217674255,-0.1157388910651207,0.06613732874393463,0.19260543584823608,0.020544366911053658,Walking,5,3.650000000023283,0,0,0.7773886322975159,1.763332486152649,0.8304794520494969
3003,Magnetometer,40.44348551953917,-79.94449252843172,289.7518424987793,349.1236267089844,15.57141399383545,-0.02642822265625,98.06854248046875,-1.0,-1.0,N/A,0.0403900146484375,-1.129180908203125,-0.2223052978515625,0.005154548212885857,0.210180401802063,-0.014943529851734638,-20.627548217773438,-142.9662628173828,-345.1910400390625,-0.028742969036102295,0.00345003604888916,-0.10488767921924591,1.454737636447412,0.03264471232802801,-0.09939259442980077,0.003779605496674776,-0.9932727217674255,-0.1157388910651207,0.06613732874393463,0.19260543584823608,0.020544366911053658,Walking,5,3.650000000023283,0,0,0.7773886322975159,1.763332486152649,0.8304794520494969
3036,COMPASS,40.44348551953917,-79.94449252843172,289.7518424987793,348.09295654296875,15.573219299316406,-0.02642822265625,98.06854248046875,-1.0,-1.0,N/A,0.0403900146484375,-1.129180908203125,-0.2223052978515625,0.005154548212885857,0.210180401802063,-0.014943529851734638,-20.627548217773438,-142.9662628173828,-345.1910400390625,-0.028742969036102295,0.00345003604888916,-0.10488767921924591,1.454737636447412,0.03264471232802801,-0.09939259442980077,0.003779605496674776,-0.9932727217674255,-0.1157388910651207,0.06613732874393463,0.19260543584823608,0.020544366911053658,Walking,5,3.650000000023283,0,0,0.7773886322975159,1.763332486152649,0.8304794520494969
3067,Gyrometer,40.44348551953917,-79.94449252843172,289.7518424987793,348.09295654296875,15.573219299316406,-0.02642822265625,98.06854248046875,-1.0,-1.0,N/A,0.0403900146484375,-1.129180908203125,-0.2223052978515625,-0.17952395975589752,0.14412255585193634,-0.03911810740828514,-20.627548217773438,-142.9662628173828,-345.1910400390625,-0.028742969036102295,0.00345003604888916,-0.10488767921924591,1.454737636447412,0.03264471232802801,-0.09939259442980077,0.003779605496674776,-0.9932727217674255,-0.1157388910651207,0.06613732874393463,0.19260543584823608,0.020544366911053658,Walking,5,3.650000000023283,0,0,0.7773886322975159,1.763332486152649,0.8304794520494969
3097,Altimeter,40.44348551953917,-79.94449252843172,289.7518424987793,348.09295654296875,15.573219299316406,-0.0528564453125,98.06884002685547,-1.0,-1.0,N/A,0.0403900146484375,-1.129180908203125,-0.2223052978515625,-0.17952395975589752,0.14412255585193634,-0.03911810740828514,-20.627548217773438,-142.9662628173828,-345.1910400390625,-0.028742969036102295,0.00345003604888916,-0.10488767921924591,1.454737636447412,0.03264471232802801,-0.09939259442980077,0.003779605496674776,-0.9932727217674255,-0.1157388910651207,0.06613732874393463,0.19260543584823608,0.020544366911053658,Walking,5,3.650000000023283,0,0,0.7773886322975159,1.763332486152649,0.8304794520494969
3125,Accelerometer,40.44348551953917,-79.94449252843172,289.7518424987793,348.09295654296875,15.573219299316406,-0.0528564453125,98.06884002685547,-1.0,-1.0,N/A,0.0106048583984375,-0.8791961669921875,-0.13311767578125,-0.17952395975589752,0.14412255585193634,-0.03911810740828514,-20.627548217773438,-142.9662628173828,-345.1910400390625,-0.028742969036102295,0.00345003604888916,-0.10488767921924591,1.454737636447412,0.03264471232802801,-0.09939259442980077,0.003779605496674776,-0.9932727217674255,-0.1157388910651207,0.06613732874393463,0.19260543584823608,0.020544366911053658,Walking,5,3.650000000023283,0,0,0.7773886322975159,1.763332486152649,0.8304794520494969
3153,Device Motion,40.44348551953917,-79.94449252843172,289.7518424987793,348.09295654296875,15.573219299316406,-0.0528564453125,98.06884002685547,-1.0,-1.0,N/A,0.0106048583984375,-0.8791961669921875,-0.13311767578125,-0.17952395975589752,0.14412255585193634,-0.03911810740828514,-20.627548217773438,-142.9662628173828,-345.1910400390625,0.03151625394821167,0.08516865968704224,0.0302056223154068,1.4240492536434601,-0.021441147825001474,0.00046757721181732973,-0.0031349058263003826,-0.989251971244812,-0.14618737995624542,-0.0659983903169632,-0.08855938166379929,0.027780083939433098,Walking,5,3.650000000023283,0,0,0.7773886322975159,1.763332486152649,0.8304794520494969
3194,COMPASS,40.44348551953917,-79.94449252843172,289.7518424987793,349.4626770019531,15.576505661010742,-0.0528564453125,98.06884002685547,-1.0,-1.0,N/A,0.0106048583984375,-0.8791961669921875,-0.13311767578125,-0.17952395975589752,0.14412255585193634,-0.03911810740828514,-20.627548217773438,-142.9662628173828,-345.1910400390625,0.03151625394821167,0.08516865968704224,0.0302056223154068,1.4240492536434601,-0.021441147825001474,0.00046757721181732973,-0.0031349058263003826,-0.989251971244812,-0.14618737995624542,-0.0659983903169632,-0.08855938166379929,0.027780083939433098,Walking,5,3.650000000023283,0,0,0.7773886322975159,1.763332486152649,0.8304794520494969
3254,COMPASS,40.44348551953917,-79.94449252843172,289.7518424987793,350.87237548828125,15.577528953552246,-0.0528564453125,98.06884002685547,-1.0,-1.0,N/A,0.0106048583984375,-0.8791961669921875,-0.13311767578125,-0.17952395975589752,0.14412255585193634,-0.03911810740828514,-20.627548217773438,-142.9662628173828,-345.1910400390625,0.03151625394821167,0.08516865968704224,0.0302056223154068,1.4240492536434601,-0.021441147825001474,0.00046757721181732973,-0.0031349058263003826,-0.989251971244812,-0.14618737995624542,-0.0659983903169632,-0.08855938166379929,0.027780083939433098,Walking,5,3.650000000023283,0,0,0.7773886322975159,1.763332486152649,0.8304794520494969
3302,Magnetometer,40.44348551953917,-79.94449252843172,289.7518424987793,350.87237548828125,15.577528953552246,-0.0528564453125,98.06884002685547,-1.0,-1.0,N/A,0.0106048583984375,-0.8791961669921875,-0.13311767578125,-0.17952395975589752,0.14412255585193634,-0.03911810740828514,-21.140548706054688,-146.39852905273438,-343.9110412597656,0.03151625394821167,0.08516865968704224,0.0302056223154068,1.4240492536434601,-0.021441147825001474,0.00046757721181732973,-0.0031349058263003826,-0.989251971244812,-0.14618737995624542,-0.0659983903169632,-0.08855938166379929,0.027780083939433098,Walking,5,3.650000000023283,0,0,0.7773886322975159,1.763332486152649,0.8304794520494969
3336,COMPASS,40.44348551953917,-79.94449252843172,289.7518424987793,352.2986755371094,15.578703880310059,-0.0528564453125,98.06884002685547,-1.0,-1.0,N/A,0.0106048583984375,-0.8791961669921875,-0.13311767578125,-0.17952395975589752,0.14412255585193634,-0.03911810740828514,-21.140548706054688,-146.39852905273438,-343.9110412597656,0.03151625394821167,0.08516865968704224,0.0302056223154068,1.4240492536434601,-0.021441147825001474,0.00046757721181732973,-0.0031349058263003826,-0.989251971244812,-0.14618737995624542,-0.0659983903169632,-0.08855938166379929,0.027780083939433098,Walking,5,3.650000000023283,0,0,0.7773886322975159,1.763332486152649,0.8304794520494969
3366,Gyrometer,40.44348551953917,-79.94449252843172,289.7518424987793,352.2986755371094,15.578703880310059,-0.0528564453125,98.06884002685547,-1.0,-1.0,N/A,0.0106048583984375,-0.8791961669921875,-0.13311767578125,0.24683402478694916,-0.29622793197631836,-0.17742830514907837,-21.140548706054688,-146.39852905273438,-343.9110412597656,0.03151625394821167,0.08516865968704224,0.0302056223154068,1.4240492536434601,-0.021441147825001474,0.00046757721181732973,-0.0031349058263003826,-0.989251971244812,-0.14618737995624542,-0.0659983903169632,-0.08855938166379929,0.027780083939433098,Walking,5,3.650000000023283,0,0,0.7773886322975159,1.763332486152649,0.8304794520494969
3395,COMPASS,40.44348551953917,-79.94449252843172,289.7518424987793,353.6974182128906,15.579792976379395,-0.0528564453125,98.06884002685547,-1.0,-1.0,N/A,0.0106048583984375,-0.8791961669921875,-0.13311767578125,0.24683402478694916,-0.29622793197631836,-0.17742830514907837,-21.140548706054688,-146.39852905273438,-343.9110412597656,0.03151625394821167,0.08516865968704224,0.0302056223154068,1.4240492536434601,-0.021441147825001474,0.00046757721181732973,-0.0031349058263003826,-0.989251971244812,-0.14618737995624542,-0.0659983903169632,-0.08855938166379929,0.027780083939433098,Walking,5,3.650000000023283,0,0,0.7773886322975159,1.763332486152649,0.8304794520494969
3424,Accelerometer,40.44348551953917,-79.94449252843172,289.7518424987793,353.6974182128906,15.579792976379395,-0.0528564453125,98.06884002685547,-1.0,-1.0,N/A,0.032073974609375,-1.1468353271484375,-0.0556182861328125,0.24683402478694916,-0.29622793197631836,-0.17742830514907837,-21.140548706054688,-146.39852905273438,-343.9110412597656,0.03151625394821167,0.08516865968704224,0.0302056223154068,1.4240492536434601,-0.021441147825001474,0.00046757721181732973,-0.0031349058263003826,-0.989251971244812,-0.14618737995624542,-0.0659983903169632,-0.08855938166379929,0.027780083939433098,Walking,5,3.650000000023283,0,0,0.7773886322975159,1.763332486152649,0.8304794520494969
3451,COMPASS,40.44348551953917,-79.94449252843172,289.7518424987793,354.908447265625,15.580777168273926,-0.0528564453125,98.06884002685547,-1.0,-1.0,N/A,0.032073974609375,-1.1468353271484375,-0.0556182861328125,0.24683402478694916,-0.29622793197631836,-0.17742830514907837,-21.140548706054688,-146.39852905273438,-343.9110412597656,0.03151625394821167,0.08516865968704224,0.0302056223154068,1.4240492536434601,-0.021441147825001474,0.00046757721181732973,-0.0031349058263003826,-0.989251971244812,-0.14618737995624542,-0.0659983903169632,-0.08855938166379929,0.027780083939433098,Walking,5,3.650000000023283,0,0,0.7773886322975159,1.763332486152649,0.8304794520494969
3480,Device Motion,40.44348551953917,-79.94449252843172,289.7518424987793,354.908447265625,15.580777168273926,-0.0528564453125,98.06884002685547,-1.0,-1.0,N/A,0.032073974609375,-1.1468353271484375,-0.0556182861328125,0.24683402478694916,-0.29622793197631836,-0.17742830514907837,-21.140548706054688,-146.39852905273438,-343.9110412597656,0.002626568078994751,-0.09215545654296875,-0.018449723720550537,1.4407386620503992,0.23146993195768908,-0.3246917675817285,0.02975260466337204,-0.9915544390678406,-0.12623381614685059,-0.38845813274383545,-0.2200598269701004,-0.1812422126531601,Walking,5,3.650000000023283,0,0,0.7773886322975159,1.763332486152649,0.8304794520494969
3603,Magnetometer,40.44348551953917,-79.94449252843172,289.7518424987793,354.908447265625,15.580777168273926,-0.0528564453125,98.06884002685547,-1.0,-1.0,N/A,0.032073974609375,-1.1468353271484375,-0.0556182861328125,0.24683402478694916,-0.29622793197631836,-0.17742830514907837,-19.5020751953125,-148.95721435546875,-345.69317626953125,0.002626568078994751,-0.09215545654296875,-0.018449723720550537,1.4407386620503992,0.23146993195768908,-0.3246917675817285,0.02975260466337204,-0.9915544390678406,-0.12623381614685059,-0.38845813274383545,-0.2200598269701004,-0.1812422126531601,Walking,5,3.650000000023283,0,0,0.7773886322975159,1.763332486152649,0.8304794520494969
3639,Gyrometer,40.44348551953917,-79.94449252843172,289.7518424987793,354.908447265625,15.580777168273926,-0.0528564453125,98.06884002685547,-1.0,-1.0,N/A,0.032073974609375,-1.1468353271484375,-0.0556182861328125,-0.17061834037303925,-0.011784221045672894,0.045339785516262054,-19.5020751953125,-148.95721435546875,-345.69317626953125,0.002626568078994751,-0.09215545654296875,-0.018449723720550537,1.4407386620503992,0.23146993195768908,-0.3246917675817285,0.02975260466337204,-0.9915544390678406,-0.12623381614685059,-0.38845813274383545,-0.2200598269701004,-0.1812422126531601,Walking,5,3.650000000023283,0,0,0.7773886322975159,1.763332486152649,0.8304794520494969
3671,Accelerometer,40.44348551953917,-79.94449252843172,289.7518424987793,354.908447265625,15.580777168273926,-0.0528564453125,98.06884002685547,-1.0,-1.0,N/A,-0.0081634521484375,-0.8223419189453125,-0.14886474609375,-0.17061834037303925,-0.011784221045672894,0.045339785516262054,-19.5020751953125,-148.95721435546875,-345.69317626953125,0.002626568078994751,-0.09215545654296875,-0.018449723720550537,1.4407386620503992,0.23146993195768908,-0.3246917675817285,0.02975260466337204,-0.9915544390678406,-0.12623381614685059,-0.38845813274383545,-0.2200598269701004,-0.1812422126531601,Walking,5,3.650000000023283,0,0,0.7773886322975159,1.763332486152649,0.8304794520494969
3700,Device Motion,40.44348551953917,-79.94449252843172,289.7518424987793,354.908447265625,15.580777168273926,-0.0528564453125,98.06884002685547,-1.0,-1.0,N/A,-0.0081634521484375,-0.8223419189453125,-0.14886474609375,-0.17061834037303925,-0.011784221045672894,0.045339785516262054,-19.5020751953125,-148.95721435546875,-345.69317626953125,-0.06937575340270996,0.13521355390548706,0.06690633296966553,1.387183279585136,0.26670263254145954,-0.3682057498858183,0.04812029004096985,-0.9831904172897339,-0.17612840235233307,0.030556097626686096,0.03019968420267105,0.006155146285891533,Walking,5,3.650000000023283,0,0,0.7773886322975159,1.763332486152649,0.8304794520494969
3901,Magnetometer,40.44348551953917,-79.94449252843172,289.7518424987793,354.908447265625,15.580777168273926,-0.0528564453125,98.06884002685547,-1.0,-1.0,N/A,-0.0081634521484375,-0.8223419189453125,-0.14886474609375,-0.17061834037303925,-0.011784221045672894,0.045339785516262054,-19.385116577148438,-154.0211639404297,-342.138671875,-0.06937575340270996,0.13521355390548706,0.06690633296966553,1.387183279585136,0.26670263254145954,-0.3682057498858183,0.04812029004096985,-0.9831904172897339,-0.17612840235233307,0.030556097626686096,0.03019968420267105,0.006155146285891533,Walking,5,3.650000000023283,0,0,0.7773886322975159,1.763332486152649,0.8304794520494969
3937,Gyrometer,40.44348551953917,-79.94449252843172,289.7518424987793,354.908447265625,15.580777168273926,-0.0528564453125,98.06884002685547,-1.0,-1.0,N/A,-0.0081634521484375,-0.8223419189453125,-0.14886474609375,0.08565790951251984,0.06887839734554291,0.025651566684246063,-19.385116577148438,-154.0211639404297,-342.138671875,-0.06937575340270996,0.13521355390548706,0.06690633296966553,1.387183279585136,0.26670263254145954,-0.3682057498858183,0.04812029004096985,-0.9831904172897339,-0.17612840235233307,0.030556097626686096,0.03019968420267105,0.006155146285891533,Walking,5,3.650000000023283,0,0,0.7773886322975159,1.763332486152649,0.8304794520494969
3968,Accelerometer,40.44348551953917,-79.94449252843172,289.7518424987793,354.908447265625,15.580777168273926,-0.0528564453125,98.06884002685547,-1.0,-1.0,N/A,0.053741455078125,-1.07720947265625,-0.1397552490234375,0.08565790951251984,0.06887839734554291,0.025651566684246063,-19.385116577148438,-154.0211639404297,-342.138671875,-0.06937575340270996,0.13521355390548706,0.06690633296966553,1.387183279585136,0.26670263254145954,-0.3682057498858183,0.04812029004096985,-0.9831904172897339,-0.17612840235233307,0.030556097626686096,0.03019968420267105,0.006155146285891533,Walking,5,3.650000000023283,0,0,0.7773886322975159,1.763332486152649,0.8304794520494969
3998,Device Motion,40.44348551953917,-79.94449252843172,289.7518424987793,354.908447265625,15.580777168273926,-0.0528564453125,98.06884002685547,-1.0,-1.0,N/A,0.053741455078125,-1.07720947265625,-0.1397552490234375,0.08565790951251984,0.06887839734554291,0.025651566684246063,-19.385116577148438,-154.0211639404297,-342.138671875,0.022240277379751205,-0.07916498184204102,0.05031384527683258,1.4218977915967947,0.342862915922981,-0.4201740743732826,0.049872785806655884,-0.9889350533485413,-0.1397148221731186,0.17120914161205292,0.07570436596870422,0.005159817636013031,Walking,5,3.650000000023283,0,0,0.7773886322975159,1.763332486152649,0.8304794520494969
4027,COMPASS,40.44348551953917,-79.94449252843172,289.7518424987793,353.7924499511719,15.590694427490234,-0.0528564453125,98.06884002685547,-1.0,-1.0,N/A,0.053741455078125,-1.07720947265625,-0.1397552490234375,0.08565790951251984,0.06887839734554291,0.025651566684246063,-19.385116577148438,-154.0211639404297,-342.138671875,0.022240277379751205,-0.07916498184204102,0.05031384527683258,1.4218977915967947,0.342862915922981,-0.4201740743732826,0.049872785806655884,-0.9889350533485413,-0.1397148221731186,0.17120914161205292,0.07570436596870422,0.005159817636013031,Walking,5,3.650000000023283,0,0,0.7773886322975159,1.763332486152649,0.8304794520494969
4054,Altimeter,40.44348551953917,-79.94449252843172,289.7518424987793,353.7924499511719,15.590694427490234,-0.10040283203125,98.06939697265625,-1.0,-1.0,N/A,0.053741455078125,-1.07720947265625,-0.1397552490234375,0.08565790951251984,0.06887839734554291,0.025651566684246063,-19.385116577148438,-154.0211639404297,-342.138671875,0.022240277379751205,-0.07916498184204102,0.05031384527683258,1.4218977915967947,0.342862915922981,-0.4201740743732826,0.049872785806655884,-0.9889350533485413,-0.1397148221731186,0.17120914161205292,0.07570436596870422,0.005159817636013031,Walking,5,3.650000000023283,0,0,0.7773886322975159,1.763332486152649,0.8304794520494969
4083,COMPASS,40.44348551953917,-79.94449252843172,289.7518424987793,352.5207824707031,15.591763496398926,-0.10040283203125,98.06939697265625,-1.0,-1.0,N/A,0.053741455078125,-1.07720947265625,-0.1397552490234375,0.08565790951251984,0.06887839734554291,0.025651566684246063,-19.385116577148438,-154.0211639404297,-342.138671875,0.022240277379751205,-0.07916498184204102,0.05031384527683258,1.4218977915967947,0.342862915922981,-0.4201740743732826,0.049872785806655884,-0.9889350533485413,-0.1397148221731186,0.17120914161205292,0.07570436596870422,0.005159817636013031,Walking,5,3.650000000023283,0,0,0.7773886322975159,1.763332486152649,0.8304794520494969
4113,Pedometer,40.44348551953917,-79.94449252843172,289.7518424987793,352.5207824707031,15.591763496398926,-0.10040283203125,98.06939697265625,-1.0,-1.0,N/A,0.053741455078125,-1.07720947265625,-0.1397552490234375,0.08565790951251984,0.06887839734554291,0.025651566684246063,-19.385116577148438,-154.0211639404297,-342.138671875,0.022240277379751205,-0.07916498184204102,0.05031384527683258,1.4218977915967947,0.342862915922981,-0.4201740743732826,0.049872785806655884,-0.9889350533485413,-0.1397148221731186,0.17120914161205292,0.07570436596870422,0.005159817636013031,Walking,5,3.650000000023283,0,0,0.7773886322975159,1.763332486152649,1.201840753416991
4143,COMPASS,40.44348551953917,-79.94449252843172,289.7518424987793,351.38250732421875,15.592659950256348,-0.10040283203125,98.06939697265625,-1.0,-1.0,N/A,0.053741455078125,-1.07720947265625,-0.1397552490234375,0.08565790951251984,0.06887839734554291,0.025651566684246063,-19.385116577148438,-154.0211639404297,-342.138671875,0.022240277379751205,-0.07916498184204102,0.05031384527683258,1.4218977915967947,0.342862915922981,-0.4201740743732826,0.049872785806655884,-0.9889350533485413,-0.1397148221731186,0.17120914161205292,0.07570436596870422,0.005159817636013031,Walking,5,3.650000000023283,0,0,0.7773886322975159,1.763332486152649,1.201840753416991
4191,COMPASS,40.44348551953917,-79.94449252843172,289.7518424987793,350.2923278808594,15.593668937683105,-0.10040283203125,98.06939697265625,-1.0,-1.0,N/A,0.053741455078125,-1.07720947265625,-0.1397552490234375,0.08565790951251984,0.06887839734554291,0.025651566684246063,-19.385116577148438,-154.0211639404297,-342.138671875,0.022240277379751205,-0.07916498184204102,0.05031384527683258,1.4218977915967947,0.342862915922981,-0.4201740743732826,0.049872785806655884,-0.9889350533485413,-0.1397148221731186,0.17120914161205292,0.07570436596870422,0.005159817636013031,Walking,5,3.650000000023283,0,0,0.7773886322975159,1.763332486152649,1.201840753416991
